<?xml version="1.0" encoding="UTF-8"?>
<kml xmlns="http://earth.google.com/kml/2.2">
<Document>
  <name>Danville, VA Parks</name>
  <description><![CDATA[This map pinpoints the various park locations in Danville, VA. All the parks listed are maintained by Danville Parks and Recreation.]]></description>
  <Style id="style3">
    <IconStyle>
      <Icon>
        <href>http://maps.gstatic.com/mapfiles/ms2/micons/blue-dot.png</href>
      </Icon>
    </IconStyle>
  </Style>
  <Style id="style2">
    <IconStyle>
      <Icon>
        <href>http://maps.gstatic.com/mapfiles/ms2/micons/blue-dot.png</href>
      </Icon>
    </IconStyle>
  </Style>
  <Style id="style5">
    <IconStyle>
      <Icon>
        <href>http://maps.gstatic.com/mapfiles/ms2/micons/blue-dot.png</href>
      </Icon>
    </IconStyle>
  </Style>
  <Style id="style1">
    <IconStyle>
      <Icon>
        <href>http://maps.gstatic.com/mapfiles/ms2/micons/blue-dot.png</href>
      </Icon>
    </IconStyle>
  </Style>
  <Style id="style7">
    <IconStyle>
      <Icon>
        <href>http://maps.gstatic.com/mapfiles/ms2/micons/blue-dot.png</href>
      </Icon>
    </IconStyle>
  </Style>
  <Style id="style4">
    <IconStyle>
      <Icon>
        <href>http://maps.gstatic.com/mapfiles/ms2/micons/blue-dot.png</href>
      </Icon>
    </IconStyle>
  </Style>
  <Style id="style6">
    <IconStyle>
      <Icon>
        <href>http://maps.gstatic.com/mapfiles/ms2/micons/blue-dot.png</href>
      </Icon>
    </IconStyle>
  </Style>
  <Placemark>
    <name>Dan Daniel Memorial Park</name>
    <description><![CDATA[]]></description>
    <styleUrl>#style3</styleUrl>
    <Point>
      <coordinates>-79.371193,36.575764,0.000000</coordinates>
    </Point>
  </Placemark>
  <Placemark>
    <name>Grove Park</name>
    <description><![CDATA[]]></description>
    <styleUrl>#style2</styleUrl>
    <Point>
      <coordinates>-79.400429,36.559361,0.000000</coordinates>
    </Point>
  </Placemark>
  <Placemark>
    <name>Ballou Park</name>
    <description><![CDATA[]]></description>
    <styleUrl>#style5</styleUrl>
    <Point>
      <coordinates>-79.423256,36.575146,0.000000</coordinates>
    </Point>
  </Placemark>
  <Placemark>
    <name>Camilla Williams Park</name>
    <description><![CDATA[]]></description>
    <styleUrl>#style1</styleUrl>
    <Point>
      <coordinates>-79.402397,36.592789,0.000000</coordinates>
    </Point>
  </Placemark>
  <Placemark>
    <name>Green Street Park</name>
    <description><![CDATA[]]></description>
    <styleUrl>#style7</styleUrl>
    <Point>
      <coordinates>-79.394951,36.580074,0.000000</coordinates>
    </Point>
  </Placemark>
  <Placemark>
    <name>Pumpkin Creek Park</name>
    <description><![CDATA[]]></description>
    <styleUrl>#style4</styleUrl>
    <Point>
      <coordinates>-79.409538,36.558231,0.000000</coordinates>
    </Point>
  </Placemark>
  <Placemark>
    <name>Anglers Park</name>
    <description><![CDATA[]]></description>
    <styleUrl>#style6</styleUrl>
    <Point>
      <coordinates>-79.350815,36.563911,0.000000</coordinates>
    </Point>
  </Placemark>
</Document>
</kml>
