Waterway Name,Organization,Street Address,Long,Lat,Phone Number,Description
Deep Creek Lock Park,Chesapeake Parks & Recreation,300 Luray Street,-76.341372,36.746165,757-421-7151,"This site has a dock step down and boat cleats. Site features floating dock and bank slide, paved parking lot and restroom facilities."
Dismal Swamp Canal Trail (North Trailhead Gate),Chesapeake Parks & Recreation,1200 Dismal Swamp Canal Trail,-76.358731,36.691872,757-421-7151,"This site is located along the Dismal Swamp Canal, the oldest continuously working man-made canal in the country. Access to the bank launch put-in ramp requires 80’ portage from the parking lot. Site features include a paved parking lot and restroom facilities."
Dismal Swamp Canal Trail South (Ballahack Boat Ramp),Chesapeake Parks & Recreation,1200 Dismal Swamp Canal Trail,-76.38001,36.599686,757-421-7151,"The Dismal Swamp Canal is the oldest continuously working man-made canal in the U.S. and defines the eastern edge of the Great Dismal Swamp National Wildlife Refuge. At the boat ramp, paddle south toward North Carolina and take the Feeder Ditch for easy access to Lake Drummond (one of only two natural lakes in Virginia). The concrete ramp can accommodate larger boats, as well as canoes and kayaks. Site features restroom facilities and a gravel parking lot with ample parking for trailers and multiple cars."
Bunch Walnuts Road Bridge,Triple R Ranch,3531 Bunch Walnuts Road,-76.278489,36.599626,757-421-4177,"At the site of this gently arched bridge of bent pine and weathered steel – the only one of its kind in the Hampton Roads area – a smooth, easy water access is provided. Parking is limited."
Indian Creek Road,Chesapeake Parks & Recreation,1733 Indian Creek Road,-76.152646,36.586115,757-421-7151,"The gentle, sloping bank is good for launching small boats on trailers. The site is 1.2 miles west of the entrance to Northwest River Park & Campgrounds on Indian Creek Rd.; NWRP is a full service park with a boat dock, restrooms and a picnic area. Site features a small gravel parking area for 2-4 vehicles."
Baum Road,Chesapeake Parks & Recreation,2212 Baum Road,-76.129113,36.577297,757-421-7151,A site with easy access to Smith Creek and the Northwest River. Site features a small crush-and-run parking lot and easy water entry.
Centerville Marina,Private,100 N. Centerville Turnpike,-76.186918,36.724026,757-547-4498,This is a privately-owned public access boat ramp that is geared toward power boats. Launch fees apply to all watercrafts including canoes and kayaks. Site features a large gravel parking lot and restroom facilities.
Elizabeth River Boat Landing & Park,Chesapeake Parks & Recreation,103 Poindexter Street,-76.285782,36.809476,757-421-7151,"This 2-lane boat ramp is located on the Southern Branch of the Elizabeth River at the Jordan Bridge and a quarter-mile west of the Poindexter Street Exit (#4), off I-464. It has a 144’ pier. Site features a large gravel parking lot, restroom facilities and a play area. NOTE: Area is prone to strong tidal flows and water level changes."
Great Bridge Lock Park,Chesapeake Parks & Recreation,100 Locks Road,-76.24751,36.724318,757-421-7151,"This 19-acre park with a 2-lane boat ramp is located at the end of Lock Road, or at transition of Southern Branch of the Elizabeth River and the Albemarle and Chesapeake Canal on the Intracoastal Waterway at the Great Bridge bridge. Site features a large gravel parking lot and restroom facilities."