{
"type": "FeatureCollection",
"crs": { "type": "name", "properties": { "name": "urn:ogc:def:crs:OGC:1.3:CRS84" } },
"features": [
{ "type": "Feature", "properties": { "Name": "Tension gashes in Elbrook along Apple Pie Ridge fault", "Description": "<p>Tension gashes in Elbrook along Apple Pie Ridge fault<\/p> <img src=\"files\/Ce_tensiongashes_APR-fault.jpg\" width=\"800\" height=\"600\"\/>" }, "geometry": { "type": "Point", "coordinates": [ -78.165849, 39.278867, 0.0 ] } },
{ "type": "Feature", "properties": { "Name": "Sinkhole retention pond--drained", "Description": "<p>Sinkhole retention pond--drained<\/p> <img src=\"files\/sinkhole_houses_drained.jpg\" width=\"800\" height=\"600\"\/ >" }, "geometry": { "type": "Point", "coordinates": [ -78.171071, 39.278938, 0.0 ] } },
{ "type": "Feature", "properties": { "Name": "Overturned bedding in Brallier", "Description": "<p>Overturned bedding in Brallier<\/p> <img src=\"files\/Db_overturned_bedding.jpg\" width=\"800\" height=\"600\" \/>" }, "geometry": { "type": "Point", "coordinates": [ -78.167919, 39.323909, 0.0 ] } },
{ "type": "Feature", "properties": { "Name": "Solutional joint in Stonehenge--sink point", "Description": "<P>Solutional joint in Stonehenge--sink point<\/p> <img src=\"files\/Os_solutional_joint.jpg\" width=\"400\" height=\"300\" >" }, "geometry": { "type": "Point", "coordinates": [ -78.132756, 39.274433, 0.0 ] } },
{ "type": "Feature", "properties": { "Name": "Karren in Stonehenge Limestone", "Description": "<p>Karren in Stonehenge Limestone<\/p> <img src=\"files\/Os_karren.jpg\" width=\"800\" height=\"600\" >" }, "geometry": { "type": "Point", "coordinates": [ -78.134285, 39.2747, 0.0 ] } },
{ "type": "Feature", "properties": { "Name": "Rip-up clasts in Conococheague Limestone", "Description": "<p>Rip-up clasts in Conococheague Limestone<\/p> <img src=\"files\/OCc_ripup-clasts.jpg\" width=\"800\" height=\"600\" >" }, "geometry": { "type": "Point", "coordinates": [ -78.139462, 39.278577, 0.0 ] } },
{ "type": "Feature", "properties": { "Name": "Fossil gastropod Leconspira in Stonehenge Limestone", "Description": "<p>Fossil gastropod Leconspira in Stonehenge Limestone<\/p> <img src=\"files\/Os_lecanospira.jpg\" width=\"800\" height=\"600\" >" }, "geometry": { "type": "Point", "coordinates": [ -78.135692, 39.275111, 0.0 ] } },
{ "type": "Feature", "properties": { "Name": "Stromatolites in Conococheague Limestone", "Description": "<p>Stromatolites in Conococheague Limestone<\/p> <img src=\"files\/OCc_stromatolites.jpg\" width=\"800\" height=\"600\" >" }, "geometry": { "type": "Point", "coordinates": [ -78.123154, 39.290263, 0.0 ] } },
{ "type": "Feature", "properties": { "Name": "\"Cabbagehead\" stromatolites, closeup", "Description": "<p>\"Cabbagehead\" stromatolites, closeup<\/p> <img src=\"files\/OCc_Stromatolites_cabbageheads.jpg\" width=\"800\" height=\"600\" >" }, "geometry": { "type": "Point", "coordinates": [ -78.123154, 39.290263, 0.0 ] } },
{ "type": "Feature", "properties": { "Name": "Stoufferstown member of the Stonehenge Limestone", "Description": "<p>Stoufferstown member of the Stonehenge Limestone<\/p> <img src=\"files\/Os_StoufferstownMbr.jpg\" width=\"800\" height=\"600\" >" }, "geometry": { "type": "Point", "coordinates": [ -78.13188, 39.266326, 0.0 ] } },
{ "type": "Feature", "properties": { "Name": "Stoufferstown Member of Stonehenge Limestone, closeup", "Description": "<p>Stoufferstown Member of Stonehenge Limestone, closeup<\/p> <img src=\"files\/Os_StoufferstownMbr_closeup.jpg\" width=\"800\" height=\"600\" >" }, "geometry": { "type": "Point", "coordinates": [ -78.13188, 39.266326, 0.0 ] } },
{ "type": "Feature", "properties": { "Name": "Upper Conococheague Limestone", "Description": "<p>Upper Conococheague Limestone<\/p> <img src=\"files\/OCc_upper.jpg\" width=\"300\" height=\"400\" >" }, "geometry": { "type": "Point", "coordinates": [ -78.131039, 39.265899, 0.0 ] } },
{ "type": "Feature", "properties": { "Name": "Thick-bedded dolomite in Conococheague", "Description": "<p>Thick-bedded dolomite in Cononcheague<\/p> <img src=\"files\/OCc_bedded_dolomite.jpg\" width=\"800\" height=\"600\" >" }, "geometry": { "type": "Point", "coordinates": [ -78.134078, 39.293641, 0.0 ] } },
{ "type": "Feature", "properties": { "Name": "Sandy layers in Conococheague", "Description": "<p>Sandy layers in Conococheague<\/p> <img src=\"files\/OCc_sandy_laminae.jpg\" width=\"600\" height=\"800\" >" }, "geometry": { "type": "Point", "coordinates": [ -78.134352, 39.295466, 0.0 ] } },
{ "type": "Feature", "properties": { "Name": "Sinkhole throat in cow wallow", "Description": "<p>Sinkhole throat in cow wallow<\/p> <img src=\"files\/Sinkhole_throat.jpg\" width=\"800\" height=\"600\" >" }, "geometry": { "type": "Point", "coordinates": [ -78.135272, 39.295969, 0.0 ] } },
{ "type": "Feature", "properties": { "Name": "Sheared dolomite breccia", "Description": "<p>Sheared dolomite breccia<\/p> <img src=\"files\/Or_sheared_dolo_breccia.jpg\" width=\"600\" height=\"800\" >" }, "geometry": { "type": "Point", "coordinates": [ -78.135324, 39.259043, 0.0 ] } },
{ "type": "Feature", "properties": { "Name": "Offset tension gash in Stonehenge", "Description": "<p>Offset tension gash in Stonehenge<\/p> <img src=\"files\/Os_offset tension gash.jpg\" width=\"640\" height=\"800\" >" }, "geometry": { "type": "Point", "coordinates": [ -78.132163, 39.268152, 0.0 ] } },
{ "type": "Feature", "properties": { "Name": "Solutional conduit in outcrop of Conococheague", "Description": "<p>Solutional conduit in outcrop of Conococheague, exposed in sinkhole used as retention pond<\/p> <img src=\"files\/OCc_conduit.jpg\" width=\"300\" height=\"400\" >" }, "geometry": { "type": "Point", "coordinates": [ -78.171954, 39.279207, 0.0 ] } },
{ "type": "Feature", "properties": { "Name": "Ponded sinkhole used as retention pond", "Description": "<p>Ponded sinkhole used as retention pond, capturing runoff<\/p> <img src=\"files\/sinkhole_houses_ponded.jpg\" width=\"800\" height=\"600\" >" }, "geometry": { "type": "Point", "coordinates": [ -78.171209, 39.279275, 0.0 ] } },
{ "type": "Feature", "properties": { "Name": "Kink-fold in Elbrook", "Description": "<p>Kink-fold in tilted beds of Elbrook limestone, along Apple Pie Ridge Fault<\/p> <img src=\"files\/Ce_kink-fold.jpg\" width=\"300\" height=\"400\" >" }, "geometry": { "type": "Point", "coordinates": [ -78.163834, 39.27928, 0.0 ] } },
{ "type": "Feature", "properties": { "Name": "Contact between upper and middle members of the Elbrook Formation", "Description": "<p>Contact between upper and middle members of the Elbrook Formation<\/p> <img src=\"files\/Ce_uppermiddle_member_contact.jpg\" width=\"800\" height=\"600\" >" }, "geometry": { "type": "Point", "coordinates": [ -78.152522, 39.292269, 0.0 ] } },
{ "type": "Feature", "properties": { "Name": "Snowmelt runoff into ponded sinkhole", "Description": "<p>Snowmelt runoff into ponded sinkhole<\/p> <img src=\"files\/Sinkhole_snowmelt_runoff.jpg\" width=\"800\" height=\"630\" >" }, "geometry": { "type": "Point", "coordinates": [ -78.147342, 39.305447, 0.0 ] } },
{ "type": "Feature", "properties": { "Name": "Sinkhole previously receiving snowmelt runoff now dry and vegetated", "Description": "<p>Sinkhole previously receiving snowmelt runoff now dry and vegetated<\/p> <img src=\"files\/Sinkhole_dry_vegetated.jpg\" width=\"800\" height=\"600\" >" }, "geometry": { "type": "Point", "coordinates": [ -78.14695, 39.305409, 0.0 ] } },
{ "type": "Feature", "properties": { "Name": "Broken dolomite bed in Elbrook", "Description": "<p>Broken dolomite bed in Elbrook <\/p> <img src=\"files\/Ce_broken_dolomite_bed.jpg\" width=\"800\" height=\"600\" >" }, "geometry": { "type": "Point", "coordinates": [ -78.146005, 39.305368, 0.0 ] } },
{ "type": "Feature", "properties": { "Name": "Middle limestone member of the Elbrook Formation", "Description": "<p>Middle limestone member of the Elbrook Formation<\/p> <img src=\"files\/Ce_middle_ls_mbr.jpg\" width=\"800\" height=\"600\" >" }, "geometry": { "type": "Point", "coordinates": [ -78.146319, 39.305479, 0.0 ] } },
{ "type": "Feature", "properties": { "Name": "Crenulation cleavage in Stonehenge", "Description": "<p>Crenulation cleavage highlighted by siliceous bands in Stonehenge<\/p> <img src=\"files\/Os_crenulation_cleavage.jpg\" width=\"800\" height=\"600\" >" }, "geometry": { "type": "Point", "coordinates": [ -78.157378, 39.30015, 0.0 ] } },
{ "type": "Feature", "properties": { "Name": "Stonehenge Limestone outcrop", "Description": "<p>Outcrop of Stonehenge Limestone<\/p> <img src=\"files\/Os_ls_outcrop.jpg\" width=\"800\" height=\"600\" >" }, "geometry": { "type": "Point", "coordinates": [ -78.158454, 39.299161, 0.0 ] } },
{ "type": "Feature", "properties": { "Name": "Interbedded siltstone and shale in Brallier Formation", "Description": "<p>Interbedded siltstone and shale in Brallier Formation<\/p> <img src=\"files\/Db_silstone_beds.jpg\" width=\"600\" height=\"800\" >" }, "geometry": { "type": "Point", "coordinates": [ -78.17351, 39.308665, 0.0 ] } },
{ "type": "Feature", "properties": { "Name": "Brachiopod-rich bed in Chaneysville Siltstone", "Description": "<p>Brachiopod-rich bed in Chaneysville Siltstone Member of Mahantango Formation<\/p> <img src=\"files\/Dmch_brachiopod_bed.jpg\" width=\"800\" height=\"600\" >" }, "geometry": { "type": "Point", "coordinates": [ -78.147451, 39.357536, 0.0 ] } },
{ "type": "Feature", "properties": { "Name": "Chaneysville Silstone exposed along Back Creek", "Description": "<p>Chaneysville Silstone Member of Mahantango Formation exposed along Back Creek<\/p> <img src=\"files\/Dmch_BackCreek.jpg\" width=\"800\" height=\"600\" >" }, "geometry": { "type": "Point", "coordinates": [ -78.16685, 39.372736, 0.0 ] } },
{ "type": "Feature", "properties": { "Name": "Estavelle, flowing as spring", "Description": "<p> Estavelle, flowing as spring, located on along fault<\/p> <img src=\"files\/Estavelle.jpg\" width=\"800\" height=\"600\" >" }, "geometry": { "type": "Point", "coordinates": [ -78.148921, 39.308784, 0.0 ] } },
{ "type": "Feature", "properties": { "Name": "Minor anticlinal fold in Conococheague", "Description": "<p>Minor anticlinal fold in Conococheague Limestone near fault<\/p> <img src=\"files\/OCc-minor anticline.jpg\" width=\"800\" height=\"600\" >" }, "geometry": { "type": "Point", "coordinates": [ -78.138523, 39.273365, 0.0 ] } },
{ "type": "Feature", "properties": { "Name": "Sandstone beds in Conococheague", "Description": "<p>Sandstone beds in Conococheague<\/p> <img src=\"files\/OCc_sandstone beds.jpg\" width=\"800\" height=\"600\" >" }, "geometry": { "type": "Point", "coordinates": [ -78.138591, 39.276136, 0.0 ] } },
{ "type": "Feature", "properties": { "Name": "Algal thrombolite in Conococheague", "Description": "<p> Algal thrombolite in Conococheague, hammer on bedding plane<\/p> <img src=\"files\/OCc_bss_algal thrombolites.jpg\" width=\"800\" height=\"600\" >" }, "geometry": { "type": "Point", "coordinates": [ -78.150139, 39.27403, 0.0 ] } },
{ "type": "Feature", "properties": { "Name": "Open-throat sinkhole in Conococheague", "Description": "<p>Open-throat sinkhole in Conococheague<\/p> <img src=\"files\/Sinkhole_openthroat.jpg\" width=\"800\" height=\"600\" >" }, "geometry": { "type": "Point", "coordinates": [ -78.138552505965507, 39.278392201631817, 0.0 ] } },
{ "type": "Feature", "properties": { "Name": "Digitate stromatolites in Elbrook Formation", "Description": "<p>Digitate stromatolites in upper member of Elbrook Formation, looking down on bedding plane<\/p> <img src=\"files\/Ce_upper mbr_digi-stromat.jpg\" width=\"600\" height=\"800\" >" }, "geometry": { "type": "Point", "coordinates": [ -78.124826, 39.320395, 0.0 ] } },
{ "type": "Feature", "properties": { "Name": "Algal structures in Elbrook Formation", "Description": "<p>Algal structures in upper member of Elbrook Formation, hammer on bedding plane<\/p> <img src=\"files\/Ce_upper mbr_algalheads.jpg\" width=\"600\" height=\"800\" >" }, "geometry": { "type": "Point", "coordinates": [ -78.12511, 39.320613, 0.0 ] } },
{ "type": "Feature", "properties": { "Name": "Boudins expressed as spheroidal weathering in Chaneysville Siltstone", "Description": "<p>Tectonic boudins expressed as spheroidal weathering in Chaneysville Siltstone Member of Mahantango Formation<\/p>  <img src=\"files\/Dmch_hammer_boudins.jpg\" width=\"800\" height=\"600\" >" }, "geometry": { "type": "Point", "coordinates": [ -78.170423, 39.306443, 0.0 ] } },
{ "type": "Feature", "properties": { "Name": "Boudins cut by joints in Chaneysville Siltstone", "Description": "<p>Side-looking view of boudins cut by joints in Chaneysville Siltstone, hammer resting along joint surface<\/p> <img src=\"files\/Dmch_hammer_joints.jpg\" width=\"800\" height=\"600\" >" }, "geometry": { "type": "Point", "coordinates": [ -78.170612, 39.306375, 0.0 ] } },
{ "type": "Feature", "properties": { "Name": "Paleo-terrace cobbles exposed in roadcut", "Description": "<p>Paleo-terrace cobbles exposed in roadcut<\/p> <img src=\"files\/Terrace_cobbles.jpg\" width=\"800\" height=\"600\" >" }, "geometry": { "type": "Point", "coordinates": [ -78.227449, 39.300581, 0.0 ] } },
{ "type": "Feature", "properties": { "Name": "Upper ridge-forming unit of Foreknobs Formation", "Description": "<p>Upper sandstone-bearing, ridge-forming unit of Foreknobs Formation exposed along rte. 522<\/p> <img src=\"files\/Dfu_upper ss beds along 522.jpg\" width=\"800\" height=\"600\" >" }, "geometry": { "type": "Point", "coordinates": [ -78.222634, 39.260143, 0.0 ] } },
{ "type": "Feature", "properties": { "Name": "Lower ridge-forming unit of Foreknobs Formation", "Description": "<p>Lower sandstone-bearing, ridge-forming unit of Foreknobs Formation exposed along rte. 522<\/p> <img src=\"files\/Dfl_exposure on rte 522.jpg\" width=\"800\" height=\"600\" >" }, "geometry": { "type": "Point", "coordinates": [ -78.229287, 39.260221, 0.0 ] } },
{ "type": "Feature", "properties": { "Name": "Redbeds and shale of upper Foreknobs Formation", "Description": "<p>Redbeds and buff-colored shale of upper Foreknobs Formation <\/p> <img src=\"files\/Df_redbeds and shale.jpg\" width=\"800\" height=\"600\" >" }, "geometry": { "type": "Point", "coordinates": [ -78.215266963156054, 39.253273698371068, 0.0 ] } }
]
}
