{"type":"FeatureCollection","features":[{"type":"Feature","geometry":{"type":"Point","coordinates":[-77.454903,37.547844,0]},"properties":{"name":"Virginia Commonwealth University","styleUrl":"#style1","styleHash":"53b71801","description":"Monroe Park Campus <BR><A href=\"http://www.vcu.edu/\" target=\"_blank\">www.vcu.edu</A> <BR>"}},{"type":"Feature","geometry":{"type":"Point","coordinates":[-77.429535,37.541481,0]},"properties":{"name":"Virginia Commonwealth University","styleUrl":"#style9","styleHash":"779d6cf9","description":"<DIV>Medical Campus</DIV>\n<P><A href=\"http://www.vcu.edu\" target=\"_blank\">www.vcu.edu</A></P></P>"}},{"type":"Feature","geometry":{"type":"Point","coordinates":[-76.472893,37.047451,0]},"properties":{"name":"Christopher Newport Dr","styleUrl":"#style6","styleHash":"4a270d1c","description":"<DIV>Newport News, VA 23601</DIV>\n<DIV><A href=\"http://www.cnu.edu\" target=\"_blank\">www.cnu.edu</A><br>&nbsp;</div>"}},{"type":"Feature","geometry":{"type":"Point","coordinates":[-76.713127,37.27388,0]},"properties":{"name":"College of William and Mary","styleUrl":"#style15","styleHash":"-508c71fc","description":"<DIV>398 Richmond Rd, Williamsburg, VA</DIV>\n<DIV><A href=\"http://www.wm.edu\" target=\"_blank\">www.wm.edu</A></DIV>\n<DIV><BR>&nbsp;</DIV>"}},{"type":"Feature","geometry":{"type":"Point","coordinates":[-77.307823,38.830379,0]},"properties":{"name":"George Mason University-Fairfax","styleUrl":"#style4","styleHash":"-7ed28822","description":"<DIV>4400 University Dr, Uninc Fairfax County, VA<BR><A href=\"http://www.gmu.edu\" target=\"_blank\">www.gmu.edu</A></DIV>\n<DIV>&nbsp;</DIV>"}},{"type":"Feature","geometry":{"type":"Point","coordinates":[-78.874863,38.440689,0]},"properties":{"name":"James Madison University","styleUrl":"#style14","styleHash":"4af6c365","description":"<DIV>800 S Main St, Harrisonburg, VA</DIV>\n<DIV><A href=\"http://www.jmu.edu\" target=\"_blank\">www.jmu.edu</A></DIV>\n<DIV><BR>&nbsp;</DIV>"}},{"type":"Feature","geometry":{"type":"Point","coordinates":[-78.394234,37.301579,0]},"properties":{"name":"Longwood University","styleUrl":"#style16","styleHash":"13f058a3","description":"<DIV>201 High St, Farmville, VA</DIV>\n<DIV><A href=\"http://www.longwood.edu\" target=\"_blank\">www.longwood.edu</A></DIV>\n<DIV><BR>&nbsp;</DIV>"}},{"type":"Feature","geometry":{"type":"Point","coordinates":[-76.269852,36.847252,0]},"properties":{"name":"Norfolk State University","styleUrl":"#style5","styleHash":"-1a55bd83","description":"<DIV>700 Park Ave, Norfolk, VA</DIV>\n<DIV><A href=\"http://www.nsu.edu\" target=\"_blank\">www.nsu.edu</A></DIV>\n<DIV><BR>&nbsp;</DIV>"}},{"type":"Feature","geometry":{"type":"Point","coordinates":[-76.302979,36.888859,0]},"properties":{"name":"Old Dominion University","styleUrl":"#style13","styleHash":"-1986073a","description":"<DIV>Norfolk, VA 23529</DIV>\n<DIV><A href=\"http://www.odu.edu\" target=\"_blank\">www.odu.edu</A></DIV>\n<DIV><BR>&nbsp;</DIV>"}},{"type":"Feature","geometry":{"type":"Point","coordinates":[-80.550438,37.137589,0]},"properties":{"name":"Radford University","styleUrl":"#style3","styleHash":"1cb0ad3f","description":"<DIV><A href=\"http://www.radford.edu\" target=\"_blank\">www.radford.edu</A></DIV>\n<DIV>&nbsp;</DIV>"}},{"type":"Feature","geometry":{"type":"Point","coordinates":[-77.475044,38.304218,0]},"properties":{"name":"University of Mary Washington","styleUrl":"#style2","styleHash":"-47cc1d60","description":"<DIV><A href=\"http://www.umw.edu\" target=\"_blank\">www.umw.edu</A></DIV>\n<DIV>&nbsp;</DIV>"}},{"type":"Feature","geometry":{"type":"Point","coordinates":[-78.502968,38.036652,0]},"properties":{"name":"University of Virginia","styleUrl":"#style10","styleHash":"-46fc6717","description":"<DIV>1721 University Ave, Charlottesville, VA</DIV>\n<DIV><A href=\"http://www.virginia.edu\" target=\"_blank\">www.virginia.edu</A></DIV>\n<DIV><BR>&nbsp;</DIV>"}},{"type":"Feature","geometry":{"type":"Point","coordinates":[-82.559486,36.968983,0]},"properties":{"name":"University of Virginia's College at Wise: Information","styleUrl":"#style8","styleHash":"1320a25a","description":"<SPAN>1 College Ave</SPAN><BR><SPAN>Wise</SPAN>, <SPAN>VA</SPAN> <SPAN>24293</SPAN><BR>(276) 328-0100<BR><A href=\"http://maps.google.com/maps?f=l&amp;hl=en&amp;geocode=&amp;time=&amp;date=&amp;ttype=&amp;q=One+College+Avenue+%E2%80%A2&amp;sll=36.97613,-82.57649&amp;sspn=0.034422,0.068836&amp;ie=UTF8&amp;near=Wise,+VA+24293&amp;latlng=36968983,-82559486,353597464655597668&amp;ei=kJeCR_jHEZXYrQKK56jBCQ&amp;sig2=Pn7xGudhI9cZ5C9BpuY_2w&amp;cd=4&amp;dtab=5\" target=\"_blank\"><IMG src=\"http://base.googlehosted.com/base_media?q=maps:www.4icu.org/i/screenshots/http_www.uvawise.edu.gif&amp;size=2&amp;hl=en\"></A><BR><A href=\"http://maps.google.com/maps?f=l&amp;hl=en&amp;geocode=&amp;time=&amp;date=&amp;ttype=&amp;q=One+College+Avenue+%E2%80%A2&amp;sll=36.97613,-82.57649&amp;sspn=0.034422,0.068836&amp;ie=UTF8&amp;near=Wise,+VA+24293&amp;latlng=36968983,-82559486,353597464655597668&amp;ei=kJeCR_jHEZXYrQKK56jBCQ&amp;sig2=Pn7xGudhI9cZ5C9BpuY_2w&amp;cd=4\" target=\"_blank\">more info Â»</A>"}},{"type":"Feature","geometry":{"type":"Point","coordinates":[-79.436066,37.789162,0]},"properties":{"name":"Virginia Military Institute","styleUrl":"#style11","styleHash":"1d806388","description":"<DIV><A href=\"http://www.vmi.edu\" target=\"_blank\">www.vmi.edu</A></DIV>\n<DIV>&nbsp;</DIV>"}},{"type":"Feature","geometry":{"type":"Point","coordinates":[-77.419884,37.23452,0]},"properties":{"name":"Virginia State University","styleUrl":"#style7","styleHash":"-515c2845","description":"<DIV>Hayden Dr, Uninc Chesterfield County, VA</DIV>\n<DIV><A href=\"http://www.vsu.edu\" target=\"_blank\">www.vsu.edu</A></DIV>\n<DIV><BR>&nbsp;</DIV>"}},{"type":"Feature","geometry":{"type":"Point","coordinates":[-80.441895,37.116528,0]},"properties":{"name":"Virginia Tech","styleUrl":"#style12","styleHash":"-7e02d1d9","description":"<DIV><SPAN>210 Burrus Hall</SPAN><BR><SPAN>Blacksburg</SPAN>, <SPAN>VA</SPAN> <SPAN>24061</SPAN><BR>(540) 231-6000<br>&nbsp;</div>\n<DIV><A href=\"http://www.vt.edu\" target=\"_blank\">www.vt.edu</A></DIV>\n<DIV>&nbsp;</DIV>"}}]}