{"type":"FeatureCollection","features":[{"type":"Feature","geometry":{"type":"Point","coordinates":[-77.427682761137,37.534342556589,0]},"properties":{"name":"17th Street Farmers' Market","styleUrl":"#0","styleHash":"5541b804","Contact Names":"George Bolos","Phone":"(804)646-0477"}},{"type":"Feature","geometry":{"type":"Point","coordinates":[-78.961955606676,36.019044369439,0]},"properties":{"name":"500 - Year Forest Foundation, The","styleUrl":"#0","styleHash":"5541b804","Contact Names":"Ted Harris, President","Phone":"434-384-2324"}},{"type":"Feature","geometry":{"type":"Point","coordinates":[-82.017550741253,36.712534697288,0]},"properties":{"name":"Abingdon Elementary School","styleUrl":"#0","styleHash":"5541b804","Contact Names":"Megan de Nobriga","Phone":"276-739-3400"}},{"type":"Feature","geometry":{"type":"Point","coordinates":[-81.9543904395,36.719963863716,0]},"properties":{"name":"Abingdon High School","styleUrl":"#0","styleHash":"5541b804","Contact Names":"Teresa Berry","Phone":"276-739-3200"}},{"type":"Feature","geometry":{"type":"Point","coordinates":[-81.975230900894,36.710506745717,0]},"properties":{"name":"Abingdon Litter and Recycling Program","styleUrl":"#0","styleHash":"5541b804","Contact Names":"John Dew","Phone":"276-628-1367"}},{"type":"Feature","geometry":{"type":"Point","coordinates":[-77.034232694429,37.695041991804,0]},"properties":{"name":"Acquinton Elementary School","styleUrl":"#0","styleHash":"5541b804","Contact Names":"Beverly Young","Phone":"804-769-3739"}},{"type":"Feature","geometry":{"type":"Point","coordinates":[-77.771363244588,38.863244760063,0]},"properties":{"name":"Afro-American Historical Association,Fauquier County (AAHA)","styleUrl":"#0","styleHash":"5541b804","Contact Names":"Karen White","Phone":"540-253-7488"}},{"type":"Feature","geometry":{"type":"Point","coordinates":[-77.544830955871,37.602521305862,0]},"properties":{"name":"Aging, Department of","styleUrl":"#0","styleHash":"5541b804","Contact Names":"Patricia Cummins","Phone":"(804) 662-9333"}},{"type":"Feature","geometry":{"type":"Point","coordinates":[-77.432778275644,37.537874742414,0]},"properties":{"name":"Agriculture and Consumer Services, Department of","styleUrl":"#0","styleHash":"5541b804","Contact Names":"Joel Stopha","Phone":"804-371-8991"}},{"type":"Feature","geometry":{"type":"Point","coordinates":[-77.649720541505,37.611532976793,0]},"properties":{"name":"Agriculture in the Classroom","styleUrl":"#0","styleHash":"5541b804","Contact Names":"Tammy Maxey","Phone":"804-290-1025"}},{"type":"Feature","geometry":{"type":"Point","coordinates":[-77.033197982513,36.910735061459,0]},"properties":{"name":"Airfield 4-H Educational Center","styleUrl":"#0","styleHash":"5541b804","Contact Names":"Jim Williams","Phone":"757-899-4901"}},{"type":"Feature","geometry":{"type":"Point","coordinates":[-79.852047847887,36.674955371999,0]},"properties":{"name":"Albert Harris Elementary School","styleUrl":"#0","styleHash":"5541b804","Contact Names":"Travis Clemons","Phone":"276-403-5705"}},{"type":"Feature","geometry":{"type":"Point","coordinates":[-77.119224648544,38.834386253965,0]},"properties":{"name":"Alexandria City Public Schools","styleUrl":"#0","styleHash":"5541b804","Contact Names":"David Conrath","Phone":"703-824-6686"}},{"type":"Feature","geometry":{"type":"Point","coordinates":[-77.053608614385,38.796829906899,0]},"properties":{"name":"Alexandria, Solid Waste & Recycling Program","styleUrl":"#0","styleHash":"5541b804","Contact Names":"Judy Lo","Phone":"703-838-5041"}},{"type":"Feature","geometry":{"type":"Point","coordinates":[-77.042655113622,38.686955276302,0]},"properties":{"name":"Alice Ferguson Foundation","styleUrl":"#0","styleHash":"5541b804","Contact Names":"Lori Arguelles","Phone":"301-292-5665"}},{"type":"Feature","geometry":{"type":"Point","coordinates":[-79.140650441665,37.416413392341,0]},"properties":{"name":"Amazement Square, The Righmire Children's Museum","styleUrl":"#0","styleHash":"5541b804","Contact Names":"Donna LaFratta, Human Resources Manager","Phone":"434-845-1888"}},{"type":"Feature","geometry":{"type":"Point","coordinates":[-77.983848180101,37.328138668063,0]},"properties":{"name":"Amelia County Middle School","styleUrl":"#0","styleHash":"5541b804","Contact Names":"Shirley Booker & Kathy Stuart, Principals","Phone":"804-561-4422"}},{"type":"Feature","geometry":{"type":"Point","coordinates":[-77.029837536705,38.896680093968,0]},"properties":{"name":"American Lung Association of VA","styleUrl":"#0","styleHash":"5541b804","Contact Names":"Gabrielle Steele","Phone":"202-785-3355"}},{"type":"Feature","geometry":{"type":"Point","coordinates":[-76.139999512979,36.900000536928,0]},"properties":{"name":"American Water Works Association (AWWA), VA Section","styleUrl":"#0","styleHash":"5541b804","Contact Names":"Cathy Larue","Phone":"757-363-1760"}},{"type":"Feature","geometry":{"type":"Point","coordinates":[-79.049174785783,37.581829969812,0]},"properties":{"name":"Amherst County Recreation and Parks","styleUrl":"#0","styleHash":"5541b804","Contact Names":"Allan Bumgarner","Phone":"434-946-9371"}},{"type":"Feature","geometry":{"type":"Point","coordinates":[-79.028641835723,37.473096677229,0]},"properties":{"name":"Amherst County Solid Waste and Litter Prevention","styleUrl":"#0","styleHash":"5541b804","Contact Names":"Teresa M. Nuckols","Phone":"434-846-3324"}},{"type":"Feature","geometry":{"type":"Point","coordinates":[-82.745611680148,36.924605258826,0]},"properties":{"name":"Appalachia Elementary","styleUrl":"#0","styleHash":"5541b804","Contact Names":"Matthew Dysart","Phone":"276-565-1115"}},{"type":"Feature","geometry":{"type":"Point","coordinates":[-81.981753668187,36.709052494234,0]},"properties":{"name":"Appalachian Sustainable Development","styleUrl":"#0","styleHash":"5541b804","Contact Names":"Gina Patrick","Phone":"276-623-1121"}},{"type":"Feature","geometry":{"type":"Point","coordinates":[-80.402493836068,37.198273355763,0]},"properties":{"name":"Appalachian Trail Conservancy","styleUrl":"#0","styleHash":"5541b804","Contact Names":"Angie Sheldon","Phone":"540-953-3571"}},{"type":"Feature","geometry":{"type":"Point","coordinates":[-79.945414491987,37.269651122008,0]},"properties":{"name":"Apple Ridge Farm, Inc.","styleUrl":"#0","styleHash":"5541b804","Contact Names":"Andrea Goodrum","Phone":"540-982-1322"}},{"type":"Feature","geometry":{"type":"Point","coordinates":[-78.745222361679,37.352314926741,0]},"properties":{"name":"Appomattox County Recycling and Litter Prevention","styleUrl":"#0","styleHash":"5541b804","Contact Names":"Wanda McCormick","Phone":"434-352-8184"}},{"type":"Feature","geometry":{"type":"Point","coordinates":[-75.57931096129,37.925855294763,0]},"properties":{"name":"Arcadia Middle School","styleUrl":"#0","styleHash":"5541b804","Contact Names":"Suzy Corson","Phone":"(757) 824-4862"}},{"type":"Feature","geometry":{"type":"Point","coordinates":[-77.092808127581,38.84009269506,0]},"properties":{"name":"Arlington County Environmental Services","styleUrl":"#0","styleHash":"5541b804","Contact Names":"Erik Grabowsky","Phone":"703-228-7953"}},{"type":"Feature","geometry":{"type":"Point","coordinates":[-77.456937303344,38.818917159941,0]},"properties":{"name":"Arlington Fairfax Chapter of the Izaak Walton League of America","styleUrl":"#0","styleHash":"5541b804","Contact Names":"Colin Riley","Phone":"703-200-3994"}},{"type":"Feature","geometry":{"type":"Point","coordinates":[-77.817312796329,38.718944158247,0]},"properties":{"name":"Arlington Outdoor Education Association","styleUrl":"#0","styleHash":"5541b804","Contact Names":"Neil Heinekamp","Phone":"703-228-7650"}},{"type":"Feature","geometry":{"type":"Point","coordinates":[-77.102271173208,38.890072705835,0]},"properties":{"name":"Arlington Science Focus School","styleUrl":"#0","styleHash":"5541b804","Contact Names":"Mary Begley","Phone":"703-228-7670"}},{"type":"Feature","geometry":{"type":"Point","coordinates":[-77.087103358006,38.834462385029,0]},"properties":{"name":"Arlingtonians for a Clean Environment","styleUrl":"#0","styleHash":"5541b804","Contact Names":"Eleanor Hodges","Phone":"703-228-6427"}},{"type":"Feature","geometry":{"type":"Point","coordinates":[-77.364140140977,37.571864517375,0]},"properties":{"name":"Arthur Ashe Elementary School (VaN School)","styleUrl":"#0","styleHash":"5541b804","Contact Names":"Kecia Lipscomb","Phone":"804-343-6550"}},{"type":"Feature","geometry":{"type":"Point","coordinates":[-77.394162904754,38.623068484861,0]},"properties":{"name":"Ashland Elementary School","styleUrl":"#0","styleHash":"5541b804","Contact Names":"Teresa Mullins, Science Teacher","Phone":"(703) 583-8774"}},{"type":"Feature","geometry":{"type":"Point","coordinates":[-77.410020397453,37.664462970784,0]},"properties":{"name":"Atlee High School","styleUrl":"#0","styleHash":"5541b804","Contact Names":"Jennifer Cohodas","Phone":"804-723-2100"}},{"type":"Feature","geometry":{"type":"Point","coordinates":[-77.716516356685,38.737849042831,0]},"properties":{"name":"Auburn Middle School","styleUrl":"#0","styleHash":"5541b804","Contact Names":"Jennifer Davis","Phone":"540-422-7410"}},{"type":"Feature","geometry":{"type":"Point","coordinates":[-79.026278665543,37.146557031122,0]},"properties":{"name":"Auburnlea Farm","styleUrl":"#0","styleHash":"5541b804","Contact Names":"Mary Bennett","Phone":"804-380-1568"}},{"type":"Feature","geometry":{"type":"Point","coordinates":[-77.330731624789,38.951610669234,0]},"properties":{"name":"Audubon Society of Northern Virginia (Annandale)","styleUrl":"#0","styleHash":"5541b804","Contact Names":"Bruce Johnson","Phone":"703-438-6008"}},{"type":"Feature","geometry":{"type":"Point","coordinates":[-79.008360799817,38.202076426304,0]},"properties":{"name":"Augusta County for Litter Prevention and Recycling","styleUrl":"#0","styleHash":"5541b804","Contact Names":"Candy Hensley","Phone":"540-245-5615"}},{"type":"Feature","geometry":{"type":"Point","coordinates":[-78.98946326349,38.117968625763,0]},"properties":{"name":"Augusta County Public Schools","styleUrl":"#0","styleHash":"5541b804","Contact Names":"Jenny Groh","Phone":"540-245-5120"}},{"type":"Feature","geometry":{"type":"Point","coordinates":[-79.008360245494,38.202076937009,0]},"properties":{"name":"Augusta County Service Authority","styleUrl":"#0","styleHash":"5541b804","Phone":"540-245-5670"}},{"type":"Feature","geometry":{"type":"Point","coordinates":[-79.412899226204,36.577024359249,0]},"properties":{"name":"Averett University (Biology/Environmental Science)","styleUrl":"#0","styleHash":"5541b804","Contact Names":"James  Caldwell","Phone":"434-791-5766"}},{"type":"Feature","geometry":{"type":"Point","coordinates":[-79.714344610767,36.639134463955,0]},"properties":{"name":"Axton Elementary School","styleUrl":"#0","styleHash":"5541b804","Contact Names":"Jo Ellen Hylton","Phone":"276-650-1193"}},{"type":"Feature","geometry":{"type":"Point","coordinates":[-76.941135591775,37.806764499044,0]},"properties":{"name":"Aylett Country Day School","styleUrl":"#0","styleHash":"5541b804","Contact Names":"Robin D. Taylor","Phone":"804-443-3214"}},{"type":"Feature","geometry":{"type":"Point","coordinates":[-76.534616882725,37.092865812344,0]},"properties":{"name":"B.C. Charles Elementary School (VaN School)","styleUrl":"#0","styleHash":"5541b804","Contact Names":"Reggie Alston","Phone":"757-886-7750"}},{"type":"Feature","geometry":{"type":"Point","coordinates":[-75.987091877898,36.725689355616,0]},"properties":{"name":"Back Bay National Wildlife Refuge","styleUrl":"#0","styleHash":"5541b804","Contact Names":"Mary Tilton","Phone":"757-619-6429"}},{"type":"Feature","geometry":{"type":"Point","coordinates":[-78.570966587263,36.886365867851,0]},"properties":{"name":"Bacon District Elementary School","styleUrl":"#0","styleHash":"5541b804","Contact Names":"Sylvia Lockett","Phone":"434-735-8612"}},{"type":"Feature","geometry":{"type":"Point","coordinates":[-77.599694699613,39.028023595598,0]},"properties":{"name":"Banshee Reeks Nature Preserve","styleUrl":"#0","styleHash":"5541b804","Contact Names":"Ron Circe","Phone":"703-669-0316"}},{"type":"Feature","geometry":{"type":"Point","coordinates":[-77.441501457237,37.568915729335,0]},"properties":{"name":"Battery Park","styleUrl":"#0","styleHash":"5541b804","Contact Names":"Karen Wylie","Phone":"804-646-0954"}},{"type":"Feature","geometry":{"type":"Point","coordinates":[-76.179265666737,36.895801062484,0]},"properties":{"name":"Bayside Elementary School","styleUrl":"#0","styleHash":"5541b804","Contact Names":"Catherine Brumm","Phone":"757-648-2080"}},{"type":"Feature","geometry":{"type":"Point","coordinates":[-76.159315930713,36.867454610561,0]},"properties":{"name":"Bayside Middle School","styleUrl":"#0","styleHash":"5541b804","Contact Names":"Jackie Blackwell","Phone":"757-648-4127"}},{"type":"Feature","geometry":{"type":"Point","coordinates":[-81.146244043538,36.622278262377,0]},"properties":{"name":"Baywood Elementary School","styleUrl":"#0","styleHash":"5541b804","Contact Names":"Susie Funk","Phone":"276-773-2832"}},{"type":"Feature","geometry":{"type":"Point","coordinates":[-81.127959052568,36.867934126482,0]},"properties":{"name":"Beagle Ridge Herb Farm & Environmental Education Center","styleUrl":"#0","styleHash":"5541b804","Contact Names":"Ellen Reynolds","Phone":"276-621-4511"}},{"type":"Feature","geometry":{"type":"Point","coordinates":[-79.580600017257,38.412345640604,0]},"properties":{"name":"Bear Mountain Farm and Wilderness Retreat","styleUrl":"#0","styleHash":"5541b804","Phone":"540-468-2700"}},{"type":"Feature","geometry":{"type":"Point","coordinates":[-76.966401997787,36.545150539262,0]},"properties":{"name":"Bear Path Acres","styleUrl":"#0","styleHash":"5541b804","Contact Names":"Debbie Jeter","Phone":"757-516-8774"}},{"type":"Feature","geometry":{"type":"Point","coordinates":[-77.642613739018,37.934158137749,0]},"properties":{"name":"Beaverdam Elementary School (VaN School)","styleUrl":"#0","styleHash":"5541b804","Contact Names":"Charles Joseph, III","Phone":"804-449-6373"}},{"type":"Feature","geometry":{"type":"Point","coordinates":[-76.534832373674,37.448585854994,0]},"properties":{"name":"Beaverdam Park","styleUrl":"#0","styleHash":"5541b804","Contact Names":"Chris Smith","Phone":"804-693-2786"}},{"type":"Feature","geometry":{"type":"Point","coordinates":[-78.185756911458,37.931617632572,0]},"properties":{"name":"Beaverwood Lake Association","styleUrl":"#0","styleHash":"5541b804","Contact Names":"Walter Goodrich"}},{"type":"Feature","geometry":{"type":"Point","coordinates":[-79.521043090815,37.334585734165,0]},"properties":{"name":"Bedford City Public Works - Keep Bedford Beautiful Commission","styleUrl":"#0","styleHash":"5541b804","Contact Names":"D. W. Lawhorne","Phone":"540-587-6083"}},{"type":"Feature","geometry":{"type":"Point","coordinates":[-79.522821601868,37.333936254483,0]},"properties":{"name":"Bedford County Department of Solid Waste","styleUrl":"#0","styleHash":"5541b804","Contact Names":"Vicki Esposito","Phone":"540-586-7656"}},{"type":"Feature","geometry":{"type":"Point","coordinates":[-79.524719219008,37.331622007235,0]},"properties":{"name":"Bedford County Public Schools","styleUrl":"#0","styleHash":"5541b804","Contact Names":"Scott Graham, Science Lead","Phone":"540.586.1045"}},{"type":"Feature","geometry":{"type":"Point","coordinates":[-77.543111857894,36.688257179694,0]},"properties":{"name":"Belfield Elementary School","styleUrl":"#0","styleHash":"5541b804","Contact Names":"Alicia hargrove","Phone":"434-634-6048"}},{"type":"Feature","geometry":{"type":"Point","coordinates":[-80.557299564468,37.132194671251,0]},"properties":{"name":"Belle Heth Elementary School","styleUrl":"#0","styleHash":"5541b804","Contact Names":"Eric L. Bucey","Phone":"540-633-6270"}},{"type":"Feature","geometry":{"type":"Point","coordinates":[-76.582973994831,37.781302912865,0]},"properties":{"name":"Belle Isle State Park","styleUrl":"#0","styleHash":"5541b804","Contact Names":"Charlene Talcott","Phone":"804-462-5030"}},{"type":"Feature","geometry":{"type":"Point","coordinates":[-77.061344318503,38.772529984259,0]},"properties":{"name":"Belle View Elementary School","styleUrl":"#0","styleHash":"5541b804","Contact Names":"Carolyn Bush","Phone":"703-660-8300"}},{"type":"Feature","geometry":{"type":"Point","coordinates":[-78.898815509295,38.055570799988,0]},"properties":{"name":"Berkeley Glen Elementary School","styleUrl":"#0","styleHash":"5541b804","Contact Names":"Michael Freeman","Phone":"540-946-4680"}},{"type":"Feature","geometry":{"type":"Point","coordinates":[-76.738832035471,37.274583671347,0]},"properties":{"name":"Berkeley Middle School","styleUrl":"#0","styleHash":"5541b804","Contact Names":"Karen M. Swann","Phone":"757-229-8051"}},{"type":"Feature","geometry":{"type":"Point","coordinates":[-79.070852653537,38.139209718477,0]},"properties":{"name":"Bessie Weller Elementary School","styleUrl":"#0","styleHash":"5541b804","Contact Names":"Chris Bryant","Phone":"540-332-3940"}},{"type":"Feature","geometry":{"type":"Point","coordinates":[-77.558565199179,39.207032309439,0]},"properties":{"name":"Bethel Roots & Shoots Club","styleUrl":"#0","styleHash":"5541b804","Phone":"(703) 779-7745"}},{"type":"Feature","geometry":{"type":"Point","coordinates":[-78.488914777922,38.025492546861,0]},"properties":{"name":"Better World Betty","styleUrl":"#0","styleHash":"5541b804","Contact Names":"Teri Kent","Phone":4344665157}},{"type":"Feature","geometry":{"type":"Point","coordinates":[-76.163134132035,36.86304496758,0]},"properties":{"name":"Bettie F. Williams Elementary School","styleUrl":"#0","styleHash":"5541b804","Contact Names":"Wendy Bennett Singleton","Phone":"757-648-4080"}},{"type":"Feature","geometry":{"type":"Point","coordinates":[-77.652126616067,37.548996629162,0]},"properties":{"name":"Bettie Weaver Elementary School","styleUrl":"#0","styleHash":"5541b804","Contact Names":"Dr. Holly B. Richard","Phone":"804-378-2540"}},{"type":"Feature","geometry":{"type":"Point","coordinates":[-79.120205290089,38.147675745238,0]},"properties":{"name":"Beverly Manor Elementary School","styleUrl":"#0","styleHash":"5541b804","Contact Names":"Dawn Young","Phone":"540-885-8024"}},{"type":"Feature","geometry":{"type":"Point","coordinates":[-79.524719347893,37.331619518007,0]},"properties":{"name":"Big Island Elementary School","styleUrl":"#0","styleHash":"5541b804","Contact Names":"Barbara Rezzonico","Phone":"540-586-1045"}},{"type":"Feature","geometry":{"type":"Point","coordinates":[-81.195261669752,36.994662873222,0]},"properties":{"name":"Big Walker Lookout","styleUrl":"#0","styleHash":"5541b804","Phone":"276-663-4016"}},{"type":"Feature","geometry":{"type":"Point","coordinates":[-81.055592330333,36.952476505715,0]},"properties":{"name":"Big Walker Soil and Water Conservation District","styleUrl":"#0","styleHash":"5541b804","Contact Names":"Rachel Havens"}},{"type":"Feature","geometry":{"type":"Point","coordinates":[-77.425593728334,37.533057120154,0]},"properties":{"name":"Bike Virginia","styleUrl":"#0","styleHash":"5541b804","Contact Names":"Kristine","Phone":"757-229-0507"}},{"type":"Feature","geometry":{"type":"Point","coordinates":[-76.133312633673,36.809845534022,0]},"properties":{"name":"Bishop Sullivan Catholic High School","styleUrl":"#0","styleHash":"5541b804","Contact Names":"Carol Stapanowich","Phone":"757.467.2881"}},{"type":"Feature","geometry":{"type":"Point","coordinates":[-80.459395890654,37.21180428198,0]},"properties":{"name":"Blacksburg High School","styleUrl":"#0","styleHash":"5541b804","Contact Names":"Wesley Gwaltney","Phone":"540-951-5706"}},{"type":"Feature","geometry":{"type":"Point","coordinates":[-77.721098563501,39.293595510833,0]},"properties":{"name":"Blue Ridge Center for Environmental Stewardship","styleUrl":"#0","styleHash":"5541b804","Contact Names":"Ashley Oliver","Phone":"540-668-7640"}},{"type":"Feature","geometry":{"type":"Point","coordinates":[-78.940487577856,38.281953022852,0]},"properties":{"name":"Blue Ridge Community College","styleUrl":"#0","styleHash":"5541b804","Contact Names":"Susie Shomo","Phone":"540-234-9261"}},{"type":"Feature","geometry":{"type":"Point","coordinates":[-78.479546383982,38.030434956313,0]},"properties":{"name":"Blue Ridge Eco Shop","styleUrl":"#0","styleHash":"5541b804","Contact Names":"Paige Mattson","Phone":"434-296-0042"}},{"type":"Feature","geometry":{"type":"Point","coordinates":[-80.031878552169,37.316032782745,0]},"properties":{"name":"Blue Ridge Environmental Network","styleUrl":"#0","styleHash":"5541b804","Contact Names":"Bill Modica","Phone":"540-387-2782"}},{"type":"Feature","geometry":{"type":"Point","coordinates":[-77.707308787668,39.128357550843,0]},"properties":{"name":"Blue Ridge Middle School","styleUrl":"#0","styleHash":"5541b804","Contact Names":"Brion Bell","Phone":"540-751-2520"}},{"type":"Feature","geometry":{"type":"Point","coordinates":[-78.481512122728,38.03224047054,0]},"properties":{"name":"Blue Ridge Outdoors Magazine","styleUrl":"#0","styleHash":"5541b804","Contact Names":"Blake DeMaso","Phone":"434-817-2755"}},{"type":"Feature","geometry":{"type":"Point","coordinates":[-79.977114280296,37.248449563788,0]},"properties":{"name":"Blue Ridge Public Television","styleUrl":"#0","styleHash":"5541b804","Contact Names":"Linda Pharis","Phone":"(540)344-0991"}},{"type":"Feature","geometry":{"type":"Point","coordinates":[-79.993385502678,37.260969720837,0]},"properties":{"name":"Blue Ridge Wildflower Society, The","styleUrl":"#0","styleHash":"5541b804","Contact Names":"Cindy Burkes","Phone":"(540) 977-0868"}},{"type":"Feature","geometry":{"type":"Point","coordinates":[-78.004671166013,39.054392504751,0]},"properties":{"name":"Blue Ridge Wildlife Center","styleUrl":"#0","styleHash":"5541b804","Contact Names":"Belinda Burwell","Phone":"540-837-9000"}},{"type":"Feature","geometry":{"type":"Point","coordinates":[-77.404354846663,37.517227808597,0]},"properties":{"name":"Blue Sky Fund","styleUrl":"#0","styleHash":"5541b804","Contact Names":"Lawson Wijesooriya","Phone":"804-415-8782"}},{"type":"Feature","geometry":{"type":"Point","coordinates":[-76.388919029209,37.035062757892,0]},"properties":{"name":"Bluebird  Gap Farm","styleUrl":"#0","styleHash":"5541b804","Contact Names":"Jim Seward","Phone":"757.827.2765"}},{"type":"Feature","geometry":{"type":"Point","coordinates":[-78.495432330408,36.705980187786,0]},"properties":{"name":"Bluestone High School","styleUrl":"#0","styleHash":"5541b804","Contact Names":"Christina Seay","Phone":"434-372-5177"}},{"type":"Feature","geometry":{"type":"Point","coordinates":[-80.092266713651,37.688231035139,0]},"properties":{"name":"Boiling Spring Elementary School","styleUrl":"#0","styleHash":"5541b804","Contact Names":"Amy Dew","Phone":"540-965-1817"}},{"type":"Feature","geometry":{"type":"Point","coordinates":[-76.410340460468,36.995380048504,0]},"properties":{"name":"Booker T. Washington Middle School","styleUrl":"#0","styleHash":"5541b804","Contact Names":"Deborah L. Fields","Phone":"757-928-6860 ext. 1104"}},{"type":"Feature","geometry":{"type":"Point","coordinates":[-79.260981597824,37.451094315499,0]},"properties":{"name":"Boonsboro Elementary School (VaN School)","styleUrl":"#0","styleHash":"5541b804","Contact Names":"Beth Williams","Phone":"434-384-2881"}},{"type":"Feature","geometry":{"type":"Point","coordinates":[-79.807758722364,37.550947171663,0]},"properties":{"name":"Botetourt County  - Environmental Management","styleUrl":"#0","styleHash":"5541b804","Contact Names":"Ronald Smith","Phone":"540-473-8316"}},{"type":"Feature","geometry":{"type":"Point","coordinates":[-77.344792057393,38.05123242544,0]},"properties":{"name":"Bowling Green, Town - Public Works","styleUrl":"#0","styleHash":"5541b804","Contact Names":"William Stanley","Phone":"804-633-6212"}},{"type":"Feature","geometry":{"type":"Point","coordinates":[-79.458459089139,37.77822150109,0]},"properties":{"name":"Boxerwood Nature Center and Woodland Garden","styleUrl":"#0","styleHash":"5541b804","Contact Names":"Elsie Sheffield","Phone":"540-463-2697"}},{"type":"Feature","geometry":{"type":"Point","coordinates":[-78.727661291441,38.488708959202,0]},"properties":{"name":"Brethren Woods Camp & Retreat Center","styleUrl":"#0","styleHash":"5541b804","Phone":"540-269-2741"}},{"type":"Feature","geometry":{"type":"Point","coordinates":[-76.310844320035,36.820140650004,0]},"properties":{"name":"Brighton Elementary School","styleUrl":"#0","styleHash":"5541b804","Contact Names":"Barbara Walker","Phone":"757-393-8870"}},{"type":"Feature","geometry":{"type":"Point","coordinates":[-77.513793268638,39.010297138126,0]},"properties":{"name":"Broadlands Naturally","styleUrl":"#0","styleHash":"5541b804","Contact Names":"Oya Simpson","Phone":"703-725-8040"}},{"type":"Feature","geometry":{"type":"Point","coordinates":[-75.847849280342,37.52872241214,0]},"properties":{"name":"Broadwater Academy","styleUrl":"#0","styleHash":"5541b804","Contact Names":"Joseph Spagnolo","Phone":"757-442-9041"}},{"type":"Feature","geometry":{"type":"Point","coordinates":[-78.794743622713,38.60559346453,0]},"properties":{"name":"Broadway High School","styleUrl":"#0","styleHash":"5541b804","Contact Names":"Russell Kohrs","Phone":"540-896-7081"}},{"type":"Feature","geometry":{"type":"Point","coordinates":[-77.462152108569,37.634038257356,0]},"properties":{"name":"Brook Road Academy","styleUrl":"#0","styleHash":"5541b804","Contact Names":"Sarah Croscutt","Phone":"(804) 553-3226"}},{"type":"Feature","geometry":{"type":"Point","coordinates":[-77.083802393624,38.788954538336,0]},"properties":{"name":"Browne Academy","styleUrl":"#0","styleHash":"5541b804","Contact Names":"Mike Sasso","Phone":"703-960-3000 ext. 1039"}},{"type":"Feature","geometry":{"type":"Point","coordinates":[-77.783832045986,36.811474757389,0]},"properties":{"name":"Brunswick County Litter Control Committee","styleUrl":"#0","styleHash":"5541b804","Contact Names":"Ella Ridley","Phone":"434-848-3562"}},{"type":"Feature","geometry":{"type":"Point","coordinates":[-82.096702871536,37.277190273624,0]},"properties":{"name":"Buchanan County Litter Enforcement and Recycling","styleUrl":"#0","styleHash":"5541b804","Contact Names":"Jerry Ward","Phone":"276-935-6106"}},{"type":"Feature","geometry":{"type":"Point","coordinates":[-77.565829726171,39.100378709481,0]},"properties":{"name":"Buckingham County Solid Waste","styleUrl":"#0","styleHash":"5541b804","Contact Names":"Carolyn Amos","Phone":"434-969-4242"}},{"type":"Feature","geometry":{"type":"Point","coordinates":[-78.511058055239,37.541318177475,0]},"properties":{"name":"Buckingham Primary School","styleUrl":"#0","styleHash":"5541b804","Contact Names":"Heather Page","Phone":"434-983-2861"}},{"type":"Feature","geometry":{"type":"Point","coordinates":[-79.350877698602,37.736616003937,0]},"properties":{"name":"Buena Vista City Public Schools","styleUrl":"#0","styleHash":"5541b804","Contact Names":"Mary Holm","Phone":"540-261-2129"}},{"type":"Feature","geometry":{"type":"Point","coordinates":[-77.705558384847,38.824626434893,0]},"properties":{"name":"Bull Run Mountains Conservancy, Inc.","styleUrl":"#0","styleHash":"5541b804","Contact Names":"Michele Thieme","Phone":"703-753-2631"}},{"type":"Feature","geometry":{"type":"Point","coordinates":[-76.803829230402,37.561246716231,0]},"properties":{"name":"Butterflies in Flight","styleUrl":"#0","styleHash":"5541b804","Contact Names":"Catherine Short","Phone":"804 843-3723"}},{"type":"Feature","geometry":{"type":"Point","coordinates":[-78.05783895063,37.757418981324,0]},"properties":{"name":"Byrd Elementary School","styleUrl":"#0","styleHash":"5541b804","Contact Names":"Mr. James Hopkins","Phone":"804-556-5380"}},{"type":"Feature","geometry":{"type":"Point","coordinates":[-77.43946969426,37.335885495104,0]},"properties":{"name":"C.C. Wells Elementary School","styleUrl":"#0","styleHash":"5541b804","Contact Names":"Virginia C. Patterson, Principal","Phone":"804-768-6265"}},{"type":"Feature","geometry":{"type":"Point","coordinates":[-80.069110815584,37.291971738202,0]},"properties":{"name":"Cabell Brand Center for Global Poverty and Resource Sustainability Studies, The","styleUrl":"#0","styleHash":"5541b804","Contact Names":"Dr. Tamim Younos","Phone":"540-375-6750"}},{"type":"Feature","geometry":{"type":"Point","coordinates":[-78.463823408134,39.191442665155,0]},"properties":{"name":"Cacapon Institute","styleUrl":"#0","styleHash":"5541b804","Contact Names":"Frank Rodgers, Education and Outreach","Phone":"304-856-1385"}},{"type":"Feature","geometry":{"type":"Point","coordinates":[-80.250706118807,37.096046237179,0]},"properties":{"name":"Camp Alta Mons","styleUrl":"#0","styleHash":"5541b804","Contact Names":"Jason Masching","Phone":"540-268-2409"}},{"type":"Feature","geometry":{"type":"Point","coordinates":[-76.90018644373,37.196858365781,0]},"properties":{"name":"Camp Chanco on the James","styleUrl":"#0","styleHash":"5541b804","Contact Names":"Jim Sitzler","Phone":"757-294-3012 "}},{"type":"Feature","geometry":{"type":"Point","coordinates":[-76.27814985001,36.728750765104,0]},"properties":{"name":"Camp E. W. Young (Norfolk Public Schools) -VaN School)","styleUrl":"#0","styleHash":"5541b804","Contact Names":"Kathleen Nowitzky ","Phone":"757-547-4245"}},{"type":"Feature","geometry":{"type":"Point","coordinates":[-78.264731165854,37.885324807838,0]},"properties":{"name":"Camp Friendship Environmental Education","styleUrl":"#0","styleHash":"5541b804","Phone":"434-589-8950"}},{"type":"Feature","geometry":{"type":"Point","coordinates":[-77.612766302489,38.77401582456,0]},"properties":{"name":"Camp Glenkirk","styleUrl":"#0","styleHash":"5541b804","Contact Names":"Cheryl Hartman","Phone":"(703) 754-0126"}},{"type":"Feature","geometry":{"type":"Point","coordinates":[-77.207630803613,37.606799645279,0]},"properties":{"name":"Camp Hanover","styleUrl":"#0","styleHash":"5541b804","Phone":"804-779-2811"}},{"type":"Feature","geometry":{"type":"Point","coordinates":[-78.562211522614,38.023151023656,0]},"properties":{"name":"Camp Holiday Trails","styleUrl":"#0","styleHash":"5541b804","Contact Names":"Ashleigh Suthers","Phone":"434-977-3781"}},{"type":"Feature","geometry":{"type":"Point","coordinates":[-78.716890687049,38.514026431027,0]},"properties":{"name":"Camp Horizons","styleUrl":"#0","styleHash":"5541b804","Phone":"(540)-896-7600"}},{"type":"Feature","geometry":{"type":"Point","coordinates":[-79.207796178382,37.44253678402,0]},"properties":{"name":"Camp Kum-Ba-Yah","styleUrl":"#0","styleHash":"5541b804","Contact Names":"Linda Irwin","Phone":"434-384-1755"}},{"type":"Feature","geometry":{"type":"Point","coordinates":[-79.157128609162,37.27992755473,0]},"properties":{"name":"Campbell County Litter/Recycling Program","styleUrl":"#0","styleHash":"5541b804","Contact Names":"Diane Dodd","Phone":"434-821-7125"}},{"type":"Feature","geometry":{"type":"Point","coordinates":[-79.429582467832,39.145721587348,0]},"properties":{"name":"Canaan Valley Institute","styleUrl":"#0","styleHash":"5541b804","Contact Names":"Vicki Fenwick","Phone":"(304) 259-4739"}},{"type":"Feature","geometry":{"type":"Point","coordinates":[-77.119225893391,38.83438404456,0]},"properties":{"name":"Capital Region Earth Force","styleUrl":"#0","styleHash":"5541b804","Contact Names":"Kurt Moser","Phone":"703-838-9074"}},{"type":"Feature","geometry":{"type":"Point","coordinates":[-77.521811080123,37.573560268575,0]},"properties":{"name":"Capital Region Land Conservancy, Inc.","styleUrl":"#0","styleHash":"5541b804","Contact Names":"Tara Quinn","Phone":"804-301-5352"}},{"type":"Feature","geometry":{"type":"Point","coordinates":[-77.085349660502,38.886523156063,0]},"properties":{"name":"Carlin Springs Elementary School","styleUrl":"#0","styleHash":"5541b804","Contact Names":"Anne VorderBruegge","Phone":"703-228-8409"}},{"type":"Feature","geometry":{"type":"Point","coordinates":[-78.510766207774,38.749103707679,0]},"properties":{"name":"Caroline Furnace Lutheran Camp & Retreat Center","styleUrl":"#0","styleHash":"5541b804","Contact Names":"Wayne Shelor","Phone":"540-933-6266"}},{"type":"Feature","geometry":{"type":"Point","coordinates":[-77.342150796428,38.038994468144,0]},"properties":{"name":"Caroline Middle School","styleUrl":"#0","styleHash":"5541b804","Contact Names":"Dolly G. Lindsay","Phone":"804-633-5088"}},{"type":"Feature","geometry":{"type":"Point","coordinates":[-80.736937688115,36.768798472309,0]},"properties":{"name":"Carroll County Intermediate School","styleUrl":"#0","styleHash":"5541b804","Contact Names":"Linda M. Dalton","Phone":"276-728-3191"}},{"type":"Feature","geometry":{"type":"Point","coordinates":[-80.736833523986,36.768669159576,0]},"properties":{"name":"Carroll County Litter and Reycling","styleUrl":"#0","styleHash":"5541b804","Contact Names":"Trish Hash","Phone":"276.730.3015"}},{"type":"Feature","geometry":{"type":"Point","coordinates":[-77.293499825202,37.537512719908,0]},"properties":{"name":"Cashell Donahoe Elementary School (VaN School)","styleUrl":"#0","styleHash":"5541b804","Contact Names":"J. Koontz, Principal","Phone":"804-328-4035"}},{"type":"Feature","geometry":{"type":"Point","coordinates":[-82.27958397652,36.890107848992,0]},"properties":{"name":"Castlewood High School","styleUrl":"#0","styleHash":"5541b804","Contact Names":"Laymon Kiser \"Butch","Phone":"276-762-9449"}},{"type":"Feature","geometry":{"type":"Point","coordinates":[-77.886571910449,37.686899880653,0]},"properties":{"name":"Center for Rural Culture","styleUrl":"#0","styleHash":"5541b804","Phone":"804-878-2166  "}},{"type":"Feature","geometry":{"type":"Point","coordinates":[-76.800487960376,39.268739447159,0]},"properties":{"name":"Center for Watershed Protection, Inc.","styleUrl":"#0","styleHash":"5541b804","Contact Names":"Hye Yeong Kwon","Phone":"410-461-8323"}},{"type":"Feature","geometry":{"type":"Point","coordinates":[-79.474820720973,37.846924811514,0]},"properties":{"name":"Central Elementary School","styleUrl":"#0","styleHash":"5541b804","Contact Names":"Donna Davis","Phone":"540-821-5227"}},{"type":"Feature","geometry":{"type":"Point","coordinates":[-78.52271587572,38.867313992375,0]},"properties":{"name":"Central High School (Shenandoah County)","styleUrl":"#0","styleHash":"5541b804","Contact Names":"Melissa D. Hensley","Phone":"540-459-2161"}},{"type":"Feature","geometry":{"type":"Point","coordinates":[-78.635958629157,37.052821336908,0]},"properties":{"name":"Central Middle School","styleUrl":"#0","styleHash":"5541b804","Contact Names":"Carolyn M. Baker","Phone":"434-542-5151"}},{"type":"Feature","geometry":{"type":"Point","coordinates":[-79.057551941609,38.168192118177,0]},"properties":{"name":"Central Shenandoah Planning District Commission","styleUrl":"#0","styleHash":"5541b804","Contact Names":"Bonnie Riedesel","Phone":"540-885-5174"}},{"type":"Feature","geometry":{"type":"Point","coordinates":[-79.204423305145,37.437608672891,0]},"properties":{"name":"Central Virginia Land Conservancy (CVLC)-Region 2000 and Nelson","styleUrl":"#0","styleHash":"5541b804","Contact Names":"Jeff Smith","Phone":"434-942-4320"}},{"type":"Feature","geometry":{"type":"Point","coordinates":[-77.471713541324,37.584630637101,0]},"properties":{"name":"Central Virginia Waste Management Authority(CVWMA)","styleUrl":"#0","styleHash":"5541b804","Contact Names":"Nancy Drumheller","Phone":"804-359-8413"}},{"type":"Feature","geometry":{"type":"Point","coordinates":[-77.410643936,38.8252520695,0]},"properties":{"name":"Centreville High School (CVHS)","styleUrl":"#0","styleHash":"5541b804","Contact Names":"Jean Cole-Kleitz","Phone":"703-802-5497"}},{"type":"Feature","geometry":{"type":"Point","coordinates":[-77.581436167822,38.293879715055,0]},"properties":{"name":"Chancellor Elementary School","styleUrl":"#0","styleHash":"5541b804","Contact Names":"Shawn Hudson","Phone":"540-786-6123"}},{"type":"Feature","geometry":{"type":"Point","coordinates":[-77.075699421,37.340213999818,0]},"properties":{"name":"Charles City Clean Community Commission","styleUrl":"#0","styleHash":"5541b804","Contact Names":"Denise Williams & John Bragg","Phone":"804-652-4707"}},{"type":"Feature","geometry":{"type":"Point","coordinates":[-77.075703606825,37.340211357959,0]},"properties":{"name":"Charles City County Dept. of Development","styleUrl":"#0","styleHash":"5541b804","Contact Names":"John Bragg","Phone":"804-652-4707"}},{"type":"Feature","geometry":{"type":"Point","coordinates":[-78.635958632013,37.052823774539,0]},"properties":{"name":"Charlotte County Litter Prevention and Recycling","styleUrl":"#0","styleHash":"5541b804","Contact Names":"Susan Adams","Phone":"434-542-5117"}},{"type":"Feature","geometry":{"type":"Point","coordinates":[-78.468656246392,36.81641623559,0]},"properties":{"name":"Chase City Elementary School","styleUrl":"#0","styleHash":"5541b804","Contact Names":"Frederick Taylor","Phone":"804-372-4770"}},{"type":"Feature","geometry":{"type":"Point","coordinates":[-77.433993351171,37.537134467225,0]},"properties":{"name":"Chesapeake Bay Foundation, Virginia State Office","styleUrl":"#0","styleHash":"5541b804","Contact Names":"Bill Portlock","Phone":"512-4536"}},{"type":"Feature","geometry":{"type":"Point","coordinates":[-76.862433346959,37.930461127168,0]},"properties":{"name":"Chesapeake Bay Governor's School for Marine and Environmental Science","styleUrl":"#0","styleHash":"5541b804","Contact Names":"Dianne Pollard","Phone":"804-443-0267"}},{"type":"Feature","geometry":{"type":"Point","coordinates":[-76.245027815023,36.720557998185,0]},"properties":{"name":"Chesapeake Environmental Improvement Council, City of Chesapeake","styleUrl":"#0","styleHash":"5541b804","Contact Names":"Gladys Jones","Phone":"757-382-6728"}},{"type":"Feature","geometry":{"type":"Point","coordinates":[-76.452950144686,37.120309689035,0]},"properties":{"name":"Chesapeake Experience","styleUrl":"#0","styleHash":"5541b804","Contact Names":"Jill Bieri","Phone":"757-890-0502"}},{"type":"Feature","geometry":{"type":"Point","coordinates":[-76.068697705108,38.776943343798,0]},"properties":{"name":"Chesapeake Wildlife Heritage","styleUrl":"#0","styleHash":"5541b804","Contact Names":"Austin Jamison","Phone":"434-825-7587"}},{"type":"Feature","geometry":{"type":"Point","coordinates":[-77.501765193586,37.379875516839,0]},"properties":{"name":"Chesterfield Community High School","styleUrl":"#0","styleHash":"5541b804","Contact Names":"Susan Dandridge","Phone":"804-594-1704"}},{"type":"Feature","geometry":{"type":"Point","coordinates":[-77.50631532937,37.377173613365,0]},"properties":{"name":"Chesterfield County Cooperative Extension","styleUrl":"#0","styleHash":"5541b804","Contact Names":"Linda Jackson Cole","Phone":"804-751-4401"}},{"type":"Feature","geometry":{"type":"Point","coordinates":[-77.504862278251,37.380252002964,0]},"properties":{"name":"Chesterfield County Department of Environmental Engineering","styleUrl":"#0","styleHash":"5541b804","Contact Names":"Lorne Field","Phone":"804-748-1920"}},{"type":"Feature","geometry":{"type":"Point","coordinates":[-77.504864837098,37.380249866941,0]},"properties":{"name":"Chesterfield County Environmental Engineering","styleUrl":"#0","styleHash":"5541b804","Contact Names":"Richard M. McElfish, PE","Phone":"(804) 748-1035"}},{"type":"Feature","geometry":{"type":"Point","coordinates":[-77.506192649125,37.377045974512,0]},"properties":{"name":"Chesterfield County Parks and Recreation","styleUrl":"#0","styleHash":"5541b804","Contact Names":"Mike Golden","Phone":"804-748-1624"}},{"type":"Feature","geometry":{"type":"Point","coordinates":[-77.507750402033,37.376833535371,0]},"properties":{"name":"Chesterfield County Waste and Resource Recovery","styleUrl":"#0","styleHash":"5541b804","Contact Names":"Pam Cooper","Phone":"804-743-8346"}},{"type":"Feature","geometry":{"type":"Point","coordinates":[-77.467926446159,37.561666637972,0]},"properties":{"name":"Children's Museum of Richmond, Education","styleUrl":"#0","styleHash":"5541b804","Contact Names":"Claire Mehalick","Phone":"804-474-7053"}},{"type":"Feature","geometry":{"type":"Point","coordinates":[-76.298836894062,36.834917547638,0]},"properties":{"name":"Children's Museum of Virginia, Education","styleUrl":"#0","styleHash":"5541b804","Phone":"757-393-5258"}},{"type":"Feature","geometry":{"type":"Point","coordinates":[-81.512874484238,36.833283353771,0]},"properties":{"name":"Chilhowie Elementary School","styleUrl":"#0","styleHash":"5541b804","Contact Names":"Lelia Rash","Phone":"276-646-8220"}},{"type":"Feature","geometry":{"type":"Point","coordinates":[-81.674327439392,36.804710470864,0]},"properties":{"name":"Chilhowie High School (VaN School)","styleUrl":"#0","styleHash":"5541b804","Contact Names":"Mike Sturgill","Phone":"276-646-8966"}},{"type":"Feature","geometry":{"type":"Point","coordinates":[-75.358654575228,37.939777717227,0]},"properties":{"name":"Chincoteague Elementary School (VaN School)","styleUrl":"#0","styleHash":"5541b804","Contact Names":"Karen Riner","Phone":"757-336-5545"}},{"type":"Feature","geometry":{"type":"Point","coordinates":[-75.345062542335,37.885489024736,0]},"properties":{"name":"Chincoteague National Wildlife Refuge","styleUrl":"#0","styleHash":"5541b804","Phone":"757-336-6122"}},{"type":"Feature","geometry":{"type":"Point","coordinates":[-76.740359456512,37.146275931991,0]},"properties":{"name":"Chippokes Plantation State Park","styleUrl":"#0","styleHash":"5541b804","Phone":"757-294-3625"}},{"type":"Feature","geometry":{"type":"Point","coordinates":[-80.391581208844,37.130685444823,0]},"properties":{"name":"Christiansburg Elementary School(VaN School) & Wildlife Club","styleUrl":"#0","styleHash":"5541b804","Contact Names":"Mrs. Burton","Phone":"(540) 382-5100"}},{"type":"Feature","geometry":{"type":"Point","coordinates":[-79.924100284835,37.257654827905,0]},"properties":{"name":"Christiansburg Middle School","styleUrl":"#0","styleHash":"5541b804","Contact Names":"Sherri Bolick","Phone":"540-904-7401"}},{"type":"Feature","geometry":{"type":"Point","coordinates":[-76.382548372666,36.881148038196,0]},"properties":{"name":"Churchland Academy Elementary School","styleUrl":"#0","styleHash":"5541b804","Contact Names":"Karen Clark","Phone":"804-646-5659"}},{"type":"Feature","geometry":{"type":"Point","coordinates":[-76.385079836834,36.890896297227,0]},"properties":{"name":"Churchland Primary & Intermediate School(VaN School)","styleUrl":"#0","styleHash":"5541b804","Contact Names":"Cora Freeman","Phone":"757-686-2519"}},{"type":"Feature","geometry":{"type":"Point","coordinates":[-79.160056079482,38.22249069997,0]},"properties":{"name":"Churchville Elementary School","styleUrl":"#0","styleHash":"5541b804","Contact Names":"Lori Cox, Elementary Science Curriculum Supervisor","Phone":"540-337-6036"}},{"type":"Feature","geometry":{"type":"Point","coordinates":[-79.142557334037,37.414078001553,0]},"properties":{"name":"Citizens for a Clean Lynchburg","styleUrl":"#0","styleHash":"5541b804","Contact Names":"Nels Erickson","Phone":"434-401-5733 or 434-847-8788"}},{"type":"Feature","geometry":{"type":"Point","coordinates":[-77.795267532638,38.713451740817,0]},"properties":{"name":"Citizens for Fauquier County","styleUrl":"#0","styleHash":"5541b804","Contact Names":"Mel Bearns","Phone":"540-347-7610"}},{"type":"Feature","geometry":{"type":"Point","coordinates":[-76.285800280198,36.844508136293,0]},"properties":{"name":"City of Norfolk, Bureau of Environmental Services","styleUrl":"#0","styleHash":"5541b804","Contact Names":"Kevin R. Du Bois","Phone":"757-621-2564"}},{"type":"Feature","geometry":{"type":"Point","coordinates":[-77.980344246068,39.152325413193,0]},"properties":{"name":"Clarke County Natural Resource Planner","styleUrl":"#0","styleHash":"5541b804","Contact Names":"Alison Teetor","Phone":"540-955-5134"}},{"type":"Feature","geometry":{"type":"Point","coordinates":[-77.429126562735,39.006700330392,0]},"properties":{"name":"Claude Moore Park","styleUrl":"#0","styleHash":"5541b804","Contact Names":"Merry Breed, Park Manager","Phone":"571-258-3700"}},{"type":"Feature","geometry":{"type":"Point","coordinates":[-80.622733785747,37.058846517995,0]},"properties":{"name":"Claytor Lake State Park","styleUrl":"#0","styleHash":"5541b804","Contact Names":"The park offers swimming, camping, cabins, lodges, a meeting facility, nature and history programs, miles of hiking trails, and a visitor center.","Phone":"540-643-2500"}},{"type":"Feature","geometry":{"type":"Point","coordinates":[-79.182926927638,37.400713106061,0]},"properties":{"name":"Claytor Nature Study Center of Lynchburg College","styleUrl":"#0","styleHash":"5541b804","Contact Names":"Gregory Eaton","Phone":"540-587-6740"}},{"type":"Feature","geometry":{"type":"Point","coordinates":[-77.351651210514,39.03407352351,0]},"properties":{"name":"Clean Fairfax Council, Inc.","styleUrl":"#0","styleHash":"5541b804","Contact Names":"Jennifer Cole","Phone":"703-324-5471"}},{"type":"Feature","geometry":{"type":"Point","coordinates":[-79.95113188857,37.269853726606,0]},"properties":{"name":"Clean Valley Council Inc.","styleUrl":"#0","styleHash":"5541b804","Contact Names":"Christina Siegel","Phone":"540-345-5523"}},{"type":"Feature","geometry":{"type":"Point","coordinates":[-78.396171446335,37.301207735024,0]},"properties":{"name":"Clean Virginia Waterways","styleUrl":"#0","styleHash":"5541b804","Contact Names":"Katie  Register","Phone":"434-395-2602"}},{"type":"Feature","geometry":{"type":"Point","coordinates":[-79.951568676033,37.204238619996,0]},"properties":{"name":"Clearbrook Elementary School (VaN School)","styleUrl":"#0","styleHash":"5541b804","Contact Names":"Karen Pendleton","Phone":"540-772-7555"}},{"type":"Feature","geometry":{"type":"Point","coordinates":[-82.414592545082,36.752880616096,0]},"properties":{"name":"Clinch Coalition, The","styleUrl":"#0","styleHash":"5541b804","Contact Names":"Christopher Clark","Phone":"276-479-2176"}},{"type":"Feature","geometry":{"type":"Point","coordinates":[-77.640285771303,37.447718981647,0]},"properties":{"name":"Clover Hill High School","styleUrl":"#0","styleHash":"5541b804","Contact Names":"Michelle Huber","Phone":"(804) 639-4940"}},{"type":"Feature","geometry":{"type":"Point","coordinates":[-77.42945668962,38.657085581485,0]},"properties":{"name":"Coles Elementary School","styleUrl":"#0","styleHash":"5541b804","Contact Names":"Kathryn Forgas","Phone":"703-791-3141"}},{"type":"Feature","geometry":{"type":"Point","coordinates":[-77.614227302483,37.660288831975,0]},"properties":{"name":"Colonial Trail Elementary School","styleUrl":"#0","styleHash":"5541b804","Contact Names":"Phil Cantone, Principal","Phone":"804-364-0055"}},{"type":"Feature","geometry":{"type":"Point","coordinates":[-76.029762911536,36.77661615691,0]},"properties":{"name":"Community Development International (CDI)","styleUrl":"#0","styleHash":"5541b804","Contact Names":"Kevin Jamison","Phone":7573733219}},{"type":"Feature","geometry":{"type":"Point","coordinates":[-76.259162006374,36.90591323257,0]},"properties":{"name":"Community Mediation Center of Norfolk VA","styleUrl":"#0","styleHash":"5541b804","Contact Names":"Chinedu Onyedike","Phone":"757-480-2777x257"}},{"type":"Feature","geometry":{"type":"Point","coordinates":[-76.86259048602,37.930720032242,0]},"properties":{"name":"Computer Recycling of Virginia","styleUrl":"#0","styleHash":"5541b804","Contact Names":"Lisa Parkhurst","Phone":"804-445-9672"}},{"type":"Feature","geometry":{"type":"Point","coordinates":[-77.431619879982,37.537652849419,0]},"properties":{"name":"Conservation and Recreation (VA), Department of","styleUrl":"#0","styleHash":"5541b804","Contact Names":"Sheila Barnett","Phone":"804-786-1815"}},{"type":"Feature","geometry":{"type":"Point","coordinates":[-78.871666860459,38.074545622455,0]},"properties":{"name":"Conservation Services, Inc.","styleUrl":"#0","styleHash":"5541b804","Phone":"(540) 941-0067"}},{"type":"Feature","geometry":{"type":"Point","coordinates":[-76.385431659366,37.05246639246,0]},"properties":{"name":"Cooper Elementary Magnet School for Technology, William Mason (VaN School)","styleUrl":"#0","styleHash":"5541b804","Contact Names":"Shirley Spyolt","Phone":"757-825-4645"}},{"type":"Feature","geometry":{"type":"Point","coordinates":[-77.057551859011,38.837417394592,0]},"properties":{"name":"Cora Kelly School for Math, Science and Technology","styleUrl":"#0","styleHash":"5541b804","Contact Names":"Mr. Mark Walker, STEM Coordinator","Phone":"703-706-4420"}},{"type":"Feature","geometry":{"type":"Point","coordinates":[-76.012443971107,36.787841357754,0]},"properties":{"name":"Corporate Landing Middle School","styleUrl":"#0","styleHash":"5541b804","Contact Names":"Sherry Kelly","Phone":"757-648-4500"}},{"type":"Feature","geometry":{"type":"Point","coordinates":[-77.497488684939,38.274050119191,0]},"properties":{"name":"County of Spotsylvania Department of General Services","styleUrl":"#0","styleHash":"5541b804","Contact Names":"Clara Mills","Phone":"540-507-7334"}},{"type":"Feature","geometry":{"type":"Point","coordinates":[-76.2368618031,36.773444951952,0]},"properties":{"name":"Cousteau Society","styleUrl":"#0","styleHash":"5541b804","Contact Names":"Tarik Chekchak","Phone":"(757) 523-9335"}},{"type":"Feature","geometry":{"type":"Point","coordinates":[-76.440015515713,37.106154161083,0]},"properties":{"name":"Coventry Elementary School","styleUrl":"#0","styleHash":"5541b804","Contact Names":"Paula Sasin","Phone":"757-898-0403"}},{"type":"Feature","geometry":{"type":"Point","coordinates":[-79.98683683644,37.787272588254,0]},"properties":{"name":"Covington High School","styleUrl":"#0","styleHash":"5541b804","Contact Names":"Pat Braden","Phone":"540-965-1400"}},{"type":"Feature","geometry":{"type":"Point","coordinates":[-80.108267652877,37.503128237143,0]},"properties":{"name":"CRAIG COUNTY BEAUTIFICATION COMMITTEE","styleUrl":"#0","styleHash":"5541b804","Contact Names":"SUZANNE HOLTH,","Phone":"540-864-5010"}},{"type":"Feature","geometry":{"type":"Point","coordinates":[-77.384537269066,37.202357508896,0]},"properties":{"name":"Crater Planning District Commission","styleUrl":"#0","styleHash":"5541b804","Contact Names":"Judith Smith","Phone":"(804) 861-1666"}},{"type":"Feature","geometry":{"type":"Point","coordinates":[-77.607789649453,37.629014937545,0]},"properties":{"name":"Creative Minds Publications","styleUrl":"#0","styleHash":"5541b804","Contact Names":"Katryn Starke","Phone":"804.740.6010"}},{"type":"Feature","geometry":{"type":"Point","coordinates":[-77.520137244444,37.600602211283,0]},"properties":{"name":"Crestview Elementary School","styleUrl":"#0","styleHash":"5541b804","Contact Names":"Cindy Harris","Phone":"804-673-3775"}},{"type":"Feature","geometry":{"type":"Point","coordinates":[-77.537060492094,37.526644732239,0]},"properties":{"name":"Crestwood Elementary School (VaN School)","styleUrl":"#0","styleHash":"5541b804","Contact Names":"Lisa Rockwell","Phone":"804-560-2710"}},{"type":"Feature","geometry":{"type":"Point","coordinates":[-77.99641007492,38.473411433182,0]},"properties":{"name":"Culpeper County Litter Prevention Program","styleUrl":"#0","styleHash":"5541b804","Contact Names":"Jane Cresswell","Phone":"540-727-3409"}},{"type":"Feature","geometry":{"type":"Point","coordinates":[-78.245342963491,37.496042465857,0]},"properties":{"name":"Cumberland High School","styleUrl":"#0","styleHash":"5541b804","Contact Names":"Chip Jones","Phone":"804-492-4724"}},{"type":"Feature","geometry":{"type":"Point","coordinates":[-82.114513119511,36.894070086971,0]},"properties":{"name":"Cumberland Plateau Regional Waste Management Authority","styleUrl":"#0","styleHash":"5541b804","Contact Names":"Toby Edwards","Phone":"276-889-1778"}},{"type":"Feature","geometry":{"type":"Point","coordinates":[-77.433285252491,37.36123948189,0]},"properties":{"name":"Curtis Elementary School","styleUrl":"#0","styleHash":"5541b804","Contact Names":"Barbara Newton","Phone":"804-768-6175"}},{"type":"Feature","geometry":{"type":"Point","coordinates":[-79.213369939761,37.931360223774,0]},"properties":{"name":"Cyrus McCormick Farm","styleUrl":"#0","styleHash":"5541b804","Contact Names":"David Fiske","Phone":"540-377-2255"}},{"type":"Feature","geometry":{"type":"Point","coordinates":[-81.804641215155,36.639514410986,0]},"properties":{"name":"Damascus Middle School","styleUrl":"#0","styleHash":"5541b804","Contact Names":"Dixie Hunter","Phone":"276-739-4100"}},{"type":"Feature","geometry":{"type":"Point","coordinates":[-79.393425614897,36.826163355353,0]},"properties":{"name":"Dan River Middle School","styleUrl":"#0","styleHash":"5541b804","Contact Names":"Dr. Deborah Powell","Phone":"434-432-8185"}},{"type":"Feature","geometry":{"type":"Point","coordinates":[-77.295227719459,38.851974208365,0]},"properties":{"name":"Daniels Run Elementary School","styleUrl":"#0","styleHash":"5541b804","Contact Names":"Adam Erbrecht","Phone":"703-279-8400"}},{"type":"Feature","geometry":{"type":"Point","coordinates":[-79.421790948908,36.571666764973,0]},"properties":{"name":"Danville Parks, Recreation - Ballou Nature Center & Outdoor Recreation","styleUrl":"#0","styleHash":"5541b804","Contact Names":"Karen Cross","Phone":"434-799-5215"}},{"type":"Feature","geometry":{"type":"Point","coordinates":[-79.385434929589,36.584267831824,0]},"properties":{"name":"Danville Science Center, Science Museum of VA","styleUrl":"#0","styleHash":"5541b804","Contact Names":"Sonya Wolen","Phone":"434-791-5160"}},{"type":"Feature","geometry":{"type":"Point","coordinates":[-76.475532347267,37.071903298013,0]},"properties":{"name":"Deer Park Elementary School (VaN School)","styleUrl":"#0","styleHash":"5541b804","Contact Names":"Mary Jo Anastatio","Phone":"757-591-7470"}},{"type":"Feature","geometry":{"type":"Point","coordinates":[-76.326789102771,37.552864114481,0]},"properties":{"name":"Deltaville Maritime Museum and Holly Point Nature Park","styleUrl":"#0","styleHash":"5541b804","Contact Names":"James M. Mackey, III","Phone":"804-776-7200"}},{"type":"Feature","geometry":{"type":"Point","coordinates":[-78.262158779893,39.192356538932,0]},"properties":{"name":"Denizen Media","styleUrl":"#0","styleHash":"5541b804","Contact Names":"Beverly Pearce","Phone":"540 877 9077"}},{"type":"Feature","geometry":{"type":"Point","coordinates":[-82.455983982333,37.150108605362,0]},"properties":{"name":"Dickenson County Litter Control and Recycling Office","styleUrl":"#0","styleHash":"5541b804","Contact Names":"Eugene Mullins","Phone":"276-835-8806"}},{"type":"Feature","geometry":{"type":"Point","coordinates":[-78.511058879571,37.541315953241,0]},"properties":{"name":"Dillwyn Elementary School","styleUrl":"#0","styleHash":"5541b804","Contact Names":"Heather Page","Phone":"434-983-2861"}},{"type":"Feature","geometry":{"type":"Point","coordinates":[-78.511059075159,37.541315926137,0]},"properties":{"name":"Dillwyn Primary School","styleUrl":"#0","styleHash":"5541b804","Contact Names":"Heather Page","Phone":"434-983-2861"}},{"type":"Feature","geometry":{"type":"Point","coordinates":[-77.586651951396,37.077932101482,0]},"properties":{"name":"Dinwiddie County 4-H","styleUrl":"#0","styleHash":"5541b804","Contact Names":"Mike Parrish","Phone":"804-469-4514"}},{"type":"Feature","geometry":{"type":"Point","coordinates":[-77.823462899966,37.522515923724,0]},"properties":{"name":"Dirty Hands Garden Center","styleUrl":"#0","styleHash":"5541b804","Contact Names":"Claudia Swanson","Phone":"804-598-8945"}},{"type":"Feature","geometry":{"type":"Point","coordinates":[-79.935412988961,37.249770816768,0]},"properties":{"name":"Discovery Center - Blue Ridge Parkway (Top of Mill Mountain)","styleUrl":"#0","styleHash":"5541b804","Phone":"(540) 853-1236"}},{"type":"Feature","geometry":{"type":"Point","coordinates":[-77.325372484816,38.905002586233,0]},"properties":{"name":"Dominion Christian School","styleUrl":"#0","styleHash":"5541b804","Contact Names":"Sharon Dykhoff","Phone":"(703) 758-1055"}},{"type":"Feature","geometry":{"type":"Point","coordinates":[-77.376234706828,39.026803578267,0]},"properties":{"name":"Dominion High School","styleUrl":"#0","styleHash":"5541b804","Contact Names":"Mary Young-Lutz","Phone":"571-434-4400"}},{"type":"Feature","geometry":{"type":"Point","coordinates":[-79.695107878011,37.990070933597,0]},"properties":{"name":"Douthat State Park Environmental Education Group","styleUrl":"#0","styleHash":"5541b804","Contact Names":"Ray Keen","Phone":"540-862-8114"}},{"type":"Feature","geometry":{"type":"Point","coordinates":[-82.57583400648,36.641110010073,0]},"properties":{"name":"Duffield Primary School","styleUrl":"#0","styleHash":"5541b804","Contact Names":"Tammy Quillen","Phone":"276-386-6118"}},{"type":"Feature","geometry":{"type":"Point","coordinates":[-81.956080416024,36.724030194497,0]},"properties":{"name":"E.B. Stanley Middle School","styleUrl":"#0","styleHash":"5541b804","Contact Names":"Charlene Gross","Phone":"276-739-3300"}},{"type":"Feature","geometry":{"type":"Point","coordinates":[-78.468064094296,38.167627888242,0]},"properties":{"name":"E3 Summer Science Camp, Exploration and Enjoyment in the Env.","styleUrl":"#0","styleHash":"5541b804","Contact Names":"Ann Mallek","Phone":"434-978-1150"}},{"type":"Feature","geometry":{"type":"Point","coordinates":[-77.298060665343,38.812686637588,0]},"properties":{"name":"Earth Sangha, Inc.","styleUrl":"#0","styleHash":"5541b804","Contact Names":"Chris Bright","Phone":"703-764-4830"}},{"type":"Feature","geometry":{"type":"Point","coordinates":[-77.142158065223,38.888374948324,0]},"properties":{"name":"Earth Space","styleUrl":"#0","styleHash":"5541b804","Contact Names":"Nancy Striniste, MLD","Phone":"703-532-0018"}},{"type":"Feature","geometry":{"type":"Point","coordinates":[-77.239186022132,38.657938637753,0]},"properties":{"name":"Eastern Area Grounds for Learning Environmental Science (E.A.G.L.E.S.)","styleUrl":"#0","styleHash":"5541b804","Contact Names":"Joy Greene","Phone":"703-490-5162"}},{"type":"Feature","geometry":{"type":"Point","coordinates":[-75.821042354659,37.584585151561,0]},"properties":{"name":"Eastern Shore Agricultural Research and Extension Center","styleUrl":"#0","styleHash":"5541b804","Contact Names":"Lauren Peyton Seltzer","Phone":"757-414-0724"}},{"type":"Feature","geometry":{"type":"Point","coordinates":[-75.760024014297,37.650452627041,0]},"properties":{"name":"Eastern Shore of Virginia Resource Conservation and Development Council","styleUrl":"#0","styleHash":"5541b804","Contact Names":"Sara Reiter"}},{"type":"Feature","geometry":{"type":"Point","coordinates":[-75.689161943718,37.716407189969,0]},"properties":{"name":"Eastern Shore of Virginia Tourism","styleUrl":"#0","styleHash":"5541b804","Contact Names":"Allan Burns","Phone":"(757) 787-8268"}},{"type":"Feature","geometry":{"type":"Point","coordinates":[-76.869103705108,38.020384105164,0]},"properties":{"name":"Eastern Virginia Rivers National Wildlife Refuge Complex","styleUrl":"#0","styleHash":"5541b804","Contact Names":"Joseph McCauley","Phone":"804-333-1470"}},{"type":"Feature","geometry":{"type":"Point","coordinates":[-77.22452357939,38.868104888874,0]},"properties":{"name":"Edgar Allen Poe Middle School","styleUrl":"#0","styleHash":"5541b804","Contact Names":"Dr. Mark Emery","Phone":"571-423-1270"}},{"type":"Feature","geometry":{"type":"Point","coordinates":[-77.42985624571,37.536641465836,0]},"properties":{"name":"Education (VA), Department of","styleUrl":"#0","styleHash":"5541b804","Contact Names":"Barbara Young","Phone":"804-371-0249"}},{"type":"Feature","geometry":{"type":"Point","coordinates":[-77.543108741212,36.688254000004,0]},"properties":{"name":"Edward W. Wyatt Middle School","styleUrl":"#0","styleHash":"5541b804","Contact Names":"Alicia Hargrove","Phone":"434-634-6048"}},{"type":"Feature","geometry":{"type":"Point","coordinates":[-76.296213965879,36.836607732978,0]},"properties":{"name":"Elizabeth River Project, The","styleUrl":"#0","styleHash":"5541b804","Contact Names":"Majorie Jackson","Phone":"757-399-7487"}},{"type":"Feature","geometry":{"type":"Point","coordinates":[-78.608512549982,38.404691269086,0]},"properties":{"name":"Elkton Middle School (VaN School)","styleUrl":"#0","styleHash":"5541b804","Phone":"540-298-1228"}},{"type":"Feature","geometry":{"type":"Point","coordinates":[-77.507884828116,37.716508794713,0]},"properties":{"name":"Elmont Elementary School","styleUrl":"#0","styleHash":"5541b804","Contact Names":"Jimmy Johnson","Phone":"804-365-8100"}},{"type":"Feature","geometry":{"type":"Point","coordinates":[-77.718910971606,39.130227908969,0]},"properties":{"name":"Emerick Elementary School","styleUrl":"#0","styleHash":"5541b804","Contact Names":"Dawn Haddock","Phone":"540-751-2440"}},{"type":"Feature","geometry":{"type":"Point","coordinates":[-81.826515699671,36.77342987331,0]},"properties":{"name":"Emory & Henry College Environmental Studies","styleUrl":"#0","styleHash":"5541b804","Contact Names":"E. H.  Davis","Phone":"540-944-6181"}},{"type":"Feature","geometry":{"type":"Point","coordinates":[-77.427683920588,37.534343612586,0]},"properties":{"name":"Enrichmond","styleUrl":"#0","styleHash":"5541b804","Contact Names":"John Sydnor","Phone":"804-646-0954"}},{"type":"Feature","geometry":{"type":"Point","coordinates":[-79.440376020297,37.791126375648,0]},"properties":{"name":"Environment Virginia Symposium","styleUrl":"#0","styleHash":"5541b804","Contact Names":"Amy Dehart","Phone":"(540) 464-7361"}},{"type":"Feature","geometry":{"type":"Point","coordinates":[-77.441279812746,37.69894139968,0]},"properties":{"name":"Environmental Alliance, Inc.","styleUrl":"#0","styleHash":"5541b804","Contact Names":"James Bernard","Phone":"804-752-3558"}},{"type":"Feature","geometry":{"type":"Point","coordinates":[-77.438298360588,37.539246231493,0]},"properties":{"name":"Environmental Quality (VA), Department of","styleUrl":"#0","styleHash":"5541b804","Contact Names":"Ann Regn, Director, VA Office of EE","Phone":"804-698-4442"}},{"type":"Feature","geometry":{"type":"Point","coordinates":[-80.396497055641,37.130903906995,0]},"properties":{"name":"Environmental Services & Consulting, LLC","styleUrl":"#0","styleHash":"5541b804","Contact Names":"Stuart Lynde","Phone":"540-550-0144"}},{"type":"Feature","geometry":{"type":"Point","coordinates":[-77.317538576427,37.351634845809,0]},"properties":{"name":"Environmental Solutions, Inc.","styleUrl":"#0","styleHash":"5541b804","Contact Names":"Brenda Robinson","Phone":"804-416-1150"}},{"type":"Feature","geometry":{"type":"Point","coordinates":[-77.501761397795,37.379878203743,0]},"properties":{"name":"Ettrick Elementary School","styleUrl":"#0","styleHash":"5541b804","Contact Names":"Kimberly Reynolds","Phone":"804-594-1704"}},{"type":"Feature","geometry":{"type":"Point","coordinates":[-78.553487069625,37.041297266524,0]},"properties":{"name":"Eureka Elementary School (Charlotte County)","styleUrl":"#0","styleHash":"5541b804","Contact Names":"Andy Heintlzeman","Phone":"434-736-8458"}},{"type":"Feature","geometry":{"type":"Point","coordinates":[-77.632992684158,37.464671042451,0]},"properties":{"name":"Evergreen Elementary School (VaN School)","styleUrl":"#0","styleHash":"5541b804","Contact Names":"Matt Maher","Phone":"804-378-2400"}},{"type":"Feature","geometry":{"type":"Point","coordinates":[-77.362777663019,38.855196600624,0]},"properties":{"name":"Fairfax County Park Authority","styleUrl":"#0","styleHash":"5541b804","Contact Names":"Harold L. Strickland","Phone":"703-324-7329"}},{"type":"Feature","geometry":{"type":"Point","coordinates":[-77.362779985397,38.855196839876,0]},"properties":{"name":"Fairfax County Park Foundation","styleUrl":"#0","styleHash":"5541b804","Contact Names":"Mr. Gerald Zavala","Phone":"703-324-8532"}},{"type":"Feature","geometry":{"type":"Point","coordinates":[-81.146248390347,36.622277599137,0]},"properties":{"name":"Fairview Elementary School (Grayson County)","styleUrl":"#0","styleHash":"5541b804","Contact Names":"Susie Funk","Phone":"276-773-2832"}},{"type":"Feature","geometry":{"type":"Point","coordinates":[-79.940050982443,37.283444423482,0]},"properties":{"name":"Fairview Elementary School (Roanoke)","styleUrl":"#0","styleHash":"5541b804","Contact Names":"Jonathan Pait","Phone":"540-853-2859"}},{"type":"Feature","geometry":{"type":"Point","coordinates":[-80.125945786894,36.784773475502,0]},"properties":{"name":"Fairy Stone State Park","styleUrl":"#0","styleHash":"5541b804","Contact Names":"Sam Jensen","Phone":"276-930-2424"}},{"type":"Feature","geometry":{"type":"Point","coordinates":[-77.483535595356,37.456816476074,0]},"properties":{"name":"Falling Creek Ironworks","styleUrl":"#0","styleHash":"5541b804","Contact Names":"Norma J. Corbin","Phone":"804-379-1666"}},{"type":"Feature","geometry":{"type":"Point","coordinates":[-77.783388146458,38.680706022049,0]},"properties":{"name":"Fauquier County Environmental Services","styleUrl":"#0","styleHash":"5541b804","Contact Names":"Davina Bratcher","Phone":"540-422-8840"}},{"type":"Feature","geometry":{"type":"Point","coordinates":[-77.814953546925,38.718632864464,0]},"properties":{"name":"Fauquier High School","styleUrl":"#0","styleHash":"5541b804","Contact Names":"Margaret Humphries","Phone":"540-347-6100"}},{"type":"Feature","geometry":{"type":"Point","coordinates":[-80.022463483389,36.92767594572,0]},"properties":{"name":"Ferrum College and Smith Mountain Lake Water Quality Program","styleUrl":"#0","styleHash":"5541b804","Contact Names":"Dr. Carolyn L. Thomas","Phone":"540-4368"}},{"type":"Feature","geometry":{"type":"Point","coordinates":[-80.013369646555,36.922919747642,0]},"properties":{"name":"Ferrum College- Environmental Science Program","styleUrl":"#0","styleHash":"5541b804","Contact Names":"Todd Fredericksen, Dr.","Phone":"540-365-4360"}},{"type":"Feature","geometry":{"type":"Point","coordinates":[-80.024148505456,36.926564856882,0]},"properties":{"name":"Ferrum Outdoors","styleUrl":"#0","styleHash":"5541b804","Contact Names":"Dan Caston","Phone":"540/365-4442"}},{"type":"Feature","geometry":{"type":"Point","coordinates":[-79.870530768833,36.739407825739,0]},"properties":{"name":"Fieldale-Collinsville Middle School","styleUrl":"#0","styleHash":"5541b804","Contact Names":"Shanna Francisco-King","Phone":"276-656-5493"}},{"type":"Feature","geometry":{"type":"Point","coordinates":[-80.780603664034,37.047526614023,0]},"properties":{"name":"Fine Arts Center for New River Valley","styleUrl":"#0","styleHash":"5541b804","Contact Names":"Judy Ison","Phone":"540-980-7363"}},{"type":"Feature","geometry":{"type":"Point","coordinates":[-76.05274858382,36.918526913133,0]},"properties":{"name":"First Landing State Park","styleUrl":"#0","styleHash":"5541b804","Contact Names":"Fred Hazelwood","Phone":"757-412-2300"}},{"type":"Feature","geometry":{"type":"Point","coordinates":[-79.972929502622,37.248778152315,0]},"properties":{"name":"Fishburn Park Elementary School","styleUrl":"#0","styleHash":"5541b804","Contact Names":"Ashley Ring","Phone":"540-761-4486"}},{"type":"Feature","geometry":{"type":"Point","coordinates":[-79.983548872433,37.240330497383,0]},"properties":{"name":"Fishburn Park Elementary School","styleUrl":"#0","styleHash":"5541b804","Contact Names":"Ashley Ring","Phone":"540-853-2931"}},{"type":"Feature","geometry":{"type":"Point","coordinates":[-77.319755372897,38.870374605466,0]},"properties":{"name":"Flint Hill School (VaN School)","styleUrl":"#0","styleHash":"5541b804","Contact Names":"Thomas  Whitworth","Phone":"703-584-2300"}},{"type":"Feature","geometry":{"type":"Point","coordinates":[-76.49395743046,37.073212880219,0]},"properties":{"name":"Flora Crittenden Middle School","styleUrl":"#0","styleHash":"5541b804","Contact Names":"Jacob M. Wilson, III","Phone":"757-272-9003"}},{"type":"Feature","geometry":{"type":"Point","coordinates":[-78.638177229544,37.707608067998,0]},"properties":{"name":"Flower Camp on the James River","styleUrl":"#0","styleHash":"5541b804","Contact Names":"Nancy Ross Hugo","Phone":"804-339-2338"}},{"type":"Feature","geometry":{"type":"Point","coordinates":[-80.311290828549,36.907523487684,0]},"properties":{"name":"Floyd County High School","styleUrl":"#0","styleHash":"5541b804","Contact Names":"Tony Deibler","Phone":"540-745-9450"}},{"type":"Feature","geometry":{"type":"Point","coordinates":[-79.313833650834,37.368343939017,0]},"properties":{"name":"Forest Middle School","styleUrl":"#0","styleHash":"5541b804","Contact Names":"Debby Foran","Phone":"434-525-6630"}},{"type":"Feature","geometry":{"type":"Point","coordinates":[-78.973242553198,38.247246883529,0]},"properties":{"name":"Fort Defiance High School","styleUrl":"#0","styleHash":"5541b804","Contact Names":"Cindy Schroer","Phone":"540-245-5050"}},{"type":"Feature","geometry":{"type":"Point","coordinates":[-80.11309836139,37.282024638735,0]},"properties":{"name":"Fort Lewis Elementary School (VaN School)","styleUrl":"#0","styleHash":"5541b804","Contact Names":"Cindy Klimaitis","Phone":"540-387-6594"}},{"type":"Feature","geometry":{"type":"Point","coordinates":[-77.997224505081,37.08042832335,0]},"properties":{"name":"Fort Pickett- Environmental Program","styleUrl":"#0","styleHash":"5541b804","Contact Names":"J.B. Daniel","Phone":"434-298-6393"}},{"type":"Feature","geometry":{"type":"Point","coordinates":[-79.207267656858,37.921798095469,0]},"properties":{"name":"Foundation for Virginia's Natural Resources","styleUrl":"#0","styleHash":"5541b804","Contact Names":"Jay Gilliam","Phone":"434.977.6555"}},{"type":"Feature","geometry":{"type":"Point","coordinates":[-76.923733976206,36.677203246478,0]},"properties":{"name":"Franklin High School","styleUrl":"#0","styleHash":"5541b804","Contact Names":"Linda G. Staylor","Phone":"434-298-7847"}},{"type":"Feature","geometry":{"type":"Point","coordinates":[-78.186709847169,39.190136263502,0]},"properties":{"name":"Frederick County Public Schools","styleUrl":"#0","styleHash":"5541b804","Contact Names":"Kelley Aitken","Phone":"540-662-3888"}},{"type":"Feature","geometry":{"type":"Point","coordinates":[-78.162401366241,39.184220318472,0]},"properties":{"name":"Frederick County Solid Waste/Recycling","styleUrl":"#0","styleHash":"5541b804","Contact Names":"Gloria Puffinburger","Phone":"540-665-5643"}},{"type":"Feature","geometry":{"type":"Point","coordinates":[-77.436711845833,38.635584251183,0]},"properties":{"name":"Freedom High School","styleUrl":"#0","styleHash":"5541b804","Contact Names":"Darin Thompson","Phone":"703-583-1405"}},{"type":"Feature","geometry":{"type":"Point","coordinates":[-77.204030830972,38.792145909136,0]},"properties":{"name":"Friends of Accotink Creek","styleUrl":"#0","styleHash":"5541b804","Contact Names":"Friends of Accotink Creek","Phone":"NO PHONE"}},{"type":"Feature","geometry":{"type":"Point","coordinates":[-80.77978873718,37.047898313796,0]},"properties":{"name":"Friends of Black's Run Greenway","styleUrl":"#0","styleHash":"5541b804","Contact Names":"John B. Reeves","Phone":"540. 433. 9358"}},{"type":"Feature","geometry":{"type":"Point","coordinates":[-77.507749882227,37.376831319294,0]},"properties":{"name":"Friends of Chesterfield's Riverfront","styleUrl":"#0","styleHash":"5541b804","Contact Names":"Mark Endries","Phone":"no phone"}},{"type":"Feature","geometry":{"type":"Point","coordinates":[-80.779792551735,37.047901197192,0]},"properties":{"name":"Friends of Claytor Lake","styleUrl":"#0","styleHash":"5541b804","Phone":"540-674-0166"}},{"type":"Feature","geometry":{"type":"Point","coordinates":[-76.54513557871,37.415547354142,0]},"properties":{"name":"Friends of Dragon Run","styleUrl":"#0","styleHash":"5541b804","Contact Names":"Davis Rhodes","Phone":"757-484-9522"}},{"type":"Feature","geometry":{"type":"Point","coordinates":[-77.055021171873,38.74747590588,0]},"properties":{"name":"Friends of Dyke Marsh","styleUrl":"#0","styleHash":"5541b804","Contact Names":"Glenda Booth","Phone":"703-765-5233"}},{"type":"Feature","geometry":{"type":"Point","coordinates":[-77.481475361055,37.517270881791,0]},"properties":{"name":"Friends of Forest Hill Park- Clean City Commission Task Force","styleUrl":"#0","styleHash":"5541b804","Contact Names":"Monica Rumsey","Phone":"804-233-7361"}},{"type":"Feature","geometry":{"type":"Point","coordinates":[-77.449428275674,37.550493713202,0]},"properties":{"name":"Friends of James River Park","styleUrl":"#0","styleHash":"5541b804","Contact Names":"Ralph White","Phone":"804‐646‐8911"}},{"type":"Feature","geometry":{"type":"Point","coordinates":[-77.580910992041,37.384554812715,0]},"properties":{"name":"Friends of Pocahontas State Park","styleUrl":"#0","styleHash":"5541b804","Contact Names":"Dan Quesenberry","Phone":"804-796-4472"}},{"type":"Feature","geometry":{"type":"Point","coordinates":[-78.870745406351,37.759809531424,0]},"properties":{"name":"Friends of Rockfish Watershed (FOR Watershed)","styleUrl":"#0","styleHash":"5541b804"}},{"type":"Feature","geometry":{"type":"Point","coordinates":[-78.656891264259,37.431576389116,0]},"properties":{"name":"Friends of Runnymeade Park-Herndon","styleUrl":"#0","styleHash":"5541b804","Contact Names":"Ann H. Csonka"}},{"type":"Feature","geometry":{"type":"Point","coordinates":[-77.29957012792,38.353771216018,0]},"properties":{"name":"Friends of Stafford Creeks","styleUrl":"#0","styleHash":"5541b804","Contact Names":"Patricia Kurpiel","Phone":"540-657-6674"}},{"type":"Feature","geometry":{"type":"Point","coordinates":[-79.991426832649,37.225065782792,0]},"properties":{"name":"Friends of the Blue Ridge Parkway","styleUrl":"#0","styleHash":"5541b804","Contact Names":"Susan J. Mills, Executive Director","Phone":"540-772-2992"}},{"type":"Feature","geometry":{"type":"Point","coordinates":[-78.507990394712,38.882588691099,0]},"properties":{"name":"Friends of the North Fork of the Shenandoah River","styleUrl":"#0","styleHash":"5541b804","Contact Names":"Leslie Mitchell","Phone":"540-459-9550"}},{"type":"Feature","geometry":{"type":"Point","coordinates":[-77.367145618192,38.708827765931,0]},"properties":{"name":"Friends of the Occoquan","styleUrl":"#0","styleHash":"5541b804","Contact Names":"German Vanegas","Phone":"703-624-7124"}},{"type":"Feature","geometry":{"type":"Point","coordinates":[-75.747304323126,37.709626151933,0]},"properties":{"name":"Friends of the Onancock School","styleUrl":"#0","styleHash":"5541b804","Contact Names":"Donna Ware","Phone":"757-302-1331"}},{"type":"Feature","geometry":{"type":"Point","coordinates":[-79.261760311651,37.585759841304,0]},"properties":{"name":"Friends of the Pedlar","styleUrl":"#0","styleHash":"5541b804","Contact Names":"Judy Strang","Phone":"434-922-7510"}},{"type":"Feature","geometry":{"type":"Point","coordinates":[-77.264309008468,38.676636525636,0]},"properties":{"name":"Friends of the Potomac River Refuges","styleUrl":"#0","styleHash":"5541b804","Contact Names":"Joan Patterson","Phone":"703-636-4115"}},{"type":"Feature","geometry":{"type":"Point","coordinates":[-77.484708882636,38.316658396652,0]},"properties":{"name":"Friends of the Rappahannock","styleUrl":"#0","styleHash":"5541b804","Contact Names":"Daria Blom","Phone":"540-373-3448"}},{"type":"Feature","geometry":{"type":"Point","coordinates":[-79.947806277994,37.373470652595,0]},"properties":{"name":"Friends of the Rivers of Virginia","styleUrl":"#0","styleHash":"5541b804","Contact Names":"Bill Tanger","Phone":"540-266-0237"}},{"type":"Feature","geometry":{"type":"Point","coordinates":[-78.157908069374,39.169113382652,0]},"properties":{"name":"Friends of the Shenandoah River","styleUrl":"#0","styleHash":"5541b804","Contact Names":"Karen Anderson","Phone":"540-665-1286"}},{"type":"Feature","geometry":{"type":"Point","coordinates":[-81.146244713253,36.622277688894,0]},"properties":{"name":"Fries Middle School","styleUrl":"#0","styleHash":"5541b804","Contact Names":"Susie Funk","Phone":"276-773-2832"}},{"type":"Feature","geometry":{"type":"Point","coordinates":[-78.518496288436,38.754880104647,0]},"properties":{"name":"Front Royal Grotto","styleUrl":"#0","styleHash":"5541b804","Contact Names":"Janet Tinkham","Phone":"540-933-6850"}},{"type":"Feature","geometry":{"type":"Point","coordinates":[-79.042729410575,38.133986123905,0]},"properties":{"name":"Frontier Culture Museum","styleUrl":"#0","styleHash":"5541b804","Contact Names":"Sarah Puckett","Phone":"540-332-7850"}},{"type":"Feature","geometry":{"type":"Point","coordinates":[-78.473981161287,37.063705865391,0]},"properties":{"name":"Fuqua School","styleUrl":"#0","styleHash":"5541b804","Contact Names":"Liz Hodges","Phone":"434-392-4131"}},{"type":"Feature","geometry":{"type":"Point","coordinates":[-77.481660478032,37.572667357465,0]},"properties":{"name":"Game and Inland Fisheries (VA), Department of","styleUrl":"#0","styleHash":"5541b804","Contact Names":"Suzie Gilley, Wildlife Education","Phone":"804-367-1000"}},{"type":"Feature","geometry":{"type":"Point","coordinates":[-79.940049405898,37.283444999418,0]},"properties":{"name":"Garden City Elementary School","styleUrl":"#0","styleHash":"5541b804","Contact Names":"Jonathan Pait","Phone":"540-853-2859"}},{"type":"Feature","geometry":{"type":"Point","coordinates":[-79.893081990449,36.741286587458,0]},"properties":{"name":"Gateway Streetscape Foundation","styleUrl":"#0","styleHash":"5541b804","Contact Names":"Gerald Lawicki","Phone":"276-634-4601"}},{"type":"Feature","geometry":{"type":"Point","coordinates":[-77.43341638678,37.537628599158,0]},"properties":{"name":"General Services, Department of","styleUrl":"#0","styleHash":"5541b804","Contact Names":"Ed Gully","Phone":"804-786-3263"}},{"type":"Feature","geometry":{"type":"Point","coordinates":[-77.085350341043,38.886522821339,0]},"properties":{"name":"George Mason University","styleUrl":"#0","styleHash":"5541b804","Contact Names":"Dan Waxman"}},{"type":"Feature","geometry":{"type":"Point","coordinates":[-77.306370355642,38.84622444879,0]},"properties":{"name":"George Mason University Sustainability Institute","styleUrl":"#0","styleHash":"5541b804","Contact Names":"Jenny Upton","Phone":"703-993-5301"}},{"type":"Feature","geometry":{"type":"Point","coordinates":[-78.48365133898,38.053256244075,0]},"properties":{"name":"George Rogers Clark Elementary School","styleUrl":"#0","styleHash":"5541b804","Contact Names":"Gertrude A. Ivory","Phone":"434-245-2939"}},{"type":"Feature","geometry":{"type":"Point","coordinates":[-77.45738674753,38.29788655388,0]},"properties":{"name":"George Washington Regional Commission","styleUrl":"#0","styleHash":"5541b804","Contact Names":"Tim Ware","Phone":"540-373-2890"}},{"type":"Feature","geometry":{"type":"Point","coordinates":[-77.38886490668,37.687487550176,0]},"properties":{"name":"Georgetown School, The","styleUrl":"#0","styleHash":"5541b804","Contact Names":"Gale Robinson","Phone":"804-723-3460"}},{"type":"Feature","geometry":{"type":"Point","coordinates":[-77.347897523645,38.839150883144,0]},"properties":{"name":"Gesher Jewish Day School","styleUrl":"#0","styleHash":"5541b804","Contact Names":"Zvi Schoenburg","Phone":"703-978-9789"}},{"type":"Feature","geometry":{"type":"Point","coordinates":[-77.484751728883,37.768681778938,0]},"properties":{"name":"Get Out In Nature Group","styleUrl":"#0","styleHash":"5541b804","Contact Names":"Katie Cartwright"}},{"type":"Feature","geometry":{"type":"Point","coordinates":[-79.401735672155,36.572020523298,0]},"properties":{"name":"Gibson Magnet School (VaN School)","styleUrl":"#0","styleHash":"5541b804","Contact Names":"Kenny Lewis","Phone":"434-799-6426"}},{"type":"Feature","geometry":{"type":"Point","coordinates":[-80.736698997542,37.329040179699,0]},"properties":{"name":"Giles County Public Service Authority","styleUrl":"#0","styleHash":"5541b804","Contact Names":"Anita Purdue","Phone":"(540) 921-2525"}},{"type":"Feature","geometry":{"type":"Point","coordinates":[-77.3763644922,37.605051488729,0]},"properties":{"name":"Girl Scout Commonwealth Council","styleUrl":"#0","styleHash":"5541b804","Contact Names":"Beth Fellenstein","Phone":"804-764-3322"}},{"type":"Feature","geometry":{"type":"Point","coordinates":[-76.270126482305,36.711194377881,0]},"properties":{"name":"Girl Scout Council of Colonial Coast","styleUrl":"#0","styleHash":"5541b804","Contact Names":"Marcy Gemanotta","Phone":"757-547-4405"}},{"type":"Feature","geometry":{"type":"Point","coordinates":[-79.992750993891,37.324145224821,0]},"properties":{"name":"Girl Scouts of Virginia Skyline Council","styleUrl":"#0","styleHash":"5541b804","Contact Names":"Sylvie Peterson, Program Director","Phone":"540-777-5103"}},{"type":"Feature","geometry":{"type":"Point","coordinates":[-82.08012833586,36.900942312756,0]},"properties":{"name":"Givens Elementary School","styleUrl":"#0","styleHash":"5541b804","Contact Names":"Heather Keen","Phone":"276-991-0016"}},{"type":"Feature","geometry":{"type":"Point","coordinates":[-81.774206348482,36.779670997076,0]},"properties":{"name":"Glade Spring Middle School","styleUrl":"#0","styleHash":"5541b804","Contact Names":"Bill Lester","Phone":"276-739-3800"}},{"type":"Feature","geometry":{"type":"Point","coordinates":[-77.120833116659,38.89250427435,0]},"properties":{"name":"Glebe Elementary School","styleUrl":"#0","styleHash":"5541b804","Contact Names":"Ann Calby, Librarian","Phone":"703-228-6280"}},{"type":"Feature","geometry":{"type":"Point","coordinates":[-77.522705217995,37.678713767753,0]},"properties":{"name":"Glen Allen Elementary School","styleUrl":"#0","styleHash":"5541b804","Contact Names":"Theresa Harris","Phone":"804-756-3040"}},{"type":"Feature","geometry":{"type":"Point","coordinates":[-80.022032578529,37.320980579565,0]},"properties":{"name":"Glen Cove Elementary School","styleUrl":"#0","styleHash":"5541b804","Contact Names":"Jan S. Nichols, Principal","Phone":"540-561-8135"}},{"type":"Feature","geometry":{"type":"Point","coordinates":[-80.138064182472,37.279128027548,0]},"properties":{"name":"Glenvar High School","styleUrl":"#0","styleHash":"5541b804","Contact Names":"Joe Hafey","Phone":"540-387-6536"}},{"type":"Feature","geometry":{"type":"Point","coordinates":[-80.138436237409,37.27914189657,0]},"properties":{"name":"Glenvar Middle School","styleUrl":"#0","styleHash":"5541b804","Contact Names":"Sharon Hill","Phone":"540-387-6322"}},{"type":"Feature","geometry":{"type":"Point","coordinates":[-76.139373365608,36.773785371933,0]},"properties":{"name":"Glenwood Elementary School","styleUrl":"#0","styleHash":"5541b804","Contact Names":"Susan Stuhlman","Phone":"757-648-2520"}},{"type":"Feature","geometry":{"type":"Point","coordinates":[-76.535191379961,37.416395051688,0]},"properties":{"name":"Gloucester Clean Community","styleUrl":"#0","styleHash":"5541b804","Contact Names":"William A. Bell","Phone":"804-693-5370"}},{"type":"Feature","geometry":{"type":"Point","coordinates":[-78.162568535935,39.177514990067,0]},"properties":{"name":"Going Green Program - City of Winchester","styleUrl":"#0","styleHash":"5541b804","Contact Names":"Michael Neese","Phone":"540-667-1815"}},{"type":"Feature","geometry":{"type":"Point","coordinates":[-78.511058627038,37.54131503446,0]},"properties":{"name":"Gold Hill Elementary School","styleUrl":"#0","styleHash":"5541b804","Contact Names":"Heather Page","Phone":"434-983-2861"}},{"type":"Feature","geometry":{"type":"Point","coordinates":[-77.890066130784,37.697350268795,0]},"properties":{"name":"Goochland Anti-Littering and Recycling Council","styleUrl":"#0","styleHash":"5541b804","Contact Names":"K. Leigh Dunn","Phone":"804-556-5850"}},{"type":"Feature","geometry":{"type":"Point","coordinates":[-77.896409406973,37.699713854262,0]},"properties":{"name":"Goochland High School (VaN School)","styleUrl":"#0","styleHash":"5541b804","Contact Names":"Michael Newman","Phone":"804-556-5322"}},{"type":"Feature","geometry":{"type":"Point","coordinates":[-77.479062814184,37.519124405028,0]},"properties":{"name":"Good Shepherd Episcopal School (VaN School)","styleUrl":"#0","styleHash":"5541b804","Contact Names":"Michael Woodruff","Phone":"804-231-1452"}},{"type":"Feature","geometry":{"type":"Point","coordinates":[-77.809626529416,38.976032895804,0]},"properties":{"name":"Goose Creek Association","styleUrl":"#0","styleHash":"5541b804","Contact Names":"Andrea Rosse","Phone":"(540) 687-3073"}},{"type":"Feature","geometry":{"type":"Point","coordinates":[-77.454681437413,37.559580966906,0]},"properties":{"name":"Governor's School, Maggie Walker, The","styleUrl":"#0","styleHash":"5541b804","Contact Names":"David Barnes","Phone":"804-354-6800"}},{"type":"Feature","geometry":{"type":"Point","coordinates":[-79.07036307993,38.148979071006,0]},"properties":{"name":"Grace Christian School","styleUrl":"#0","styleHash":"5541b804","Contact Names":"Liz Middleton","Phone":"540-886-9109"}},{"type":"Feature","geometry":{"type":"Point","coordinates":[-77.462322122338,38.742567147454,0]},"properties":{"name":"Grace E. Metz Middle School","styleUrl":"#0","styleHash":"5541b804","Contact Names":"C. Mattia","Phone":"703-257-8600"}},{"type":"Feature","geometry":{"type":"Point","coordinates":[-76.453253478779,37.147783371237,0]},"properties":{"name":"Grafton Bethel Elementary School (VaN School)","styleUrl":"#0","styleHash":"5541b804","Contact Names":"Dr. Karen Grass","Phone":"757-898-0350"}},{"type":"Feature","geometry":{"type":"Point","coordinates":[-81.146247532749,36.62228071399,0]},"properties":{"name":"Grayson Highlands Elementary School","styleUrl":"#0","styleHash":"5541b804","Contact Names":"Susie Funk","Phone":"276-773-2832"}},{"type":"Feature","geometry":{"type":"Point","coordinates":[-76.216902864375,36.594127986554,0]},"properties":{"name":"Great Bridge Battlefield and Waterways History Foundation","styleUrl":"#0","styleHash":"5541b804","Contact Names":"Jean Carideo","Phone":"757-410-7067"}},{"type":"Feature","geometry":{"type":"Point","coordinates":[-76.561366137801,36.617772172408,0]},"properties":{"name":"Great Dismal Swamp National Wildlife Refuge","styleUrl":"#0","styleHash":"5541b804","Contact Names":"Visitor Services","Phone":"757-986-3705"}},{"type":"Feature","geometry":{"type":"Point","coordinates":[-77.438985272549,37.539837577554,0]},"properties":{"name":"Greater Richmond Chamber of Commerce","styleUrl":"#0","styleHash":"5541b804","Contact Names":"Kim Scheeler","Phone":"804-648-1234"}},{"type":"Feature","geometry":{"type":"Point","coordinates":[-79.071693704268,38.149579437484,0]},"properties":{"name":"Greater Shenandoah Valley Environmental Education Alliance","styleUrl":"#0","styleHash":"5541b804","Contact Names":"Tamra Willis/Betty Gatewood","Phone":"540-887-7135"}},{"type":"Feature","geometry":{"type":"Point","coordinates":[-78.530563487339,37.942510860632,0]},"properties":{"name":"Green Adventure Project","styleUrl":"#0","styleHash":"5541b804","Contact Names":"Mike Bruscia","Phone":"434.293.4270"}},{"type":"Feature","geometry":{"type":"Point","coordinates":[-76.292434680683,36.867725328703,0]},"properties":{"name":"GREEN Alternatives","styleUrl":"#0","styleHash":"5541b804","Contact Names":"Amanda Mason","Phone":"757-457-8991"}},{"type":"Feature","geometry":{"type":"Point","coordinates":[-77.533212837204,37.466346898886,0]},"properties":{"name":"Green Earth Recycling of Virginia","styleUrl":"#0","styleHash":"5541b804","Phone":"804-639-3343"}},{"type":"Feature","geometry":{"type":"Point","coordinates":[-76.664380556575,37.233827695661,0]},"properties":{"name":"Green Jobs Alliance","styleUrl":"#0","styleHash":"5541b804","Contact Names":"Randy Flood","Phone":"703-732-9049"}},{"type":"Feature","geometry":{"type":"Point","coordinates":[-76.014504402579,36.682270778613,0]},"properties":{"name":"Green Seahorse media, LLC: The marlin and the Mermaid \"Help Save the Bay","styleUrl":"#0","styleHash":"5541b804","Contact Names":"Daniel. R. Ford","Phone":"757-575-6352"}},{"type":"Feature","geometry":{"type":"Point","coordinates":[-76.219085393863,36.78622751793,0]},"properties":{"name":"Greenbrier Intermediate School","styleUrl":"#0","styleHash":"5541b804","Contact Names":"John Sammons","Phone":"757-578-7080"}},{"type":"Feature","geometry":{"type":"Point","coordinates":[-82.043965586427,36.750970295271,0]},"properties":{"name":"Greendale Elementary School","styleUrl":"#0","styleHash":"5541b804","Contact Names":"Allyson Willis","Phone":"276-739-3500"}},{"type":"Feature","geometry":{"type":"Point","coordinates":[-77.543111735071,36.688256321326,0]},"properties":{"name":"Greensville Elementary School","styleUrl":"#0","styleHash":"5541b804","Contact Names":"Alicia Hargrove","Phone":"434-634-3748"}},{"type":"Feature","geometry":{"type":"Point","coordinates":[-77.486924278935,37.671651772989,0]},"properties":{"name":"Greenwood Elementary School","styleUrl":"#0","styleHash":"5541b804","Contact Names":"Debra Smith, Principal","Phone":"804-261-2970"}},{"type":"Feature","geometry":{"type":"Point","coordinates":[-79.142435394444,37.414578105849,0]},"properties":{"name":"Greenwood Partnership","styleUrl":"#0","styleHash":"5541b804","Contact Names":"Randall Scott Vaughn","Phone":"804-847-3400"}},{"type":"Feature","geometry":{"type":"Point","coordinates":[-78.136353420737,38.254330798154,0]},"properties":{"name":"Grymes Memorial School (VaN School)","styleUrl":"#0","styleHash":"5541b804","Phone":"540-672- 9167"}},{"type":"Feature","geometry":{"type":"Point","coordinates":[-82.466590933104,37.14964129015,0]},"properties":{"name":"Guest River Restoration Project","styleUrl":"#0","styleHash":"5541b804","Contact Names":"Danielle Dutton","Phone":"276-926-6621"}},{"type":"Feature","geometry":{"type":"Point","coordinates":[-79.09696743605,36.718592760279,0]},"properties":{"name":"Halifax County Improvement Council","styleUrl":"#0","styleHash":"5541b804","Contact Names":"Jennifer Hochstein, Director","Phone":"434-222-9448"}},{"type":"Feature","geometry":{"type":"Point","coordinates":[-78.922476408288,36.766922543162,0]},"properties":{"name":"Halifax High School","styleUrl":"#0","styleHash":"5541b804","Contact Names":"Linda G. Staylor","Phone":"434-298-7847"}},{"type":"Feature","geometry":{"type":"Point","coordinates":[-78.922480267843,36.766921762339,0]},"properties":{"name":"Halifax Middle School","styleUrl":"#0","styleHash":"5541b804","Contact Names":"Linda G. Staylor","Phone":"434-298-7847"}},{"type":"Feature","geometry":{"type":"Point","coordinates":[-76.342990369328,37.028194895649,0]},"properties":{"name":"Hampton Clean City Commission","styleUrl":"#0","styleHash":"5541b804","Contact Names":"Debbie Blanton","Phone":"757-727-6394"}},{"type":"Feature","geometry":{"type":"Point","coordinates":[-76.179582401652,36.891901387909,0]},"properties":{"name":"Hampton Roads Agricultural Research and Extension Center (Va Tech)","styleUrl":"#0","styleHash":"5541b804","Contact Names":"Laurie Fox","Phone":"757-363-3807"}},{"type":"Feature","geometry":{"type":"Point","coordinates":[-76.281994849369,36.878768202707,0]},"properties":{"name":"Hampton Roads Alliance for Environmental Education (HRAEE)","styleUrl":"#0","styleHash":"5541b804","Contact Names":"K. Grauberger","Phone":"(757) 420-8300"}},{"type":"Feature","geometry":{"type":"Point","coordinates":[-76.235299212911,36.789578193933,0]},"properties":{"name":"Hampton Roads Planning District Commission","styleUrl":"#0","styleHash":"5541b804","Contact Names":"Julia Hillegass","Phone":"757-420-8300"}},{"type":"Feature","geometry":{"type":"Point","coordinates":[-76.187191071981,36.896402562848,0]},"properties":{"name":"Hampton Roads Sanitation District (HRSD)","styleUrl":"#0","styleHash":"5541b804","Contact Names":"Erwin Bonatz","Phone":"757-460-2261"}},{"type":"Feature","geometry":{"type":"Point","coordinates":[-77.454523514625,37.760681435603,0]},"properties":{"name":"Hanover Academy","styleUrl":"#0","styleHash":"5541b804","Contact Names":"Michele Huff","Phone":"804-798-8413"}},{"type":"Feature","geometry":{"type":"Point","coordinates":[-77.340505455654,37.753985890103,0]},"properties":{"name":"Hanover Juvenile Correction Center (VaN School)","styleUrl":"#0","styleHash":"5541b804","Contact Names":"Carolyn Ross","Phone":"804-537-5316"}},{"type":"Feature","geometry":{"type":"Point","coordinates":[-77.433373217998,37.755295723811,0]},"properties":{"name":"Hanover Parks and Recreation Department","styleUrl":"#0","styleHash":"5541b804","Contact Names":"Greg Sager","Phone":"804-365-4690"}},{"type":"Feature","geometry":{"type":"Point","coordinates":[-78.869344056798,38.44648438266,0]},"properties":{"name":"Harrisonburg City Public Schools","styleUrl":"#0","styleHash":"5541b804","Contact Names":"Andy Jackson","Phone":"540-434-4801"}},{"type":"Feature","geometry":{"type":"Point","coordinates":[-78.890706748092,38.418513765803,0]},"properties":{"name":"Harrisonburg, City of","styleUrl":"#0","styleHash":"5541b804","Contact Names":"Harsit Patel","Phone":"540-434-5928"}},{"type":"Feature","geometry":{"type":"Point","coordinates":[-77.539008143236,38.38368503487,0]},"properties":{"name":"Hartwood Elementary","styleUrl":"#0","styleHash":"5541b804","Contact Names":"Leslie Lausten","Phone":"540-752-4441"}},{"type":"Feature","geometry":{"type":"Point","coordinates":[-80.143064379838,37.058761946129,0]},"properties":{"name":"Healing Harvest Forest Foundation","styleUrl":"#0","styleHash":"5541b804","Contact Names":"Jason Rutledge","Phone":"540-651-6355"}},{"type":"Feature","geometry":{"type":"Point","coordinates":[-77.43175443529,37.537183899015,0]},"properties":{"name":"Health (VA), Department of","styleUrl":"#0","styleHash":"5541b804","Contact Names":"Maureen Dempsey","Phone":"804-646-7473"}},{"type":"Feature","geometry":{"type":"Point","coordinates":[-77.409621476723,38.770190267662,0]},"properties":{"name":"Hemlock Overlook Regional Park","styleUrl":"#0","styleHash":"5541b804","Contact Names":"Anna Birch","Phone":"800-877-0954"}},{"type":"Feature","geometry":{"type":"Point","coordinates":[-77.509571590435,37.628341919072,0]},"properties":{"name":"Henrico County Div. of Recreation and Parks, Outdoor Recreation","styleUrl":"#0","styleHash":"5541b804","Contact Names":"Recreation & Parks","Phone":"804 - 501-5147"}},{"type":"Feature","geometry":{"type":"Point","coordinates":[-77.509570525217,37.628342291423,0]},"properties":{"name":"Henrico County Extension Service","styleUrl":"#0","styleHash":"5541b804","Contact Names":"Karen Carter","Phone":"804-501-5160"}},{"type":"Feature","geometry":{"type":"Point","coordinates":[-77.4867274401,37.75620513076,0]},"properties":{"name":"Henry Clay Elementary School (VaN School)","styleUrl":"#0","styleHash":"5541b804","Contact Names":"Teresa Keck","Phone":"804-365-8139"}},{"type":"Feature","geometry":{"type":"Point","coordinates":[-79.89297336248,36.742440789128,0]},"properties":{"name":"Henry County Parks & Recreation","styleUrl":"#0","styleHash":"5541b804","Contact Names":"Andy Mabe","Phone":"276-634-4640"}},{"type":"Feature","geometry":{"type":"Point","coordinates":[-79.143658813584,37.413062050488,0]},"properties":{"name":"Heritage Elementary School","styleUrl":"#0","styleHash":"5541b804","Contact Names":"Sharon Anderson","Phone":"434-384-5150"}},{"type":"Feature","geometry":{"type":"Point","coordinates":[-80.028391293156,37.254621653821,0]},"properties":{"name":"Hidden Valley Middle School (VaN School)","styleUrl":"#0","styleHash":"5541b804","Contact Names":"Ken Nicely","Phone":"540-772-7570"}},{"type":"Feature","geometry":{"type":"Point","coordinates":[-79.940049004146,37.283447960376,0]},"properties":{"name":"Highland Park Elementary School","styleUrl":"#0","styleHash":"5541b804","Contact Names":"Sarah Copenhaver","Phone":"540-397-1020"}},{"type":"Feature","geometry":{"type":"Point","coordinates":[-79.327218883037,37.396904701665,0]},"properties":{"name":"Hill City Master Gardener Association, The","styleUrl":"#0","styleHash":"5541b804","Contact Names":"Bill Morton","Phone":"434-525-7631"}},{"type":"Feature","geometry":{"type":"Point","coordinates":[-77.47260764622,37.558316537374,0]},"properties":{"name":"Historic Resources (VA), Department of","styleUrl":"#0","styleHash":"5541b804","Contact Names":"Catherine Slusser","Phone":"804-367-2323"}},{"type":"Feature","geometry":{"type":"Point","coordinates":[-76.400144103117,36.892888341894,0]},"properties":{"name":"Hoffler Creek Wildlife Foundation","styleUrl":"#0","styleHash":"5541b804","Contact Names":"Randi Strutton","Phone":"757-483-6838"}},{"type":"Feature","geometry":{"type":"Point","coordinates":[-78.649456580296,37.393925971531,0]},"properties":{"name":"Holiday Lake 4-H Educational Center","styleUrl":"#0","styleHash":"5541b804","Contact Names":"Tamara Arrington","Phone":"434-248-5444"}},{"type":"Feature","geometry":{"type":"Point","coordinates":[-78.640829477076,37.397240392127,0]},"properties":{"name":"Holliday Lake State Park","styleUrl":"#0","styleHash":"5541b804","Contact Names":"Alison Weddle, Chief Ranger","Phone":"434-248-6308"}},{"type":"Feature","geometry":{"type":"Point","coordinates":[-78.501612583408,38.886588171822,0]},"properties":{"name":"Holman's Creek Citizen's Watershed","styleUrl":"#0","styleHash":"5541b804","Contact Names":"Rodney Bankson","Phone":"(540) 459-5735"}},{"type":"Feature","geometry":{"type":"Point","coordinates":[-81.794620158441,36.655217172697,0]},"properties":{"name":"Holston High School","styleUrl":"#0","styleHash":"5541b804","Contact Names":"Amy Thacker","Phone":"276-739-4000"}},{"type":"Feature","geometry":{"type":"Point","coordinates":[-76.493955238258,37.073209667502,0]},"properties":{"name":"Homer L. Hines Middle School","styleUrl":"#0","styleHash":"5541b804","Contact Names":"Jacob M. Wilson, III","Phone":"757-272-9003"}},{"type":"Feature","geometry":{"type":"Point","coordinates":[-77.277553030685,37.297682526333,0]},"properties":{"name":"Honeywell","styleUrl":"#0","styleHash":"5541b804","Contact Names":"Evans Drake","Phone":"804-541-5732"}},{"type":"Feature","geometry":{"type":"Point","coordinates":[-77.283389902892,37.303973878754,0]},"properties":{"name":"Hopewell Clean City Commission","styleUrl":"#0","styleHash":"5541b804","Contact Names":"Phillip Elliott","Phone":"804-541-2293"}},{"type":"Feature","geometry":{"type":"Point","coordinates":[-77.438986884262,37.5398362785,0]},"properties":{"name":"Housing & Community Development (VA), Department of","styleUrl":"#0","styleHash":"5541b804","Contact Names":"Hollie Cammasasana, Public Relations","Phone":"804-371-7006"}},{"type":"Feature","geometry":{"type":"Point","coordinates":[-77.118890425439,38.786926552508,0]},"properties":{"name":"Howard Gardner School, The","styleUrl":"#0","styleHash":"5541b804","Contact Names":"Katherine Keith","Phone":"703-822-9300"}},{"type":"Feature","geometry":{"type":"Point","coordinates":[-78.869501479073,38.130898878855,0]},"properties":{"name":"Hugh K. Cassell Elementary School","styleUrl":"#0","styleHash":"5541b804","Contact Names":"Mindy Garber","Phone":"540-946-7635"}},{"type":"Feature","geometry":{"type":"Point","coordinates":[-76.665654124827,38.121521637591,0]},"properties":{"name":"Hull Springs Farm Foundation - Longwood University","styleUrl":"#0","styleHash":"5541b804","Contact Names":"Bobbie Burton","Phone":"804-472-2621"}},{"type":"Feature","geometry":{"type":"Point","coordinates":[-77.361280149085,38.932612345775,0]},"properties":{"name":"Hunters Woods Elementary School for the Arts and Sciences (VaN School)","styleUrl":"#0","styleHash":"5541b804","Contact Names":"Emily Cope","Phone":"703-262-7474"}},{"type":"Feature","geometry":{"type":"Point","coordinates":[-76.415022728464,36.989482607967,0]},"properties":{"name":"Huntington Middle School","styleUrl":"#0","styleHash":"5541b804","Contact Names":"Cleo Hollowya","Phone":"757-928-6846"}},{"type":"Feature","geometry":{"type":"Point","coordinates":[-79.940048747832,37.283446873568,0]},"properties":{"name":"Hurt Park Elementary School","styleUrl":"#0","styleHash":"5541b804","Contact Names":"Sarah Copenhaver","Phone":"540-397-1020"}},{"type":"Feature","geometry":{"type":"Point","coordinates":[-81.146244921777,36.62227763362,0]},