{"type":"FeatureCollection","features":[{"type":"Feature","geometry":{"type":"Point","coordinates":[-76.342499,37.0267]},"properties":{"name":"131 E QUEEN ST","styleUrl":"#towerStyle","styleHash":"1d01e409","county":"Hampton city","lat":37.0267,"lng":-76.342499,"structure_type":null,"structure_name":null,"structure_address":"131 E QUEEN ST","height":80.8,"base_elevation":1.911338,"structure_owner_name":"Verizon Virginia Inc.","structure_manager_name":null,"data_source":"FCC: Antenna Structure Registration (GIS)"}},{"type":"Feature","geometry":{"type":"Point","coordinates":[-76.3414,37.0256]},"properties":{"name":"2 EATON ST","styleUrl":"#towerStyle","styleHash":"1d01e409","county":"Hampton city","lat":37.0256,"lng":-76.3414,"structure_type":null,"structure_name":null,"structure_address":"2 EATON ST","height":65.2,"base_elevation":1.419371,"structure_owner_name":"ARMADA HOFFLER HAMPTON CENTRE ASSOC LP","structure_manager_name":null,"data_source":"FCC: Antenna Structure Registration (GIS)"}},{"type":"Feature","geometry":{"type":"Point","coordinates":[-76.417,37.0577]},"properties":{"name":"I-64 @ Hampton Roads Cntr Pkwy, x 261","styleUrl":"#towerStyle","styleHash":"1d01e409","county":"Hampton city","lat":37.0577,"lng":-76.417,"structure_type":null,"structure_name":null,"structure_address":"I-64 @ Hampton Roads Cntr Pkwy, x 261","height":44.8,"base_elevation":5.780288,"structure_owner_name":"Virginia, Commonwealth of, Dept of Trans","structure_manager_name":null,"data_source":"FCC: Antenna Structure Registration (GIS)"}},{"type":"Feature","geometry":{"type":"Point","coordinates":[-76.4404,37.0349]},"properties":{"name":"113 WELLINGTON DRIVE","styleUrl":"#towerStyle","styleHash":"1d01e409","county":"Hampton city","lat":37.0349,"lng":-76.4404,"structure_type":null,"structure_name":null,"structure_address":"113 WELLINGTON DRIVE","height":45.7,"base_elevation":5.290304,"structure_owner_name":"TowerCo Assets LLC","structure_manager_name":null,"data_source":"FCC: Antenna Structure Registration (GIS)"}},{"type":"Feature","geometry":{"type":"Point","coordinates":[-76.3753,37.0306]},"properties":{"name":"0.1 mile NW of intersection of Red Robin Turn and Mallard Run","styleUrl":"#towerStyle","styleHash":"1d01e409","county":"Hampton city","lat":37.0306,"lng":-76.3753,"structure_type":null,"structure_name":null,"structure_address":"0.1 mile NW of intersection of Red Robin Turn and Mallard Run","height":128.6,"base_elevation":0.83922,"structure_owner_name":"Red Zebra Broadcasting Licensee (Norfolk), LLC","structure_manager_name":null,"data_source":"FCC: Antenna Structure Registration (GIS)"}},{"type":"Feature","geometry":{"type":"Point","coordinates":[-76.3764,37.0294]},"properties":{"name":"MC DONALD RD","styleUrl":"#towerStyle","styleHash":"1d01e409","county":"Hampton city","lat":37.0294,"lng":-76.3764,"structure_type":null,"structure_name":null,"structure_address":"MC DONALD RD","height":146.9,"base_elevation":0.141151,"structure_owner_name":"Pinnacle Towers LLC","structure_manager_name":null,"data_source":"FCC: Antenna Structure Registration (GIS)"}},{"type":"Feature","geometry":{"type":"Point","coordinates":[-76.3894,37.0328]},"properties":{"name":"BLUE BIRD GAP PARK OFF PINE CHAPEL ROAD","styleUrl":"#towerStyle","styleHash":"1d01e409","county":"Hampton city","lat":37.0328,"lng":-76.3894,"structure_type":null,"structure_name":null,"structure_address":"BLUE BIRD GAP PARK OFF PINE CHAPEL ROAD","height":73.2,"base_elevation":1.474468,"structure_owner_name":"CITY OF HAMPTON","structure_manager_name":null,"data_source":"FCC: Antenna Structure Registration (GIS)"}},{"type":"Feature","geometry":{"type":"Point","coordinates":[-76.3308,37.0728]},"properties":{"name":"941 Little Back River Road","styleUrl":"#towerStyle","styleHash":"1d01e409","county":"Hampton city","lat":37.0728,"lng":-76.3308,"structure_type":null,"structure_name":null,"structure_address":"941 Little Back River Road","height":44.2,"base_elevation":1.387012,"structure_owner_name":"Alltel Communications, LLC","structure_manager_name":null,"data_source":"FCC: Antenna Structure Registration (GIS)"}},{"type":"Feature","geometry":{"type":"Point","coordinates":[-76.3621,37.0361]},"properties":{"name":"1330 THOMAS STREET","styleUrl":"#towerStyle","styleHash":"1d01e409","county":"Hampton city","lat":37.0361,"lng":-76.3621,"structure_type":null,"structure_name":null,"structure_address":"1330 THOMAS STREET","height":39.6,"base_elevation":1.397509,"structure_owner_name":"CROWN CASTLE GT COMPANY LLC","structure_manager_name":null,"data_source":"FCC: Antenna Structure Registration (GIS)"}},{"type":"Feature","geometry":{"type":"Point","coordinates":[-76.3551,37.0484]},"properties":{"name":"57 Salina Street","styleUrl":"#towerStyle","styleHash":"1d01e409","county":"Hampton city","lat":37.0484,"lng":-76.3551,"structure_type":null,"structure_name":null,"structure_address":"57 Salina Street","height":38.1,"base_elevation":2.747236,"structure_owner_name":"New Cingular Wireless PCS, LLC","structure_manager_name":null,"data_source":"FCC: Antenna Structure Registration (GIS)"}},{"type":"Feature","geometry":{"type":"Point","coordinates":[-76.4341,37.0232]},"properties":{"name":"4911 MERCURY BLVD","styleUrl":"#towerStyle","styleHash":"1d01e409","county":"Hampton city","lat":37.0232,"lng":-76.4341,"structure_type":null,"structure_name":null,"structure_address":"4911 MERCURY BLVD","height":91.4,"base_elevation":4.393319,"structure_owner_name":"VIRGINIA, COMMONWEALTH OF","structure_manager_name":null,"data_source":"FCC: Antenna Structure Registration (GIS)"}},{"type":"Feature","geometry":{"type":"Point","coordinates":[-76.3881,37.0167]},"properties":{"name":"SALTERS CREEK ROAD & INTERSTATE 64 CONNECTION RD","styleUrl":"#towerStyle","styleHash":"1d01e409","county":"Hampton city","lat":37.0167,"lng":-76.3881,"structure_type":null,"structure_name":null,"structure_address":"SALTERS CREEK ROAD & INTERSTATE 64 CONNECTION RD","height":76.2,"base_elevation":5.496714,"structure_owner_name":"COX COMMUNICATIONS, INC.","structure_manager_name":null,"data_source":"FCC: Antenna Structure Registration (GIS)"}},{"type":"Feature","geometry":{"type":"Point","coordinates":[-76.4483,37.0458]},"properties":{"name":"TWR 1 17 MARY ANN DR","styleUrl":"#towerStyle","styleHash":"1d01e409","county":"Hampton city","lat":37.0458,"lng":-76.4483,"structure_type":null,"structure_name":null,"structure_address":"TWR 1 17 MARY ANN DR","height":57,"base_elevation":4.890774,"structure_owner_name":"MHR Licence LLC","structure_manager_name":null,"data_source":"FCC: Antenna Structure Registration (GIS)"}},{"type":"Feature","geometry":{"type":"Point","coordinates":[-76.4481,37.0456]},"properties":{"name":"TWR 2 17 MARY ANN DR","styleUrl":"#towerStyle","styleHash":"1d01e409","county":"Hampton city","lat":37.0456,"lng":-76.4481,"structure_type":null,"structure_name":null,"structure_address":"TWR 2 17 MARY ANN DR","height":57,"base_elevation":4.99941,"structure_owner_name":"MHR Licence LLC","structure_manager_name":null,"data_source":"FCC: Antenna Structure Registration (GIS)"}},{"type":"Feature","geometry":{"type":"Point","coordinates":[-76.4478,37.0453]},"properties":{"name":"TWR 3 17 MARY ANN DRIVE","styleUrl":"#towerStyle","styleHash":"1d01e409","county":"Hampton city","lat":37.0453,"lng":-76.4478,"structure_type":null,"structure_name":null,"structure_address":"TWR 3 17 MARY ANN DRIVE","height":57,"base_elevation":5.186774,"structure_owner_name":"MHR Licence LLC","structure_manager_name":null,"data_source":"FCC: Antenna Structure Registration (GIS)"}},{"type":"Feature","geometry":{"type":"Point","coordinates":[-76.366699,37.0313]},"properties":{"name":"533 Michigan Ave.","styleUrl":"#towerStyle","styleHash":"1d01e409","county":"Hampton city","lat":37.0313,"lng":-76.366699,"structure_type":null,"structure_name":null,"structure_address":"533 Michigan Ave.","height":59.9,"base_elevation":1.217,"structure_owner_name":"Roanoke-Vinton Radio, Inc.","structure_manager_name":null,"data_source":"FCC: Antenna Structure Registration (GIS)"}},{"type":"Feature","geometry":{"type":"Point","coordinates":[-76.4461,37.0783]},"properties":{"name":"1008 N PARK LN","styleUrl":"#towerStyle","styleHash":"1d01e409","county":"Hampton city","lat":37.0783,"lng":-76.4461,"structure_type":null,"structure_name":null,"structure_address":"1008 N PARK LN","height":121.9,"base_elevation":7.340991,"structure_owner_name":"AREAWIDE COMMUNICATIONS INC","structure_manager_name":null,"data_source":"FCC: Antenna Structure Registration (GIS)"}},{"type":"Feature","geometry":{"type":"Point","coordinates":[-76.3998,37.0117]},"properties":{"name":"501 INDUSTRY DR","styleUrl":"#towerStyle","styleHash":"1d01e409","county":"Hampton city","lat":37.0117,"lng":-76.3998,"structure_type":null,"structure_name":null,"structure_address":"501 INDUSTRY DR","height":98.5,"base_elevation":3.129988,"structure_owner_name":"Tower Assets Newco VIII, LLC","structure_manager_name":null,"data_source":"FCC: Antenna Structure Registration (GIS)"}},{"type":"Feature","geometry":{"type":"Point","coordinates":[-76.2973,37.0683]},"properties":{"name":"Hall Rd","styleUrl":"#towerStyle","styleHash":"1d01e409","county":"Hampton city","lat":37.0683,"lng":-76.2973,"structure_type":null,"structure_name":null,"structure_address":"Hall Rd","height":58,"base_elevation":2.449196,"structure_owner_name":"Richmond 20MHz, LLC","structure_manager_name":null,"data_source":"FCC: Antenna Structure Registration (GIS)"}},{"type":"Feature","geometry":{"type":"Point","coordinates":[-76.396399,37.1016]},"properties":{"name":"6 SHUTTLE CIRCLE","styleUrl":"#towerStyle","styleHash":"1d01e409","county":"Hampton city","lat":37.1016,"lng":-76.396399,"structure_type":null,"structure_name":null,"structure_address":"6 SHUTTLE CIRCLE","height":48.8,"base_elevation":2.954668,"structure_owner_name":"Alltel Communications, LLC","structure_manager_name":null,"data_source":"FCC: Antenna Structure Registration (GIS)"}},{"type":"Feature","geometry":{"type":"Point","coordinates":[-76.3664,37.0311]},"properties":{"name":"TWR 3 - 533 MICHIGAN AVENUE","styleUrl":"#towerStyle","styleHash":"1d01e409","county":"Hampton city","lat":37.0311,"lng":-76.3664,"structure_type":null,"structure_name":null,"structure_address":"TWR 3 - 533 MICHIGAN AVENUE","height":59.9,"base_elevation":1.21701,"structure_owner_name":"ROANOKE-VINTON RADIO, INC.","structure_manager_name":null,"data_source":"FCC: Antenna Structure Registration (GIS)"}},{"type":"Feature","geometry":{"type":"Point","coordinates":[-76.3664,37.0314]},"properties":{"name":"TWR 2 - 533 MICHIGAN AVENUE","styleUrl":"#towerStyle","styleHash":"1d01e409","county":"Hampton city","lat":37.0314,"lng":-76.3664,"structure_type":null,"structure_name":null,"structure_address":"TWR 2 - 533 MICHIGAN AVENUE","height":131.7,"base_elevation":1.216827,"structure_owner_name":"ROANOKE-VINTON RADIO, INC.","structure_manager_name":null,"data_source":"FCC: Antenna Structure Registration (GIS)"}},{"type":"Feature","geometry":{"type":"Point","coordinates":[-76.366699,37.0319]},"properties":{"name":"TWR 1 - 533 MICHIGAN AVE.","styleUrl":"#towerStyle","styleHash":"1d01e409","county":"Hampton city","lat":37.0319,"lng":-76.366699,"structure_type":null,"structure_name":null,"structure_address":"TWR 1 - 533 MICHIGAN AVE.","height":59.9,"base_elevation":1.322086,"structure_owner_name":"ROANOKE-VINTON RADIO, INC.","structure_manager_name":null,"data_source":"FCC: Antenna Structure Registration (GIS)"}},{"type":"Feature","geometry":{"type":"Point","coordinates":[-76.4365,37.0534]},"properties":{"name":"1067 Big Bethel Road","styleUrl":"#towerStyle","styleHash":"1d01e409","county":"Hampton city","lat":37.0534,"lng":-76.4365,"structure_type":null,"structure_name":null,"structure_address":"1067 Big Bethel Road","height":44.8,"base_elevation":7.304514,"structure_owner_name":"Richmond 20MHz, LLC","structure_manager_name":null,"data_source":"FCC: Antenna Structure Registration (GIS)"}},{"type":"Feature","geometry":{"type":"Point","coordinates":[-76.4261,37.0853]},"properties":{"name":"MAGRUDER BOULEVARD","styleUrl":"#towerStyle","styleHash":"1d01e409","county":"Hampton city","lat":37.0853,"lng":-76.4261,"structure_type":null,"structure_name":null,"structure_address":"MAGRUDER BOULEVARD","height":57.6,"base_elevation":7.520823,"structure_owner_name":"CROWN CASTLE GT COMPANY LLC","structure_manager_name":null,"data_source":"FCC: Antenna Structure Registration (GIS)"}},{"type":"Feature","geometry":{"type":"Point","coordinates":[-76.3367,37.0178]},"properties":{"name":"200 SHORE DR ON HAMPTON UNIVERSITY CAMPUS","styleUrl":"#towerStyle","styleHash":"1d01e409","county":"Hampton city","lat":37.0178,"lng":-76.3367,"structure_type":null,"structure_name":null,"structure_address":"200 SHORE DR ON HAMPTON UNIVERSITY CAMPUS","height":61,"base_elevation":2.132493,"structure_owner_name":"HAMPTON UNIVERSITY  DBA =  WHOV FM","structure_manager_name":null,"data_source":"FCC: Antenna Structure Registration (GIS)"}},{"type":"Feature","geometry":{"type":"Point","coordinates":[-76.424499,37.0712]},"properties":{"name":"1306 BIG BETHEL ROAD","styleUrl":"#towerStyle","styleHash":"1d01e409","county":"Hampton city","lat":37.0712,"lng":-76.424499,"structure_type":null,"structure_name":null,"structure_address":"1306 BIG BETHEL ROAD","height":58.2,"base_elevation":6.093716,"structure_owner_name":"HAMPTON, CITY OF VA","structure_manager_name":null,"data_source":"FCC: Antenna Structure Registration (GIS)"}},{"type":"Feature","geometry":{"type":"Point","coordinates":[-76.408599,37.0611]},"properties":{"name":"100 THOMAS NELSON","styleUrl":"#towerStyle","styleHash":"1d01e409","county":"Hampton city","lat":37.0611,"lng":-76.408599,"structure_type":null,"structure_name":null,"structure_address":"100 THOMAS NELSON","height":38.1,"base_elevation":4.335393,"structure_owner_name":"Alltel Communications, LLC","structure_manager_name":null,"data_source":"FCC: Antenna Structure Registration (GIS)"}},{"type":"Feature","geometry":{"type":"Point","coordinates":[-76.3881,37.0147]},"properties":{"name":"I-664 EXIT 2A","styleUrl":"#towerStyle","styleHash":"1d01e409","county":"Hampton city","lat":37.0147,"lng":-76.3881,"structure_type":null,"structure_name":null,"structure_address":"I-664 EXIT 2A","height":48.1,"base_elevation":5.280261,"structure_owner_name":"Virginia, Commonwealth of, Dept of Trans","structure_manager_name":null,"data_source":"FCC: Antenna Structure Registration (GIS)"}},{"type":"Feature","geometry":{"type":"Point","coordinates":[-76.3972,37.0406]},"properties":{"name":"I-64 EXIT 263A","styleUrl":"#towerStyle","styleHash":"1d01e409","county":"Hampton city","lat":37.0406,"lng":-76.3972,"structure_type":null,"structure_name":null,"structure_address":"I-64 EXIT 263A","height":48.1,"base_elevation":4.634884,"structure_owner_name":"Virginia, Commonwealth of, Dept of Trans","structure_manager_name":null,"data_source":"FCC: Antenna Structure Registration (GIS)"}},{"type":"Feature","geometry":{"type":"Point","coordinates":[-76.3218,37.0231]},"properties":{"name":"546 E MERCURY BLVD","styleUrl":"#towerStyle","styleHash":"1d01e409","county":"Hampton city","lat":37.0231,"lng":-76.3218,"structure_type":null,"structure_name":null,"structure_address":"546 E MERCURY BLVD","height":38.1,"base_elevation":2.747,"structure_owner_name":"CROWN CASTLE GT COMPANY LLC","structure_manager_name":null,"data_source":"FCC: Antenna Structure Registration (GIS)"}},{"type":"Feature","geometry":{"type":"Point","coordinates":[-76.3802,37.0827]},"properties":{"name":"3105 NASA Drive (094370)","styleUrl":"#towerStyle","styleHash":"1d01e409","county":"Hampton city","lat":37.0827,"lng":-76.3802,"structure_type":null,"structure_name":null,"structure_address":"3105 NASA Drive (094370)","height":37.1,"base_elevation":2.769511,"structure_owner_name":"American Towers, LLC.","structure_manager_name":null,"data_source":"FCC: Antenna Structure Registration (GIS)"}},{"type":"Feature","geometry":{"type":"Point","coordinates":[-76.315799,37.0561]},"properties":{"name":"522 WOODLAND ROAD  ( 085562 )","styleUrl":"#towerStyle","styleHash":"1d01e409","county":"Hampton city","lat":37.0561,"lng":-76.315799,"structure_type":null,"structure_name":null,"structure_address":"522 WOODLAND ROAD  ( 085562 )","height":44.5,"base_elevation":2.660694,"structure_owner_name":"American Towers, LLC.","structure_manager_name":null,"data_source":"FCC: Antenna Structure Registration (GIS)"}},{"type":"Feature","geometry":{"type":"Point","coordinates":[-76.307599,37.0384]},"properties":{"name":"1932 E PEMBROKE BLVD (006500)","styleUrl":"#towerStyle","styleHash":"1d01e409","county":"Hampton city","lat":37.0384,"lng":-76.307599,"structure_type":null,"structure_name":null,"structure_address":"1932 E PEMBROKE BLVD (006500)","height":153.6,"base_elevation":2.746999,"structure_owner_name":"American Towers, LLC.","structure_manager_name":null,"data_source":"FCC: Antenna Structure Registration (GIS)"}},{"type":"Feature","geometry":{"type":"Point","coordinates":[-76.3172,37.037]},"properties":{"name":"1513 EAST PEMBROKE AVENUE","styleUrl":"#towerStyle","styleHash":"1d01e409","county":"Hampton city","lat":37.037,"lng":-76.3172,"structure_type":null,"structure_name":null,"structure_address":"1513 EAST PEMBROKE AVENUE","height":34.1,"base_elevation":3.512926,"structure_owner_name":"AT&T CORP.","structure_manager_name":null,"data_source":"FCC: Antenna Structure Registration (GIS)"}},{"type":"Feature","geometry":{"type":"Point","coordinates":[-76.4458,37.0781]},"properties":{"name":"1000 WEST PARK LANE","styleUrl":"#towerStyle","styleHash":"1d01e409","county":"Hampton city","lat":37.0781,"lng":-76.4458,"structure_type":null,"structure_name":null,"structure_address":"1000 WEST PARK LANE","height":121.9,"base_elevation":7.35072,"structure_owner_name":"Areawide Communications Inc.","structure_manager_name":null,"data_source":"FCC: Antenna Structure Registration (GIS)"}},{"type":"Feature","geometry":{"type":"Point","coordinates":[-76.3971,37.0467]},"properties":{"name":"2101 Executive Drive","styleUrl":"#towerStyle","styleHash":"1d01e409","county":"Hampton city","lat":37.0467,"lng":-76.3971,"structure_type":null,"structure_name":null,"structure_address":"2101 Executive Drive","height":59.1,"base_elevation":4.242782,"structure_owner_name":"Verizon Wireless Personal Communications LP","structure_manager_name":null,"data_source":"FCC: Antenna Structure Registration (GIS)"}},{"type":"Feature","geometry":{"type":"Point","coordinates":[-76.383899,37.0156]},"properties":{"name":"1700 WEST PEMBROKE AVE.","styleUrl":"#towerStyle","styleHash":"1d01e409","county":"Hampton city","lat":37.0156,"lng":-76.383899,"structure_type":null,"structure_name":null,"structure_address":"1700 WEST PEMBROKE AVE.","height":100.5,"base_elevation":4.59896,"structure_owner_name":"Cellco Partnership","structure_manager_name":null,"data_source":"FCC: Antenna Structure Registration (GIS)"}},{"type":"Feature","geometry":{"type":"Point","coordinates":[-76.3317,37.0683]},"properties":{"name":"17 ROCKWELL ROAD","styleUrl":"#towerStyle","styleHash":"1d01e409","county":"Hampton city","lat":37.0683,"lng":-76.3317,"structure_type":null,"structure_name":null,"structure_address":"17 ROCKWELL ROAD","height":35.9,"base_elevation":2.007426,"structure_owner_name":"STC Two LLC","structure_manager_name":null,"data_source":"FCC: Antenna Structure Registration (GIS)"}},{"type":"Feature","geometry":{"type":"Point","coordinates":[-76.3802,37.0824]},"properties":{"name":"310 S NASA DR","styleUrl":"#towerStyle","styleHash":"1d01e409","county":"Hampton city","lat":37.0824,"lng":-76.3802,"structure_type":null,"structure_name":null,"structure_address":"310 S NASA DR","height":45.7,"base_elevation":2.781036,"structure_owner_name":"STC Two LLC","structure_manager_name":null,"data_source":"FCC: Antenna Structure Registration (GIS)"}},{"type":"Feature","geometry":{"type":"Point","coordinates":[-76.4266,37.0854]},"properties":{"name":"1435 Big Bethel Rd","styleUrl":"#towerStyle","styleHash":"1d01e409","county":"Hampton city","lat":37.0854,"lng":-76.4266,"structure_type":null,"structure_name":null,"structure_address":"1435 Big Bethel Rd","height":97.5,"base_elevation":7.401251,"structure_owner_name":"Atlantic Communications Inc.","structure_manager_name":null,"data_source":"FCC: Antenna Structure Registration (GIS)"}},{"type":"Feature","geometry":{"type":"Point","coordinates":[-76.3499,37.0254]},"properties":{"name":"12 S. Armitead Ave.","styleUrl":"#towerStyle","styleHash":"1d01e409","county":"Hampton city","lat":37.0254,"lng":-76.3499,"structure_type":null,"structure_name":null,"structure_address":"12 S. Armitead Ave.","height":38,"base_elevation":2.371927,"structure_owner_name":"Tidewater Realty & Security Corp.","structure_manager_name":null,"data_source":"FCC: Antenna Structure Registration (GIS)"}},{"type":"Feature","geometry":{"type":"Point","coordinates":[-76.292,37.0747]},"properties":{"name":"TWR 4  ON HALL RD","styleUrl":"#towerStyle","styleHash":"1d01e409","county":"Hampton city","lat":37.0747,"lng":-76.292,"structure_type":null,"structure_name":null,"structure_address":"TWR 4  ON HALL RD","height":152.5,"base_elevation":2.426872,"structure_owner_name":"COMMONWEALTH RADIO, L.L.C.","structure_manager_name":null,"data_source":"FCC: Antenna Structure Registration (GIS)"}},{"type":"Feature","geometry":{"type":"Point","coordinates":[-76.291699,37.0742]},"properties":{"name":"TWR 3  ON HALL RD","styleUrl":"#towerStyle","styleHash":"1d01e409","county":"Hampton city","lat":37.0742,"lng":-76.291699,"structure_type":null,"structure_name":null,"structure_address":"TWR 3  ON HALL RD","height":151.9,"base_elevation":2.098042,"structure_owner_name":"COMMONWEALTH RADIO, L.L.C.","structure_manager_name":null,"data_source":"FCC: Antenna Structure Registration (GIS)"}},{"type":"Feature","geometry":{"type":"Point","coordinates":[-76.292199,37.0736]},"properties":{"name":"TWR 2  ON HALL RD","styleUrl":"#towerStyle","styleHash":"1d01e409","county":"Hampton city","lat":37.0736,"lng":-76.292199,"structure_type":null,"structure_name":null,"structure_address":"TWR 2  ON HALL RD","height":152.3,"base_elevation":2.129938,"structure_owner_name":"COMMONWEALTH RADIO, L.L.C.","structure_manager_name":null,"data_source":"FCC: Antenna Structure Registration (GIS)"}},{"type":"Feature","geometry":{"type":"Point","coordinates":[-76.292199,37.0728]},"properties":{"name":"TWR  1  ON HALL RD","styleUrl":"#towerStyle","styleHash":"1d01e409","county":"Hampton city","lat":37.0728,"lng":-76.292199,"structure_type":null,"structure_name":null,"structure_address":"TWR  1  ON HALL RD","height":152.5,"base_elevation":2.044383,"structure_owner_name":"COMMONWEALTH RADIO, L.L.C.","structure_manager_name":null,"data_source":"FCC: Antenna Structure Registration (GIS)"}},{"type":"Feature","geometry":{"type":"Point","coordinates":[-76.4067,37.0564]},"properties":{"name":"Vertical Asset","styleUrl":"#towerStyle","styleHash":"1d01e409","county":"Hampton city","lat":37.0564,"lng":-76.4067,"structure_type":null,"structure_name":null,"structure_address":null,"height":0,"base_elevation":4.146629,"structure_owner_name":"Riverside Hampton Surgery Center","structure_manager_name":null,"data_source":"FCC: Land Mobile - Private (GIS)"}},{"type":"Feature","geometry":{"type":"Point","coordinates":[-76.365,37.0353]},"properties":{"name":"1413 Armistead Avenue","styleUrl":"#towerStyle","styleHash":"1d01e409","county":"Hampton city","lat":37.0353,"lng":-76.365,"structure_type":null,"structure_name":null,"structure_address":"1413 Armistead Avenue","height":0,"base_elevation":1.181947,"structure_owner_name":"HOME DEPOT U.S.A., INC.","structure_manager_name":null,"data_source":"FCC: Land Mobile - Private (GIS)"}},{"type":"Feature","geometry":{"type":"Point","coordinates":[-76.3897,37.0447]},"properties":{"name":"2071 COLISEUM DRIVE","styleUrl":"#towerStyle","styleHash":"1d01e409","county":"Hampton city","lat":37.0447,"lng":-76.3897,"structure_type":null,"structure_name":null,"structure_address":"2071 COLISEUM DRIVE","height":0,"base_elevation":3.946325,"structure_owner_name":"JCPENNEY CORP INC","structure_manager_name":null,"data_source":"FCC: Land Mobile - Private (GIS)"}},{"type":"Feature","geometry":{"type":"Point","coordinates":[-76.4339,37.0231]},"properties":{"name":"4911 MERCURY BLVD","styleUrl":"#towerStyle","styleHash":"1d01e409","county":"Hampton city","lat":37.0231,"lng":-76.4339,"structure_type":"TOWER","structure_name":null,"structure_address":"4911 MERCURY BLVD","height":96,"base_elevation":4.379162,"structure_owner_name":"VIRGINIA DEPARTMENT OF FORESTRY","structure_manager_name":null,"data_source":"FCC: Land Mobile - Private (GIS)"}},{"type":"Feature","geometry":{"type":"Point","coordinates":[-76.3886,37.0453]},"properties":{"name":"Vertical Asset","styleUrl":"#towerStyle","styleHash":"1d01e409","county":"Hampton city","lat":37.0453,"lng":-76.3886,"structure_type":null,"structure_name":null,"structure_address":null,"height":0,"base_elevation":3.703167,"structure_owner_name":"JC Penney Corp Inc","structure_manager_name":null,"data_source":"FCC: Land Mobile - Private (GIS)"}},{"type":"Feature","geometry":{"type":"Point","coordinates":[-76.369199,37.0372]},"properties":{"name":"Vertical Asset","styleUrl":"#towerStyle","styleHash":"1d01e409","county":"Hampton city","lat":37.0372,"lng":-76.369199,"structure_type":null,"structure_name":null,"structure_address":null,"height":0,"base_elevation":1.186135,"structure_owner_name":"Speedread  Technologies","structure_manager_name":null,"data_source":"FCC: Land Mobile - Private (GIS)"}},{"type":"Feature","geometry":{"type":"Point","coordinates":[-76.386899,37.0372]},"properties":{"name":"Vertical Asset","styleUrl":"#towerStyle","styleHash":"1d01e409","county":"Hampton city","lat":37.0372,"lng":-76.386899,"structure_type":null,"structure_name":null,"structure_address":null,"height":0,"base_elevation":3.215934,"structure_owner_name":"EMBASSY SUITES","structure_manager_name":null,"data_source":"FCC: Land Mobile - Private (GIS)"}},{"type":"Feature","geometry":{"type":"Point","coordinates":[-76.3831,37.0875]},"properties":{"name":"Vertical Asset","styleUrl":"#towerStyle","styleHash":"1d01e409","county":"Hampton city","lat":37.0875,"lng":-76.3831,"structure_type":null,"structure_name":null,"structure_address":null,"height":0,"base_elevation":3.321251,"structure_owner_name":"WOLFTRAP MOTORSPORTS INC","structure_manager_name":null,"data_source":"FCC: Land Mobile - Private (GIS)"}},{"type":"Feature","geometry":{"type":"Point","coordinates":[-76.4264,37.0853]},"properties":{"name":"Vertical Asset","styleUrl":"#towerStyle","styleHash":"1d01e409","county":"Hampton city","lat":37.0853,"lng":-76.4264,"structure_type":null,"structure_name":null,"structure_address":null,"height":0,"base_elevation":7.509166,"structure_owner_name":"TRANSPORTATION DISTRICT COMMISSION OF HAMPTON ROADS","structure_manager_name":null,"data_source":"FCC: Land Mobile - Private (GIS)"}},{"type":"Feature","geometry":{"type":"Point","coordinates":[-76.4461,37.0783]},"properties":{"name":"1008 N PARK LN","styleUrl":"#towerStyle","styleHash":"1d01e409","county":"Hampton city","lat":37.0783,"lng":-76.4461,"structure_type":"TOWER","structure_name":null,"structure_address":"1008 N PARK LN","height":121.9,"base_elevation":7.340991,"structure_owner_name":"TRANSPORTATION DISTRICT COMMISSION OF HAMPTON ROADS","structure_manager_name":null,"data_source":"FCC: Land Mobile - Private (GIS)"}},{"type":"Feature","geometry":{"type":"Point","coordinates":[-76.4264,37.0853]},"properties":{"name":"Vertical Asset","styleUrl":"#towerStyle","styleHash":"1d01e409","county":"Hampton city","lat":37.0853,"lng":-76.4264,"structure_type":null,"structure_name":null,"structure_address":null,"height":0,"base_elevation":7.509166,"structure_owner_name":"Transportation District Communications of Hampton Roads","structure_manager_name":null,"data_source":"FCC: Land Mobile - Private (GIS)"}},{"type":"Feature","geometry":{"type":"Point","coordinates":[-76.4461,37.0783]},"properties":{"name":"1008 N PARK LN","styleUrl":"#towerStyle","styleHash":"1d01e409","county":"Hampton city","lat":37.0783,"lng":-76.4461,"structure_type":"TOWER","structure_name":null,"structure_address":"1008 N PARK LN","height":121.9,"base_elevation":7.340991,"structure_owner_name":"Transportation District Communications of Hampton Roads","structure_manager_name":null,"data_source":"FCC: Land Mobile - Private (GIS)"}},{"type":"Feature","geometry":{"type":"Point","coordinates":[-76.3472,37.0261]},"properties":{"name":"Vertical Asset","styleUrl":"#towerStyle","styleHash":"1d01e409","county":"Hampton city","lat":37.0261,"lng":-76.3472,"structure_type":null,"structure_name":null,"structure_address":null,"height":0,"base_elevation":2.891368,"structure_owner_name":"HAMPTON CITY SCHOOLS DIVISION","structure_manager_name":null,"data_source":"FCC: Land Mobile - Private (GIS)"}},{"type":"Feature","geometry":{"type":"Point","coordinates":[-76.345,37.0275]},"properties":{"name":"Vertical Asset","styleUrl":"#towerStyle","styleHash":"1d01e409","county":"Hampton city","lat":37.0275,"lng":-76.345,"structure_type":null,"structure_name":null,"structure_address":null,"height":0,"base_elevation":2.537413,"structure_owner_name":"HAMPTON, CITY OF","structure_manager_name":null,"data_source":"FCC: Land Mobile - Private (GIS)"}},{"type":"Feature","geometry":{"type":"Point","coordinates":[-76.41,37.0611]},"properties":{"name":"Vertical Asset","styleUrl":"#towerStyle","styleHash":"1d01e409","county":"Hampton city","lat":37.0611,"lng":-76.41,"structure_type":null,"structure_name":null,"structure_address":null,"height":0,"base_elevation":4.34542,"structure_owner_name":"New Horizons Regional Education Center","structure_manager_name":null,"data_source":"FCC: Land Mobile - Private (GIS)"}},{"type":"Feature","geometry":{"type":"Point","coordinates":[-76.3967,37.0408]},"properties":{"name":"Vertical Asset","styleUrl":"#towerStyle","styleHash":"1d01e409","county":"Hampton city","lat":37.0408,"lng":-76.3967,"structure_type":null,"structure_name":null,"structure_address":null,"height":0,"base_elevation":4.062849,"structure_owner_name":"BETHEL TEMPLE ASSEMBLY OF GOD","structure_manager_name":null,"data_source":"FCC: Land Mobile - Private (GIS)"}},{"type":"Feature","geometry":{"type":"Point","coordinates":[-76.3828,37.0361]},"properties":{"name":"Vertical Asset","styleUrl":"#towerStyle","styleHash":"1d01e409","county":"Hampton city","lat":37.0361,"lng":-76.3828,"structure_type":null,"structure_name":null,"structure_address":null,"height":0,"base_elevation":2.868896,"structure_owner_name":"MANHERZ, DANIEL","structure_manager_name":null,"data_source":"FCC: Land Mobile - Private (GIS)"}},{"type":"Feature","geometry":{"type":"Point","coordinates":[-76.4247,37.0853]},"properties":{"name":"1451 BIG BETHEL RD","styleUrl":"#towerStyle","styleHash":"1d01e409","county":"Hampton city","lat":37.0853,"lng":-76.4247,"structure_type":"MAST","structure_name":null,"structure_address":"1451 BIG BETHEL RD","height":6,"base_elevation":7.37022,"structure_owner_name":"HAMPTON ROADS SANITATION DISTRICT","structure_manager_name":null,"data_source":"FCC: Land Mobile - Private (GIS)"}},{"type":"Feature","geometry":{"type":"Point","coordinates":[-76.3,37.06]},"properties":{"name":"5 BEACH RD","styleUrl":"#towerStyle","styleHash":"1d01e409","county":"Hampton city","lat":37.06,"lng":-76.3,"structure_type":"MAST","structure_name":null,"structure_address":"5 BEACH RD","height":6,"base_elevation":1.353611,"structure_owner_name":"HAMPTON ROADS SANITATION DISTRICT","structure_manager_name":null,"data_source":"FCC: Land Mobile - Private (GIS)"}},{"type":"Feature","geometry":{"type":"Point","coordinates":[-76.294199,37.0358]},"properties":{"name":"720 BAYSHORE LN","styleUrl":"#towerStyle","styleHash":"1d01e409","county":"Hampton city","lat":37.0358,"lng":-76.294199,"structure_type":"MAST","structure_name":null,"structure_address":"720 BAYSHORE LN","height":6,"base_elevation":1.764605,"structure_owner_name":"HAMPTON ROADS SANITATION DISTRICT","structure_manager_name":null,"data_source":"FCC: Land Mobile - Private (GIS)"}},{"type":"Feature","geometry":{"type":"Point","coordinates":[-76.3944,37.0458]},"properties":{"name":"Vertical Asset","styleUrl":"#towerStyle","styleHash":"1d01e409","county":"Hampton city","lat":37.0458,"lng":-76.3944,"structure_type":null,"structure_name":null,"structure_address":null,"height":0,"base_elevation":4.308494,"structure_owner_name":"Bass Pro Outdoor World","structure_manager_name":null,"data_source":"FCC: Land Mobile - Private (GIS)"}},{"type":"Feature","geometry":{"type":"Point","coordinates":[-76.398599,37.039199]},"properties":{"name":"Vertical Asset","styleUrl":"#towerStyle","styleHash":"1d01e409","county":"Hampton city","lat":37.039199,"lng":-76.398599,"structure_type":null,"structure_name":null,"structure_address":null,"height":0,"base_elevation":4.299218,"structure_owner_name":"Coliseum Mall","structure_manager_name":null,"data_source":"FCC: Land Mobile - Private (GIS)"}},{"type":"Feature","geometry":{"type":"Point","coordinates":[-76.3433,37.0281]},"properties":{"name":"22 LINCOLN STREET","styleUrl":"#towerStyle","styleHash":"1d01e409","county":"Hampton city","lat":37.0281,"lng":-76.3433,"structure_type":"BMAST","structure_name":null,"structure_address":"22 LINCOLN STREET","height":50,"base_elevation":1.704213,"structure_owner_name":"HAMPTON, TOWN OF","structure_manager_name":null,"data_source":"FCC: Land Mobile - Private (GIS)"}},{"type":"Feature","geometry":{"type":"Point","coordinates":[-76.3428,37.0283]},"properties":{"name":"22 LINCOLN STREET","styleUrl":"#towerStyle","styleHash":"1d01e409","county":"Hampton city","lat":37.0283,"lng":-76.3428,"structure_type":"BMAST","structure_name":null,"structure_address":"22 LINCOLN STREET","height":53,"base_elevation":1.48095,"structure_owner_name":"HAMPTON, CITY OF","structure_manager_name":null,"data_source":"FCC: Land Mobile - Private (GIS)"}},{"type":"Feature","geometry":{"type":"Point","coordinates":[-76.3439,37.0242]},"properties":{"name":"700 SETTLERS LANDING ROAD","styleUrl":"#towerStyle","styleHash":"1d01e409","county":"Hampton city","lat":37.0242,"lng":-76.3439,"structure_type":"B","structure_name":null,"structure_address":"700 SETTLERS LANDING ROAD","height":18.3,"base_elevation":1.605598,"structure_owner_name":"RADISSON HOTEL OF HAMPTON","structure_manager_name":null,"data_source":"FCC: Land Mobile - Private (GIS)"}},{"type":"Feature","geometry":{"type":"Point","coordinates":[-76.3447,37.0239]},"properties":{"name":"Vertical Asset","styleUrl":"#towerStyle","styleHash":"1d01e409","county":"Hampton city","lat":37.0239,"lng":-76.3447,"structure_type":null,"structure_name":null,"structure_address":null,"height":0,"base_elevation":1.675053,"structure_owner_name":"VIRGINIA AIR & SPACE CENTER","structure_manager_name":null,"data_source":"FCC: Land Mobile - Private (GIS)"}},{"type":"Feature","geometry":{"type":"Point","coordinates":[-76.4128,37.0636]},"properties":{"name":"520 BUTLER FARM ROAD","styleUrl":"#towerStyle","styleHash":"1d01e409","county":"Hampton city","lat":37.0636,"lng":-76.4128,"structure_type":"TOWER","structure_name":null,"structure_address":"520 BUTLER FARM ROAD","height":30.5,"base_elevation":4.500253,"structure_owner_name":"NEW HORIZONS REGIONAL EDUCATION CENTER","structure_manager_name":null,"data_source":"FCC: Land Mobile - Private (GIS)"}},{"type":"Feature","geometry":{"type":"Point","coordinates":[-76.315,37.0372]},"properties":{"name":"Vertical Asset","styleUrl":"#towerStyle","styleHash":"1d01e409","county":"Hampton city","lat":37.0372,"lng":-76.315,"structure_type":null,"structure_name":null,"structure_address":null,"height":0,"base_elevation":3.011199,"structure_owner_name":"SANDY OLSON, INC","structure_manager_name":null,"data_source":"FCC: Land Mobile - Private (GIS)"}},{"type":"Feature","geometry":{"type":"Point","coordinates":[-76.4178,37.0328]},"properties":{"name":"3200 W MERCURY BLVD","styleUrl":"#towerStyle","styleHash":"1d01e409","county":"Hampton city","lat":37.0328,"lng":-76.4178,"structure_type":null,"structure_name":null,"structure_address":"3200 W MERCURY BLVD","height":0,"base_elevation":4.312691,"structure_owner_name":"PENJAY","structure_manager_name":null,"data_source":"FCC: Land Mobile - Private (GIS)"}},{"type":"Feature","geometry":{"type":"Point","coordinates":[-76.3314,37.0153]},"properties":{"name":"100 AVERILL DRIVE","styleUrl":"#towerStyle","styleHash":"1d01e409","county":"Hampton city","lat":37.0153,"lng":-76.3314,"structure_type":null,"structure_name":null,"structure_address":"100 AVERILL DRIVE","height":0,"base_elevation":2.868787,"structure_owner_name":"VETERANS ADMINISTRATION MEDICAL CENTER HAMPTON","structure_manager_name":null,"data_source":"FCC: Land Mobile - Private (GIS)"}},{"type":"Feature","geometry":{"type":"Point","coordinates":[-76.3922,37.0572]},"properties":{"name":"3000 COLISEUM DRIVE","styleUrl":"#towerStyle","styleHash":"1d01e409","county":"Hampton city","lat":37.0572,"lng":-76.3922,"structure_type":"BMAST","structure_name":null,"structure_address":"3000 COLISEUM DRIVE","height":22.8,"base_elevation":3.572599,"structure_owner_name":"SENTARA HAMPTON GENERAL HOSPITAL","structure_manager_name":null,"data_source":"FCC: Land Mobile - Private (GIS)"}},{"type":"Feature","geometry":{"type":"Point","coordinates":[-76.4461,37.0783]},"properties":{"name":"1008 N Park Ln","styleUrl":"#towerStyle","styleHash":"1d01e409","county":"Hampton city","lat":37.0783,"lng":-76.4461,"structure_type":"TOWER","structure_name":null,"structure_address":"1008 N Park Ln","height":121.9,"base_elevation":7.340991,"structure_owner_name":"CHECKER CAB CO INC","structure_manager_name":null,"data_source":"FCC: Land Mobile - Private (GIS)"}},{"type":"Feature","geometry":{"type":"Point","coordinates":[-76.4461,37.0783]},"properties":{"name":"1008 N PARK LN","styleUrl":"#towerStyle","styleHash":"1d01e409","county":"Hampton city","lat":37.0783,"lng":-76.4461,"structure_type":"TOWER","structure_name":null,"structure_address":"1008 N PARK LN","height":121.9,"base_elevation":7.340991,"structure_owner_name":"Virginia Electric and Power Company","structure_manager_name":null,"data_source":"FCC: Land Mobile - Private (GIS)"}},{"type":"Feature","geometry":{"type":"Point","coordinates":[-76.418299,37.0636]},"properties":{"name":"99 THOMAS NELSON DR","styleUrl":"#towerStyle","styleHash":"1d01e409","county":"Hampton city","lat":37.0636,"lng":-76.418299,"structure_type":"BPOLE","structure_name":null,"structure_address":"99 THOMAS NELSON DR","height":30,"base_elevation":4.774441,"structure_owner_name":"VIRGINIA, COMMONWEALTH OF","structure_manager_name":null,"data_source":"FCC: Land Mobile - Private (GIS)"}},{"type":"Feature","geometry":{"type":"Point","coordinates":[-76.3997,37.0117]},"properties":{"name":"501 INDUSTRY DR","styleUrl":"#towerStyle","styleHash":"1d01e409","county":"Hampton city","lat":37.0117,"lng":-76.3997,"structure_type":"TOWER","structure_name":null,"structure_address":"501 INDUSTRY DR","height":101.5,"base_elevation":3.179575,"structure_owner_name":"GATELY COMMUNICATIONS INC","structure_manager_name":null,"data_source":"FCC: Land Mobile - Private (GIS)"}},{"type":"Feature","geometry":{"type":"Point","coordinates":[-76.375,37.0303]},"properties":{"name":"MCDONALD RD","styleUrl":"#towerStyle","styleHash":"1d01e409","county":"Hampton city","lat":37.0303,"lng":-76.375,"structure_type":"TOWER","structure_name":null,"structure_address":"MCDONALD RD","height":125,"base_elevation":0.966593,"structure_owner_name":"CRSC HOLDINGS INC","structure_manager_name":null,"data_source":"FCC: Land Mobile - Private (GIS)"}},{"type":"Feature","geometry":{"type":"Point","coordinates":[-76.4197,37.025]},"properties":{"name":"N YD OFC AT CENTER AVE","styleUrl":"#towerStyle","styleHash":"1d01e409","county":"Hampton city","lat":37.025,"lng":-76.4197,"structure_type":null,"structure_name":null,"structure_address":"N YD OFC AT CENTER AVE","height":0,"base_elevation":3.173963,"structure_owner_name":"CSX TRANSPORTATION INC.","structure_manager_name":null,"data_source":"FCC: Land Mobile - Private (GIS)"}},{"type":"Feature","geometry":{"type":"Point","coordinates":[-76.4119,37.0622]},"properties":{"name":"Vertical Asset","styleUrl":"#towerStyle","styleHash":"1d01e409","county":"Hampton city","lat":37.0622,"lng":-76.4119,"structure_type":null,"structure_name":null,"structure_address":null,"height":0,"base_elevation":4.422761,"structure_owner_name":"LUCAS CONTROL SYSTEMS PRODUCTS","structure_manager_name":null,"data_source":"FCC: Land Mobile - Private (GIS)"}},{"type":"Feature","geometry":{"type":"Point","coordinates":[-76.3739,37.0089]},"properties":{"name":"5604 CITY LINE RD","styleUrl":"#towerStyle","styleHash":"1d01e409","county":"Hampton city","lat":37.0089,"lng":-76.3739,"structure_type":null,"structure_name":null,"structure_address":"5604 CITY LINE RD","height":12,"base_elevation":2.934,"structure_owner_name":"COMMONWEALTH WOOD PRESERVERS INC","structure_manager_name":null,"data_source":"FCC: Land Mobile - Private (GIS)"}},{"type":"Feature","geometry":{"type":"Point","coordinates":[-76.3919,37.0106]},"properties":{"name":"VIRGINIA POWER OFC PEMBROKE & G STS","styleUrl":"#towerStyle","styleHash":"1d01e409","county":"Hampton city","lat":37.0106,"lng":-76.3919,"structure_type":"TOWER","structure_name":null,"structure_address":"VIRGINIA POWER OFC PEMBROKE & G STS","height":52,"base_elevation":4.637882,"structure_owner_name":"VIRGINIA ELECTRIC AND POWER COMPANY","structure_manager_name":null,"data_source":"FCC: Land Mobile - Private (GIS)"}},{"type":"Feature","geometry":{"type":"Point","coordinates":[-76.3997,37.0117]},"properties":{"name":"501 INDUSTRY DR","styleUrl":"#towerStyle","styleHash":"1d01e409","county":"Hampton city","lat":37.0117,"lng":-76.3997,"structure_type":"TOWER","structure_name":null,"structure_address":"501 INDUSTRY DR","height":102,"base_elevation":3.179575,"structure_owner_name":"GATELY COMMUNICATION CO","structure_manager_name":null,"data_source":"FCC: Land Mobile - Private (GIS)"}},{"type":"Feature","geometry":{"type":"Point","coordinates":[-76.3878,37.1025]},"properties":{"name":"LANGLEY RESEARCH CTR","styleUrl":"#towerStyle","styleHash":"1d01e409","county":"Hampton city","lat":37.1025,"lng":-76.3878,"structure_type":"B","structure_name":null,"structure_address":"LANGLEY RESEARCH CTR","height":78,"base_elevation":2.759064,"structure_owner_name":"JACOBS TECHNOLOGY INC","structure_manager_name":null,"data_source":"FCC: Land Mobile - Private (GIS)"}},{"type":"Feature","geometry":{"type":"Point","coordinates":[-76.345,37.0297]},"properties":{"name":"Vertical Asset","styleUrl":"#towerStyle","styleHash":"1d01e409","county":"Hampton city","lat":37.0297,"lng":-76.345,"structure_type":null,"structure_name":null,"structure_address":null,"height":0,"base_elevation":2.282883,"structure_owner_name":"Diversified Electronics, Inc.","structure_manager_name":null,"data_source":"FCC: Land Mobile - Private (GIS)"}},{"type":"Feature","geometry":{"type":"Point","coordinates":[-76.3497,37.0253]},"properties":{"name":"12 S. Armitead Ave.","styleUrl":"#towerStyle","styleHash":"1d01e409","county":"Hampton city","lat":37.0253,"lng":-76.3497,"structure_type":"MAST","structure_name":null,"structure_address":"12 S. Armitead Ave.","height":40,"base_elevation":2.29797,"structure_owner_name":"HAMPTON ROADS TRANSPORTATION INC","structure_manager_name":null,"data_source":"FCC: Land Mobile - Private (GIS)"}},{"type":"Feature","geometry":{"type":"Point","coordinates":[-76.4264,37.0853]},"properties":{"name":"1435 BIG BETHEL RD","styleUrl":"#towerStyle","styleHash":"1d01e409","county":"Hampton city","lat":37.0853,"lng":-76.4264,"structure_type":"TOWER","structure_name":null,"structure_address":"1435 BIG BETHEL RD","height":97.5,"base_elevation":7.509166,"structure_owner_name":"HAMPTON ROADS TRANSPORTATION INC","structure_manager_name":null,"data_source":"FCC: Land Mobile - Private (GIS)"}},{"type":"Feature","geometry":{"type":"Point","coordinates":[-76.4461,37.0783]},"properties":{"name":"1008 N PARK LN","styleUrl":"#towerStyle","styleHash":"1d01e409","county":"Hampton city","lat":37.0783,"lng":-76.4461,"structure_type":"TOWER","structure_name":null,"structure_address":"1008 N PARK LN","height":121.9,"base_elevation":7.340991,"structure_owner_name":"SENTARA ENTERPRISES DBA MEDICAL TRANSPORT","structure_manager_name":null,"data_source":"FCC: Land Mobile - Private (GIS)"}},{"type":"Feature","geometry":{"type":"Point","coordinates":[-76.4133,37.0436]},"properties":{"name":"Vertical Asset","styleUrl":"#towerStyle","styleHash":"1d01e409","county":"Hampton city","lat":37.0436,"lng":-76.4133,"structure_type":null,"structure_name":null,"structure_address":null,"height":0,"base_elevation":4.715332,"structure_owner_name":"DIGITAL APPLICATIONS INC DBA DIGITAL SECURITY","structure_manager_name":null,"data_source":"FCC: Land Mobile - Private (GIS)"}},{"type":"Feature","geometry":{"type":"Point","coordinates":[-76.2914,37.0553]},"properties":{"name":"Vertical Asset","styleUrl":"#towerStyle","styleHash":"1d01e409","county":"Hampton city","lat":37.0553,"lng":-76.2914,"structure_type":null,"structure_name":null,"structure_address":null,"height":0,"base_elevation":1.594635,"structure_owner_name":"LAUGENI, CAROLYN J:HUFF, MARK DBA T BONE MOTOR SPORTS LLC","structure_manager_name":null,"data_source":"FCC: Land Mobile - Private (GIS)"}},{"type":"Feature","geometry":{"type":"Point","coordinates":[-76.345,37.0297]},"properties":{"name":"Vertical Asset","styleUrl":"#towerStyle","styleHash":"1d01e409","county":"Hampton city","lat":37.0297,"lng":-76.345,"structure_type":null,"structure_name":null,"structure_address":null,"height":0,"base_elevation":2.282883,"structure_owner_name":"WILLARD JR., BARTH S","structure_manager_name":null,"data_source":"FCC: Land Mobile - Private (GIS)"}},{"type":"Feature","geometry":{"type":"Point","coordinates":[-76.3919,37.0106]},"properties":{"name":"HAMPTON OFC PEMBROKE & G STS","styleUrl":"#towerStyle","styleHash":"1d01e409","county":"Hampton city","lat":37.0106,"lng":-76.3919,"structure_type":"TOWER","structure_name":null,"structure_address":"HAMPTON OFC PEMBROKE & G STS","height":52,"base_elevation":4.637882,"structure_owner_name":"VIRGINIA ELECTRIC AND POWER COMPANY","structure_manager_name":null,"data_source":"FCC: Land Mobile - Private (GIS)"}},{"type":"Feature","geometry":{"type":"Point","coordinates":[-76.3497,37.0253]},"properties":{"name":"Vertical Asset","styleUrl":"#towerStyle","styleHash":"1d01e409","county":"Hampton city","lat":37.0253,"lng":-76.3497,"structure_type":null,"structure_name":null,"structure_address":null,"height":0,"base_elevation":2.29797,"structure_owner_name":"YELLOW CAB OF NEWPORT NEWS INC","structure_manager_name":null,"data_source":"FCC: Land Mobile - Private (GIS)"}},{"type":"Feature","geometry":{"type":"Point","coordinates":[-76.3497,37.0253]},"properties":{"name":"12 S ARMISTEAD","styleUrl":"#towerStyle","styleHash":"1d01e409","county":"Hampton city","lat":37.0253,"lng":-76.3497,"structure_type":"TOWER","structure_name":null,"structure_address":"12 S ARMISTEAD","height":20,"base_elevation":2.29797,"structure_owner_name":"YELLOW CAB OF NEWPORT NEWS INC","structure_manager_name":null,"data_source":"FCC: Land Mobile - Private (GIS)"}},{"type":"Feature","geometry":{"type":"Point","coordinates":[-76.388,37.0167]},"properties":{"name":"BETWEEN SALTERS CREEK RD & I64 CONN RD","styleUrl":"#towerStyle","styleHash":"1d01e409","county":"Hampton city","lat":37.0167,"lng":-76.388,"structure_type":"TOWER","structure_name":null,"structure_address":"BETWEEN SALTERS CREEK RD & I64 CONN RD","height":81.3,"base_elevation":5.496714,"structure_owner_name":"COX COMMUNICATIONS HAMPTON RDS LLC","structure_manager_name":null,"data_source":"FCC: Land Mobile - Private (GIS)"}},{"type":"Feature","geometry":{"type":"Point","coordinates":[-76.3581,37.01]},"properties":{"name":"MECHANICAL MAINTENANCE SHOP 72ND ST & CSXT YARD","styleUrl":"#towerStyle","styleHash":"1d01e409","county":"Hampton city","lat":37.01,"lng":-76.3581,"structure_type":"B","structure_name":null,"structure_address":"MECHANICAL MAINTENANCE SHOP 72ND ST & CSXT YARD","height":11,"base_elevation":3.744137,"structure_owner_name":"CSX TRANSPORTATION INC.","structure_manager_name":null,"data_source":"FCC: Land Mobile - Private (GIS)"}},{"type":"Feature","geometry":{"type":"Point","coordinates":[-76.3494,37.0253]},"properties":{"name":"Vertical Asset","styleUrl":"#towerStyle","styleHash":"1d01e409","county":"Hampton city","lat":37.0253,"lng":-76.3494,"structure_type":null,"structure_name":null,"structure_address":null,"height":0,"base_elevation":2.255918,"structure_owner_name":"BLACK  WHITE CARS INC DBA BLACK  WHITE CABS","structure_manager_name":null,"data_source":"FCC: Land Mobile - Private (GIS)"}},{"type":"Feature","geometry":{"type":"Point","coordinates":[-76.3494,37.0253]},"properties":{"name":"12 S ARMISTEAD AVE","styleUrl":"#towerStyle","styleHash":"1d01e409","county":"Hampton city","lat":37.0253,"lng":-76.3494,"structure_type":"MAST","structure_name":null,"structure_address":"12 S ARMISTEAD AVE","height":40,"base_elevation":2.255918,"structure_owner_name":"BLACK  WHITE CARS INC DBA BLACK  WHITE CABS","structure_manager_name":null,"data_source":"FCC: Land Mobile - Private (GIS)"}},{"type":"Feature","geometry":{"type":"Point","coordinates":[-76.4264,37.0853]},"properties":{"name":"1435 BIG BETHEL RD","styleUrl":"#towerStyle","styleHash":"1d01e409","county":"Hampton city","lat":37.0853,"lng":-76.4264,"structure_type":"TOWER","structure_name":null,"structure_address":"1435 BIG BETHEL RD","height":98,"base_elevation":7.509166,"structure_owner_name":"BLACK  WHITE CARS INC DBA BLACK  WHITE CABS","structure_manager_name":null,"data_source":"FCC: Land Mobile - Private (GIS)"}},{"type":"Feature","geometry":{"type":"Point","coordinates":[-76.3497,37.0253]},"properties":{"name":"Vertical Asset","styleUrl":"#towerStyle","styleHash":"1d01e409","county":"Hampton city","lat":37.0253,"lng":-76.3497,"structure_type":null,"structure_name":null,"structure_address":null,"height":0,"base_elevation":2.29797,"structure_owner_name":"CHECKER CAB CO INC","structure_manager_name":null,"data_source":"FCC: Land Mobile - Private (GIS)"}},{"type":"Feature","geometry":{"type":"Point","coordinates":[-76.3497,37.0253]},"properties":{"name":"12 S. Armitead Ave.","styleUrl":"#towerStyle","styleHash":"1d01e409","county":"Hampton city","lat":37.0253,"lng":-76.3497,"structure_type":"MAST","structure_name":null,"structure_address":"12 S. Armitead Ave.","height":40,"base_elevation":2.29797,"structure_owner_name":"CHECKER CAB CO INC","structure_manager_name":null,"data_source":"FCC: Land Mobile - Private (GIS)"}},{"type":"Feature","geometry":{"type":"Point","coordinates":[-76.4386,37.0242]},"properties":{"name":"5200 W MERCURY BLVD","styleUrl":"#towerStyle","styleHash":"1d01e409","county":"Hampton city","lat":37.0242,"lng":-76.4386,"structure_type":"B","structure_name":null,"structure_address":"5200 W MERCURY BLVD","height":12,"base_elevation":3.897602,"structure_owner_name":"FLEET MAINTENANCE","structure_manager_name":null,"data_source":"FCC: Land Mobile - Private (GIS)"}},{"type":"Feature","geometry":{"type":"Point","coordinates":[-76.4083,37.0617]},"properties":{"name":"Vertical Asset","styleUrl":"#towerStyle","styleHash":"1d01e409","county":"Hampton city","lat":37.0617,"lng":-76.4083,"structure_type":null,"structure_name":null,"structure_address":null,"height":0,"base_elevation":4.319836,"structure_owner_name":"NEW HORIZONS REGIONAL EDUCATION CENTER","structure_manager_name":null,"data_source":"FCC: Land Mobile - Private (GIS)"}},{"type":"Feature","geometry":{"type":"Point","coordinates":[-76.4264,37.0853]},"properties":{"name":"1318 SPRATLEY ST","styleUrl":"#towerStyle","styleHash":"1d01e409","county":"Hampton city","lat":37.0853,"lng":-76.4264,"structure_type":null,"structure_name":null,"structure_address":"1318 SPRATLEY ST","height":98,"base_elevation":7.509166,"structure_owner_name":"VULCAN SECURITY SYSTEMS INC","structure_manager_name":null,"data_source":"FCC: Land Mobile - Private (GIS)"}},{"type":"Feature","geometry":{"type":"Point","coordinates":[-76.4264,37.0853]},"properties":{"name":"1435 BIG BETHEL RD","styleUrl":"#towerStyle","styleHash":"1d01e409","county":"Hampton city","lat":37.0853,"lng":-76.4264,"structure_type":"TOWER","structure_name":null,"structure_address":"1435 BIG BETHEL RD","height":97.5,"base_elevation":7.509166,"structure_owner_name":"AreaWide Communications Inc","structure_manager_name":null,"data_source":"FCC: Land Mobile - Private (GIS)"}},{"type":"Feature","geometry":{"type":"Point","coordinates":[-76.4264,37.0853]},"properties":{"name":"1435 BIG BETHEL RD","styleUrl":"#towerStyle","styleHash":"1d01e409","county":"Hampton city","lat":37.0853,"lng":-76.4264,"structure_type":"TOWER","structure_name":null,"structure_address":"1435 BIG BETHEL RD","height":0,"base_elevation":7.509166,"structure_owner_name":"AREAWIDE COMMUNICATIONS INC","structure_manager_name":null,"data_source":"FCC: Land Mobile - Private (GIS)"}},{"type":"Feature","geometry":{"type":"Point","coordinates":[-76.4203,37.0636]},"properties":{"name":"99 THOMAS NELSON DRIVE","styleUrl":"#towerStyle","styleHash":"1d01e409","county":"Hampton city","lat":37.0636,"lng":-76.4203,"structure_type":"B","structure_name":null,"structure_address":"99 THOMAS NELSON DRIVE","height":11,"base_elevation":4.883493,"structure_owner_name":"VIRGINIA, COMMONWEALTH OF","structure_manager_name":null,"data_source":"FCC: Land Mobile - Private (GIS)"}},{"type":"Feature","geometry":{"type":"Point","coordinates":[-76.4017,37.0133]},"properties":{"name":"501 INDUSTRY DR","styleUrl":"#towerStyle","styleHash":"1d01e409","county":"Hampton city","lat":37.0133,"lng":-76.4017,"structure_type":null,"structure_name":null,"structure_address":"501 INDUSTRY DR","height":0,"base_elevation":3.246924,"structure_owner_name":"Gately Communication Co","structure_manager_name":null,"data_source":"FCC: Land Mobile - Private (GIS)"}},{"type":"Feature","geometry":{"type":"Point","coordinates":[-76.3922,37.0572]},"properties":{"name":"Vertical Asset","styleUrl":"#towerStyle","styleHash":"1d01e409","county":"Hampton city","lat":37.0572,"lng":-76.3922,"structure_type":null,"structure_name":null,"structure_address":null,"height":0,"base_elevation":3.572599,"structure_owner_name":"SENTARA CAREPLEX HOSPITAL","structure_manager_name":null,"data_source":"FCC: Land Mobile - Private (GIS)"}},{"type":"Feature","geometry":{"type":"Point","coordinates":[-76.3922,37.0572]},"properties":{"name":"3000 COLISEUM DR","styleUrl":"#towerStyle","styleHash":"1d01e409","county":"Hampton city","lat":37.0572,"lng":-76.3922,"structure_type":"bant","structure_name":null,"structure_address":"3000 COLISEUM DR","height":22.8,"base_elevation":3.572599,"structure_owner_name":"SENTARA CAREPLEX HOSPITAL","structure_manager_name":null,"data_source":"FCC: Land Mobile - Private (GIS)"}},{"type":"Feature","geometry":{"type":"Point","coordinates":[-76.3386,37.0197]},"properties":{"name":"DU BOIS HALL 95 MARSHALL AVE","styleUrl":"#towerStyle","styleHash":"1d01e409","county":"Hampton city","lat":37.0197,"lng":-76.3386,"structure_type":null,"structure_name":null,"structure_address":"DU BOIS HALL 95 MARSHALL AVE","height":34,"base_elevation":2.534052,"structure_owner_name":"HAMPTON UNIVERSITY","structure_manager_name":null,"data_source":"FCC: Land Mobile - Private (GIS)"}},{"type":"Feature","geometry":{"type":"Point","coordinates":[-76.3417,37.0214]},"properties":{"name":"HATTIE MC GREW TWERS 24 INDIAN RD","styleUrl":"#towerStyle","styleHash":"1d01e409","county":"Hampton city","lat":37.0214,"lng":-76.3417,"structure_type":null,"structure_name":null,"structure_address":"HATTIE MC GREW TWERS 24 INDIAN RD","height":34,"base_elevation":1.258695,"structure_owner_name":"HAMPTON UNIVERSITY","structure_manager_name":null,"data_source":"FCC: Land Mobile - Private (GIS)"}},{"type":"Feature","geometry":{"type":"Point","coordinates":[-76.4017,37.0133]},"properties":{"name":"501 INDUSTRY DR","styleUrl":"#towerStyle","styleHash":"1d01e409","county":"Hampton city","lat":37.0133,"lng":-76.4017,"structure_type":"TOWER","structure_name":null,"structure_address":"501 INDUSTRY DR","height":60,"base_elevation":3.246924,"structure_owner_name":"GATELY COMMUNICATION CO","structure_manager_name":null,"data_source":"FCC: Land Mobile - Private (GIS)"}},{"type":"Feature","geometry":{"type":"Point","coordinates":[-76.3928,37.0439]},"properties":{"name":"Vertical Asset","styleUrl":"#towerStyle","styleHash":"1d01e409","county":"Hampton city","lat":37.0439,"lng":-76.3928,"structure_type":null,"structure_name":null,"structure_address":null,"height":0,"base_elevation":4.348467,"structure_owner_name":"J C PENNEY COMPANY INC 1973 7","structure_manager_name":null,"data_source":"FCC: Land Mobile - Private (GIS)"}},{"type":"Feature","geometry":{"type":"Point","coordinates":[-76.3078,37.0389]},"properties":{"name":"1932 E PEMBROKE AVE","styleUrl":"#towerStyle","styleHash":"1d01e409","county":"Hampton city","lat":37.0389,"lng":-76.3078,"structure_type":"TOWER","structure_name":null,"structure_address":"1932 E PEMBROKE AVE","height":153,"base_elevation":2.746999,"structure_owner_name":"Titan Virginia Ready Mix LLC","structure_manager_name":null,"data_source":"FCC: Land Mobile - Private (GIS)"}},{"type":"Feature","geometry":{"type":"Point","coordinates":[-76.3428,37.0283]},"properties":{"name":"22 LINCOLN ST","styleUrl":"#towerStyle","styleHash":"1d01e409","county":"Hampton city","lat":37.0283,"lng":-76.3428,"structure_type":"B","structure_name":null,"structure_address":"22 LINCOLN ST","height":0,"base_elevation":1.48095,"structure_owner_name":"HAMPTON, CITY OF","structure_manager_name":null,"data_source":"FCC: Land Mobile - Private (GIS)"}},{"type":"Feature","geometry":{"type":"Point","coordinates":[-76.3892,37.0325]},"properties":{"name":"60 PINE CHAPEL RD","styleUrl":"#towerStyle","styleHash":"1d01e409","county":"Hampton city","lat":37.0325,"lng":-76.3892,"structure_type":"TOWER","structure_name":null,"structure_address":"60 PINE CHAPEL RD","height":0,"base_elevation":1.231537,"structure_owner_name":"HAMPTON, CITY OF","structure_manager_name":null,"data_source":"FCC: Land Mobile - Private (GIS)"}},{"type":"Feature","geometry":{"type":"Point","coordinates":[-76.2961,37.0467]},"properties":{"name":"TAPPEN AND 6TH ST","styleUrl":"#towerStyle","styleHash":"1d01e409","county":"Hampton city","lat":37.0467,"lng":-76.2961,"structure_type":"TOWER","structure_name":null,"structure_address":"TAPPEN AND 6TH ST","height":42,"base_elevation":1.422421,"structure_owner_name":"HAMPTON, CITY OF","structure_manager_name":null,"data_source":"FCC: Land Mobile - Private (GIS)"}},{"type":"Feature","geometry":{"type":"Point","coordinates":[-76.3889,37.0328]},"properties":{"name":"BLUE BIRD GAP FARM PINE CHAPEL","styleUrl":"#towerStyle","styleHash":"1d01e409","county":"Hampton city","lat":37.0328,"lng":-76.3889,"structure_type":"TOWER","structure_name":null,"structure_address":"BLUE BIRD GAP FARM PINE CHAPEL","height":73,"base_elevation":0.974682,"structure_owner_name":"TRANSPORTATION DISTRICT COMMISSION OF HAMPTON ROADS","structure_manager_name":null,"data_source":"FCC: Land Mobile - Private (GIS)"}},{"type":"Feature","geometry":{"type":"Point","coordinates":[-76.337499,37.0183]},"properties":{"name":"Vertical Asset","styleUrl":"#towerStyle","styleHash":"1d01e409","county":"Hampton city","lat":37.0183,"lng":-76.337499,"structure_type":null,"structure_name":null,"structure_address":null,"height":0,"base_elevation":2.322592,"structure_owner_name":"HAMPTON UNIVERSITY","structure_manager_name":null,"data_source":"FCC: Land Mobile - Private (GIS)"}},{"type":"Feature","geometry":{"type":"Point","coordinates":[-76.337499,37.0183]},"properties":{"name":"607 CEMETERY RD","styleUrl":"#towerStyle","styleHash":"1d01e409","county":"Hampton city","lat":37.0183,"lng":-76.337499,"structure_type":"B","structure_name":null,"structure_address":"607 CEMETERY RD","height":52,"base_elevation":2.322592,"structure_owner_name":"HAMPTON UNIVERSITY","structure_manager_name":null,"data_source":"FCC: Land Mobile - Private (GIS)"}},{"type":"Feature","geometry":{"type":"Point","coordinates":[-76.4339,37.0231]},"properties":{"name":"4717 MERCURY BLVD","styleUrl":"#towerStyle","styleHash":"1d01e409","county":"Hampton city","lat":37.0231,"lng":-76.4339,"structure_type":"TOWER","structure_name":null,"structure_address":"4717 MERCURY BLVD","height":96,"base_elevation":4.379162,"structure_owner_name":"Virginia, Commonwealth of       Department of State Police","structure_manager_name":null,"data_source":"FCC: Land Mobile - Private (GIS)"}},{"type":"Feature","geometry":{"type":"Point","coordinates":[-76.388,37.0372]},"properties":{"name":"PINE CHAPEL RD 1 KM S INT I64 & US 258","styleUrl":"#towerStyle","styleHash":"1d01e409","county":"Hampton city","lat":37.0372,"lng":-76.388,"structure_type":"UPOLE","structure_name":null,"structure_address":"PINE CHAPEL RD 1 KM S INT I64 & US 258","height":15,"base_elevation":3.275771,"structure_owner_name":"VIRGINIA, COMMONWEALTH OF","structure_manager_name":null,"data_source":"FCC: Land Mobile - Private (GIS)"}},{"type":"Feature","geometry":{"type":"Point","coordinates":[-76.4339,37.0231]},"properties":{"name":"4717 MERCURY BLVD","styleUrl":"#towerStyle","styleHash":"1d01e409","county":"Hampton city","lat":37.0231,"lng":-76.4339,"structure_type":"TOWER","structure_name":null,"structure_address":"4717 MERCURY BLVD","height":96,"base_elevation":4.379162,"structure_owner_name":"Virginia, Commonwealth of    Department of State Police","structure_manager_name":null,"data_source":"FCC: Land Mobile - Private (GIS)"}},{"type":"Feature","geometry":{"type":"Point","coordinates":[-76.3075,37.0383]},"properties":{"name":"1932 E PEMBROKE BLVD (006500)","styleUrl":"#towerStyle","styleHash":"1d01e409","county":"Hampton city","lat":37.0383,"lng":-76.3075,"structure_type":"TOWER","structure_name":null,"structure_address":"1932 E PEMBROKE BLVD (006500)","height":157.2,"base_elevation":2.746999,"structure_owner_name":"RIVERSIDE HEALTH SYSTEM INC","structure_manager_name":null,"data_source":"FCC: Land Mobile - Private (GIS)"}},{"type":"Feature","geometry":{"type":"Point","coordinates":[-76.3722,37.0206]},"properties":{"name":"1323  W PEMBROKE AVENUE","styleUrl":"#towerStyle","styleHash":"1d01e409","county":"Hampton city","lat":37.0206,"lng":-76.3722,"structure_type":"BANT","structure_name":null,"structure_address":"1323  W PEMBROKE AVENUE","height":15,"base_elevation":4.068049,"structure_owner_name":"American National Red Cross","structure_manager_name":null,"data_source":"FCC: Land Mobile - Private (GIS)"}},{"type":"Feature","geometry":{"type":"Point","coordinates":[-76.3422,37.0267]},"properties":{"name":"Vertical Asset","styleUrl":"#towerStyle","styleHash":"1d01e409","county":"Hampton city","lat":37.0267,"lng":-76.3422,"structure_type":null,"structure_name":null,"structure_address":null,"height":0,"base_elevation":1.820779,"structure_owner_name":"HAMPTON, CITY OF","structure_manager_name":null,"data_source":"FCC: Land Mobile - Private (GIS)"}},{"type":"Feature","geometry":{"type":"Point","coordinates":[-76.3447,37.0281]},"properties":{"name":"40 LINCOLN ST","styleUrl":"#towerStyle","styleHash":"1d01e409","county":"Hampton city","lat":37.0281,"lng":-76.3447,"structure_type":null,"structure_name":null,"structure_address":"40 LINCOLN ST","height":0,"base_elevation":2.41819,"structure_owner_name":"HAMPTON, CITY OF","structure_manager_name":null,"data_source":"FCC: Land Mobile - Private (GIS)"}},{"type":"Feature","geometry":{"type":"Point","coordinates":[-76.3892,37.0325]},"properties":{"name":"BLUE BIRD GAP PARK OFF PINE RD","styleUrl":"#towerStyle","styleHash":"1d01e409","county":"Hampton city","lat":37.0325,"lng":-76.3892,"structure_type":null,"structure_name":null,"structure_address":"BLUE BIRD GAP PARK OFF PINE RD","height":0,"base_elevation":1.231537,"structure_owner_name":"HAMPTON, CITY OF","structure_manager_name":null,"data_source":"FCC: Land Mobile - Private (GIS)"}},{"type":"Feature","geometry":{"type":"Point","coordinates":[-76.3078,37.0389]},"properties":{"name":"1932 E PEMBROKE AVE","styleUrl":"#towerStyle","styleHash":"1d01e409","county":"Hampton city","lat":37.0389,"lng":-76.3078,"structure_type":null,"structure_name":null,"structure_address":"1932 E PEMBROKE AVE","height":0,"base_elevation":2.746999,"structure_owner_name":"VIRGINIA, COMMONWEALTH OF","structure_manager_name":null,"data_source":"FCC: Land Mobile - Private (GIS)"}},{"type":"Feature","geometry":{"type":"Point","coordinates":[-76.3433,37.0281]},"properties":{"name":"22 LINCOLN ST","styleUrl":"#towerStyle","styleHash":"1d01e409","county":"Hampton city","lat":37.0281,"lng":-76.3433,"structure_type":null,"structure_name":null,"structure_address":"22 LINCOLN ST","height":0,"base_elevation":1.704213,"structure_owner_name":"HAMPTON, CITY OF","structure_manager_name":null,"data_source":"FCC: Land Mobile - Private (GIS)"}},{"type":"Feature","geometry":{"type":"Point","coordinates":[-76.3078,37.0389]},"properties":{"name":"1932 PEMBROKE AVE","styleUrl":"#towerStyle","styleHash":"1d01e409","county":"Hampton city","lat":37.0389,"lng":-76.3078,"structure_type":null,"structure_name":null,"structure_address":"1932 PEMBROKE AVE","height":122,"base_elevation":2.746999,"structure_owner_name":"VIRGINIA, COMMONWEALTH OF","structure_manager_name":null,"data_source":"FCC: Land Mobile - Private (GIS)"}},{"type":"Feature","geometry":{"type":"Point","coordinates":[-76.3678,37.0108]},"properties":{"name":"3120 VICTORIA BLVD","styleUrl":"#towerStyle","styleHash":"1d01e409","county":"Hampton city","lat":37.0108,"lng":-76.3678,"structure_type":"BPOLE","structure_name":null,"structure_address":"3120 VICTORIA BLVD","height":34,"base_elevation":5.63512,"structure_owner_name":"Sentara CarePlex Hospital","structure_manager_name":null,"data_source":"FCC: Land Mobile - Private (GIS)"}},{"type":"Feature","geometry":{"type":"Point","coordinates":[-76.4267,37.0856]},"properties":{"name":"1435 BIG BETHEL RD","styleUrl":"#towerStyle","styleHash":"1d01e409","county":"Hampton city","lat":37.0856,"lng":-76.4267,"structure_type":"TOWER","structure_name":null,"structure_address":"1435 BIG BETHEL RD","height":97.5,"base_elevation":7.454196,"structure_owner_name":"HAMPTON ROADS SANITATION DISTRICT","structure_manager_name":null,"data_source":"FCC: Land Mobile - Private (GIS)"}},{"type":"Feature","geometry":{"type":"Point","coordinates":[-76.420599,37.063899]},"properties":{"name":"200 BUTLER FARM RD","styleUrl":"#towerStyle","styleHash":"1d01e409","county":"Hampton city","lat":37.063899,"lng":-76.420599,"structure_type":"B","structure_name":null,"structure_address":"200 BUTLER FARM RD","height":9,"base_elevation":4.944299,"structure_owner_name":"VIRGINIA, COMMONWEALTH OF","structure_manager_name":null,"data_source":"FCC: Land Mobile - Private (GIS)"}},{"type":"Feature","geometry":{"type":"Point","coordinates":[-76.3433,37.0281]},"properties":{"name":"22 LINCOLN ST","styleUrl":"#towerStyle","styleHash":"1d01e409","county":"Hampton city","lat":37.0281,"lng":-76.3433,"structure_type":"B","structure_name":null,"structure_address":"22 LINCOLN ST","height":0,"base_elevation":1.704213,"structure_owner_name":"HAMPTON, CITY OF","structure_manager_name":null,"data_source":"FCC: Land Mobile - Private (GIS)"}},{"type":"Feature","geometry":{"type":"Point","coordinates":[-76.3892,37.0325]},"properties":{"name":"BLUE BIRD GAP PARK OFF PINE RD","styleUrl":"#towerStyle","styleHash":"1d01e409","county":"Hampton city","lat":37.0325,"lng":-76.3892,"structure_type":"B","structure_name":null,"structure_address":"BLUE BIRD GAP PARK OFF PINE RD","height":0,"base_elevation":1.231537,"structure_owner_name":"HAMPTON, CITY OF","structure_manager_name":null,"data_source":"FCC: Land Mobile - Private (GIS)"}},{"type":"Feature","geometry":{"type":"Point","coordinates":[-76.3486,37.0453]},"properties":{"name":"4 THORNROSE RD","styleUrl":"#towerStyle","styleHash":"1d01e409","county":"Hampton city","lat":37.0453,"lng":-76.3486,"structure_type":"B","structure_name":null,"structure_address":"4 THORNROSE RD","height":6,"base_elevation":3.147104,"structure_owner_name":"HAMPTON ROADS SANITATION DISTRICT","structure_manager_name":null,"data_source":"FCC: Land Mobile - Private (GIS)"}},{"type":"Feature","geometry":{"type":"Point","coordinates":[-76.3847,37.0172]},"properties":{"name":"SHORE ROAD","styleUrl":"#towerStyle","styleHash":"1d01e409","county":"Hampton city","lat":37.0172,"lng":-76.3847,"structure_type":"B","structure_name":null,"structure_address":"SHORE ROAD","height":6,"base_elevation":5.60472,"structure_owner_name":"HAMPTON ROADS SANITATION DISTRICT","structure_manager_name":null,"data_source":"FCC: Land Mobile - Private (GIS)"}},{"type":"Feature","geometry":{"type":"Point","coordinates":[-76.3825,36.9939]},"properties":{"name":"1210 CHESAPEAKE AVE","styleUrl":"#towerStyle","styleHash":"1d01e409","county":"Hampton city","lat":36.9939,"lng":-76.3825,"structure_type":"B","structure_name":null,"structure_address":"1210 CHESAPEAKE AVE","height":6,"base_elevation":0.903509,"structure_owner_name":"HAMPTON ROADS SANITATION DISTRICT","structure_manager_name":null,"data_source":"FCC: Land Mobile - Private (GIS)"}},{"type":"Feature","geometry":{"type":"Point","coordinates":[-76.3447,37.019999]},"properties":{"name":"4701 VICTORIA BLVD","styleUrl":"#towerStyle","styleHash":"1d01e409","county":"Hampton city","lat":37.019999,"lng":-76.3447,"structure_type":"B","structure_name":null,"structure_address":"4701 VICTORIA BLVD","height":6,"base_elevation":1.207445,"structure_owner_name":"HAMPTON ROADS SANITATION DISTRICT","structure_manager_name":null,"data_source":"FCC: Land Mobile - Private (GIS)"}},{"type":"Feature","geometry":{"type":"Point","coordinates":[-76.3417,37.0286]},"properties":{"name":"217 WASHINGTON ST","styleUrl":"#towerStyle","styleHash":"1d01e409","county":"Hampton city","lat":37.0286,"lng":-76.3417,"structure_type":"B","structure_name":null,"structure_address":"217 WASHINGTON ST","height":6,"base_elevation":2.033628,"structure_owner_name":"HAMPTON ROADS SANITATION DISTRICT","structure_manager_name":null,"data_source":"FCC: Land Mobile - Private (GIS)"}},{"type":"Feature","geometry":{"type":"Point","coordinates":[-76.3705,37.0364]},"properties":{"name":"42 FREEMAN DR","styleUrl":"#towerStyle","styleHash":"1d01e409","county":"Hampton city","lat":37.0364,"lng":-76.3705,"structure_type":"B","structure_name":null,"structure_address":"42 FREEMAN DR","height":6,"base_elevation":1.230382,"structure_owner_name":"HAMPTON ROADS SANITATION DISTRICT","structure_manager_name":null,"data_source":"FCC: Land Mobile - Private (GIS)"}},{"type":"Feature","geometry":{"type":"Point","coordinates":[-76.4247,37.0853]},"properties":{"name":"1451 BIG BETHEL RD","styleUrl":"#towerStyle","styleHash":"1d01e409","county":"Hampton city","lat":37.0853,"lng":-76.4247,"structure_type":"B","structure_name":null,"structure_address":"1451 BIG BETHEL RD","height":6,"base_elevation":7.37022,"structure_owner_name":"HAMPTON ROADS SANITATION DISTRICT","structure_manager_name":null,"data_source":"FCC: Land Mobile - Private (GIS)"}},{"type":"Feature","geometry":{"type":"Point","coordinates":[-76.3,37.06]},"properties":{"name":"5 BEACH RD","styleUrl":"#towerStyle","styleHash":"1d01e409","county":"Hampton city","lat":37.06,"lng":-76.3,"structure_type":"B","structure_name":null,"structure_address":"5 BEACH RD","height":6,"base_elevation":1.353611,"structure_owner_name":"HAMPTON ROADS SANITATION DISTRICT","structure_manager_name":null,"data_source":"FCC: Land Mobile - Private (GIS)"}},{"type":"Feature","geometry":{"type":"Point","coordinates":[-76.294199,37.0358]},"properties":{"name":"720 BAYSHORE LN","styleUrl":"#towerStyle","styleHash":"1d01e409","county":"Hampton city","lat":37.0358,"lng":-76.294199,"structure_type":"B","structure_name":null,"structure_address":"720 BAYSHORE LN","height":6,"base_elevation":1.764605,"structure_owner_name":"HAMPTON ROADS SANITATION DISTRICT","structure_manager_name":null,"data_source":"FCC: Land Mobile - Private (GIS)"}},{"type":"Feature","geometry":{"type":"Point","coordinates":[-76.3228,37.0131]},"properties":{"name":"219 NATIONAL AVE","styleUrl":"#towerStyle","styleHash":"1d01e409","county":"Hampton city","lat":37.0131,"lng":-76.3228,"structure_type":"B","structure_name":null,"structure_address":"219 NATIONAL AVE","height":6,"base_elevation":2.438408,"structure_owner_name":"HAMPTON ROADS SANITATION DISTRICT","structure_manager_name":null,"data_source":"FCC: Land Mobile - Private (GIS)"}},{"type":"Feature","geometry":{"type":"Point","coordinates":[-76.315799,37.0514]},"properties":{"name":"11 MC ELHENEY LN","styleUrl":"#towerStyle","styleHash":"1d01e409","county":"Hampton city","lat":37.0514,"lng":-76.315799,"structure_type":"B","structure_name":null,"structure_address":"11 MC ELHENEY LN","height":6,"base_elevation":2.768106,"structure_owner_name":"HAMPTON ROADS SANITATION DISTRICT","structure_manager_name":null,"data_source":"FCC: Land Mobile - Private (GIS)"}},{"type":"Feature","geometry":{"type":"Point","coordinates":[-76.435299,37.0839]},"properties":{"name":"END OF EDGEMONT DR","styleUrl":"#towerStyle","styleHash":"1d01e409","county":"Hampton city","lat":37.0839,"lng":-76.435299,"structure_type":null,"structure_name":null,"structure_address":"END OF EDGEMONT DR","height":0,"base_elevation":8.098155,"structure_owner_name":"HAMPTON, CITY OF","structure_manager_name":null,"data_source":"FCC: Land Mobile - Private (GIS)"}},{"type":"Feature","geometry":{"type":"Point","coordinates":[-76.3953,37.0467]},"properties":{"name":"2120 EXECUTIVE DR","styleUrl":"#towerStyle","styleHash":"1d01e409","county":"Hampton city","lat":37.0467,"lng":-76.3953,"structure_type":null,"structure_name":null,"structure_address":"2120 EXECUTIVE DR","height":0,"base_elevation":4.338615,"structure_owner_name":"HAMPTON, CITY OF","structure_manager_name":null,"data_source":"FCC: Land Mobile - Private (GIS)"}},{"type":"Feature","geometry":{"type":"Point","coordinates":[-76.3472,37.0633]},"properties":{"name":"1702 N KING ST","styleUrl":"#towerStyle","styleHash":"1d01e409","county":"Hampton city","lat":37.0633,"lng":-76.3472,"structure_type":null,"structure_name":null,"structure_address":"1702 N KING ST","height":0,"base_elevation":1.216998,"structure_owner_name":"HAMPTON, CITY OF","structure_manager_name":null,"data_source":"FCC: Land Mobile - Private (GIS)"}},{"type":"Feature","geometry":{"type":"Point","coordinates":[-76.359699,37.0478]},"properties":{"name":"5 SELDENDALE DR","styleUrl":"#towerStyle","styleHash":"1d01e409","county":"Hampton city","lat":37.0478,"lng":-76.359699,"structure_type":null,"structure_name":null,"structure_address":"5 SELDENDALE DR","height":0,"base_elevation":1.556991,"structure_owner_name":"HAMPTON, CITY OF","structure_manager_name":null,"data_source":"FCC: Land Mobile - Private (GIS)"}},{"type":"Feature","geometry":{"type":"Point","coordinates":[-76.3944,37.0244]},"properties":{"name":"19 EVANS ST","styleUrl":"#towerStyle","styleHash":"1d01e409","county":"Hampton city","lat":37.0244,"lng":-76.3944,"structure_type":null,"structure_name":null,"structure_address":"19 EVANS ST","height":0,"base_elevation":2.924743,"structure_owner_name":"HAMPTON, CITY OF","structure_manager_name":null,"data_source":"FCC: Land Mobile - Private (GIS)"}},{"type":"Feature","geometry":{"type":"Point","coordinates":[-76.305,37.0492]},"properties":{"name":"2302 N ANDREWS BLVD","styleUrl":"#towerStyle","styleHash":"1d01e409","county":"Hampton city","lat":37.0492,"lng":-76.305,"structure_type":null,"structure_name":null,"structure_address":"2302 N ANDREWS BLVD","height":0,"base_elevation":2.746953,"structure_owner_name":"HAMPTON, CITY OF","structure_manager_name":null,"data_source":"FCC: Land Mobile - Private (GIS)"}},{"type":"Feature","geometry":{"type":"Point","coordinates":[-76.3658,37.0292]},"properties":{"name":"500 1/2 MICHIGAN DR","styleUrl":"#towerStyle","styleHash":"1d01e409","county":"Hampton city","lat":37.0292,"lng":-76.3658,"structure_type":null,"structure_name":null,"structure_address":"500 1/2 MICHIGAN DR","height":0,"base_elevation":2.756972,"structure_owner_name":"HAMPTON, CITY OF","structure_manager_name":null,"data_source":"FCC: Land Mobile - Private (GIS)"}},{"type":"Feature","geometry":{"type":"Point","coordinates":[-76.2953,37.0542]},"properties":{"name":"1763 LAFAYETTE DR","styleUrl":"#towerStyle","styleHash":"1d01e409","county":"Hampton city","lat":37.0542,"lng":-76.2953,"structure_type":null,"structure_name":null,"structure_address":"1763 LAFAYETTE DR","height":0,"base_elevation":2.74604,"structure_owner_name":"HAMPTON, CITY OF","structure_manager_name":null,"data_source":"FCC: Land Mobile - Private (GIS)"}},{"type":"Feature","geometry":{"type":"Point","coordinates":[-76.3831,37.0511]},"properties":{"name":"142 1/2 MARCELLA RD","styleUrl":"#towerStyle","styleHash":"1d01e409","county":"Hampton city","lat":37.0511,"lng":-76.3831,"structure_type":null,"structure_name":null,"structure_address":"142 1/2 MARCELLA RD","height":0,"base_elevation":2.977082,"structure_owner_name":"HAMPTON, CITY OF","structure_manager_name":null,"data_source":"FCC: Land Mobile - Private (GIS)"}},{"type":"Feature","geometry":{"type":"Point","coordinates":[-76.3,37.063899]},"properties":{"name":"475 1/2 FORT WORTH ST","styleUrl":"#towerStyle","styleHash":"1d01e409","county":"Hampton city","lat":37.063899,"lng":-76.3,"structure_type":null,"structure_name":null,"structure_address":"475 1/2 FORT WORTH ST","height":0,"base_elevation":1.673303,"structure_owner_name":"HAMPTON, CITY OF","structure_manager_name":null,"data_source":"FCC: Land Mobile - Private (GIS)"}},{"type":"Feature","geometry":{"type":"Point","coordinates":[-76.3778,37.0645]},"properties":{"name":"119A DEERFIELD BLVD","styleUrl":"#towerStyle","styleHash":"1d01e409","county":"Hampton city","lat":37.0645,"lng":-76.3778,"structure_type":null,"structure_name":null,"structure_address":"119A DEERFIELD BLVD","height":0,"base_elevation":2.871607,"structure_owner_name":"HAMPTON, CITY OF","structure_manager_name":null,"data_source":"FCC: Land Mobile - Private (GIS)"}},{"type":"Feature","geometry":{"type":"Point","coordinates":[-76.3217,37.045]},"properties":{"name":"376 WOODLAND RD","styleUrl":"#towerStyle","styleHash":"1d01e409","county":"Hampton city","lat":37.045,"lng":-76.3217,"structure_type":null,"structure_name":null,"structure_address":"376 WOODLAND RD","height":0,"base_elevation":2.693739,"structure_owner_name":"HAMPTON, CITY OF","structure_manager_name":null,"data_source":"FCC: Land Mobile - Private (GIS)"}},{"type":"Feature","geometry":{"type":"Point","coordinates":[-76.3705,37.057]},"properties":{"name":"613A CHARLTON DR","styleUrl":"#towerStyle","styleHash":"1d01e409","county":"Hampton city","lat":37.057,"lng":-76.3705,"structure_type":null,"structure_name":null,"structure_address":"613A CHARLTON DR","height":0,"base_elevation":2.558096,"structure_owner_name":"HAMPTON, CITY OF","structure_manager_name":null,"data_source":"FCC: Land Mobile - Private (GIS)"}},{"type":"Feature","geometry":{"type":"Point","coordinates":[-76.3694,37.0458]},"properties":{"name":"21 RIVERDALE DR","styleUrl":"#towerStyle","styleHash":"1d01e409","county":"Hampton city","lat":37.0458,"lng":-76.3694,"structure_type":null,"structure_name":null,"structure_address":"21 RIVERDALE DR","height":0,"base_elevation":2.26794,"structure_owner_name":"HAMPTON, CITY OF","structure_manager_name":null,"data_source":"FCC: Land Mobile - Private (GIS)"}},{"type":"Feature","geometry":{"type":"Point","coordinates":[-76.3542,37.0508]},"properties":{"name":"278 1/2 W GILBERT ST","styleUrl":"#towerStyle","styleHash":"1d01e409","county":"Hampton city","lat":37.0508,"lng":-76.3542,"structure_type":null,"structure_name":null,"structure_address":"278 1/2 W GILBERT ST","height":0,"base_elevation":2.248061,"structure_owner_name":"HAMPTON, CITY OF","structure_manager_name":null,"data_source":"FCC: Land Mobile - Private (GIS)"}},{"type":"Feature","geometry":{"type":"Point","coordinates":[-76.3344,37.0453]},"properties":{"name":"40 1/2 WESTMORELAND DR","styleUrl":"#towerStyle","styleHash":"1d01e409","county":"Hampton city","lat":37.0453,"lng":-76.3344,"structure_type":null,"structure_name":null,"structure_address":"40 1/2 WESTMORELAND DR","height":0,"base_elevation":2.965382,"structure_owner_name":"HAMPTON, CITY OF","structure_manager_name":null,"data_source":"FCC: Land Mobile - Private (GIS)"}},{"type":"Feature","geometry":{"type":"Point","coordinates":[-76.3467,37.055]},"properties":{"name":"1310 N KING ST","styleUrl":"#towerStyle","styleHash":"1d01e409","county":"Hampton city","lat":37.055,"lng":-76.3467,"structure_type":null,"structure_name":null,"structure_address":"1310 N KING ST","height":0,"base_elevation":2.797713,"structure_owner_name":"HAMPTON, CITY OF","structure_manager_name":null,"data_source":"FCC: Land Mobile - Private (GIS)"}},{"type":"Feature","geometry":{"type":"Point","coordinates":[-76.3508,37.0586]},"properties":{"name":"10 HAMPSHIRE DR","styleUrl":"#towerStyle","styleHash":"1d01e409","county":"Hampton city","lat":37.0586,"lng":-76.3508,"structure_type":null,"structure_name":null,"structure_address":"10 HAMPSHIRE DR","height":0,"base_elevation":1.626693,"structure_owner_name":"HAMPTON, CITY OF","structure_manager_name":null,"data_source":"FCC: Land Mobile - Private (GIS)"}},{"type":"Feature","geometry":{"type":"Point","coordinates":[-76.4222,37.0467]},"properties":{"name":"49 WIMBLETON TER","styleUrl":"#towerStyle","styleHash":"1d01e409","county":"Hampton city","lat":37.0467,"lng":-76.4222,"structure_type":null,"structure_name":null,"structure_address":"49 WIMBLETON TER","height":0,"base_elevation":4.961642,"structure_owner_name":"HAMPTON, CITY OF","structure_manager_name":null,"data_source":"FCC: Land Mobile - Private (GIS)"}},{"type":"Feature","geometry":{"type":"Point","coordinates":[-76.4028,37.0253]},"properties":{"name":"1030 LEON LN","styleUrl":"#towerStyle","styleHash":"1d01e409","county":"Hampton city","lat":37.0253,"lng":-76.4028,"structure_type":null,"structure_name":null,"structure_address":"1030 LEON LN","height":0,"base_elevation":2.24845,"structure_owner_name":"HAMPTON, CITY OF","structure_manager_name":null,"data_source":"FCC: Land Mobile - Private (GIS)"}},{"type":"Feature","geometry":{"type":"Point","coordinates":[-76.4144,37.0186]},"properties":{"name":"43 BIG BETHEL RD","styleUrl":"#towerStyle","styleHash":"1d01e409","county":"Hampton city","lat":37.0186,"lng":-76.4144,"structure_type":null,"structure_name":null,"structure_address":"43 BIG BETHEL RD","height":0,"base_elevation":1.354431,"structure_owner_name":"HAMPTON, CITY OF","structure_manager_name":null,"data_source":"FCC: Land Mobile - Private (GIS)"}},{"type":"Feature","geometry":{"type":"Point","coordinates":[-76.4039,37.0214]},"properties":{"name":"1504 WINGFIELD DR","styleUrl":"#towerStyle","styleHash":"1d01e409","county":"Hampton city","lat":37.0214,"lng":-76.4039,"structure_type":null,"structure_name":null,"structure_address":"1504 WINGFIELD DR","height":0,"base_elevation":1.782259,"structure_owner_name":"HAMPTON, CITY OF","structure_manager_name":null,"data_source":"FCC: Land Mobile - Private (GIS)"}},{"type":"Feature","geometry":{"type":"Point","coordinates":[-76.3447,37.0281]},"properties":{"name":"40 LINCOLN ST","styleUrl":"#towerStyle","styleHash":"1d01e409","county":"Hampton city","lat":37.0281,"lng":-76.3447,"structure_type":null,"structure_name":null,"structure_address":"40 LINCOLN ST","height":0,"base_elevation":2.41819,"structure_owner_name":"HAMPTON, CITY OF","structure_manager_name":null,"data_source":"FCC: Land Mobile - Private (GIS)"}},{"type":"Feature","geometry":{"type":"Point","coordinates":[-76.3447,37.0281]},"properties":{"name":"40 LINCOLN ST","styleUrl":"#towerStyle","styleHash":"1d01e409","county":"Hampton city","lat":37.0281,"lng":-76.3447,"structure_type":null,"structure_name":null,"structure_address":"40 LINCOLN ST","height":0,"base_elevation":2.41819,"structure_owner_name":"HAMPTON, CITY OF","structure_manager_name":null,"data_source":"FCC: Land Mobile - Private (GIS)"}},{"type":"Feature","geometry":{"type":"Point","coordinates":[-76.3447,37.0281]},"properties":{"name":"40 LINCOLN ST","styleUrl":"#towerStyle","styleHash":"1d01e409","county":"Hampton city","lat":37.0281,"lng":-76.3447,"structure_type":null,"structure_name":null,"structure_address":"40 LINCOLN ST","height":0,"base_elevation":2.41819,"structure_owner_name":"HAMPTON, CITY OF","structure_manager_name":null,"data_source":"FCC: Land Mobile - Private (GIS)"}},{"type":"Feature","geometry":{"type":"Point","coordinates":[-76.2911,37.0653]},"properties":{"name":"68 HALL RD","styleUrl":"#towerStyle","styleHash":"1d01e409","county":"Hampton city","lat":37.0653,"lng":-76.2911,"structure_type":null,"structure_name":null,"structure_address":"68 HALL RD","height":0,"base_elevation":1.914805,"structure_owner_name":"HAMPTON, CITY OF","structure_manager_name":null,"data_source":"FCC: Land Mobile - Private (GIS)"}},{"type":"Feature","geometry":{"type":"Point","coordinates":[-76.3753,37.0047]},"properties":{"name":"2715 KECOUGHTAN RD","styleUrl":"#towerStyle","styleHash":"1d01e409","county":"Hampton city","lat":37.0047,"lng":-76.3753,"structure_type":null,"structure_name":null,"structure_address":"2715 KECOUGHTAN RD","height":0,"base_elevation":1.739692,"structure_owner_name":"HAMPTON, CITY OF","structure_manager_name":null,"data_source":"FCC: Land Mobile - Private (GIS)"}},{"type":"Feature","geometry":{"type":"Point","coordinates":[-76.3075,37.0356]},"properties":{"name":"45 AMBROSE LN","styleUrl":"#towerStyle","styleHash":"1d01e409","county":"Hampton city","lat":37.0356,"lng":-76.3075,"structure_type":null,"structure_name":null,"structure_address":"45 AMBROSE LN","height":0,"base_elevation":2.746999,"structure_owner_name":"HAMPTON, CITY OF","structure_manager_name":null,"data_source":"FCC: Land Mobile - Private (GIS)"}},{"type":"Feature","geometry":{"type":"Point","coordinates":[-76.36,37.0172]},"properties":{"name":"3725 VICTORIA BLVD","styleUrl":"#towerStyle","styleHash":"1d01e409","county":"Hampton city","lat":37.0172,"lng":-76.36,"structure_type":null,"structure_name":null,"structure_address":"3725 VICTORIA BLVD","height":0,"base_elevation":3.32249,"structure_owner_name":"HAMPTON, CITY OF","structure_manager_name":null,"data_source":"FCC: Land Mobile - Private (GIS)"}},{"type":"Feature","geometry":{"type":"Point","coordinates":[-76.311399,37.0294]},"properties":{"name":"8 HENDERSON LN","styleUrl":"#towerStyle","styleHash":"1d01e409","county":"Hampton city","lat":37.0294,"lng":-76.311399,"structure_type":null,"structure_name":null,"structure_address":"8 HENDERSON LN","height":0,"base_elevation":2.748934,"structure_owner_name":"HAMPTON, CITY OF","structure_manager_name":null,"data_source":"FCC: Land Mobile - Private (GIS)"}},{"type":"Feature","geometry":{"type":"Point","coordinates":[-76.37,37.0208]},"properties":{"name":"914 NEWPORT NEWS AVE","styleUrl":"#towerStyle","styleHash":"1d01e409","county":"Hampton city","lat":37.0208,"lng":-76.37,"structure_type":null,"structure_name":null,"structure_address":"914 NEWPORT NEWS AVE","height":0,"base_elevation":4.174457,"structure_owner_name":"HAMPTON, CITY OF","structure_manager_name":null,"data_source":"FCC: Land Mobile - Private (GIS)"}},{"type":"Feature","geometry":{"type":"Point","coordinates":[-76.3936,37.0403]},"properties":{"name":"I64 AND RT 258","styleUrl":"#towerStyle","styleHash":"1d01e409","county":"Hampton city","lat":37.0403,"lng":-76.3936,"structure_type":"POLE","structure_name":null,"structure_address":"I64 AND RT 258","height":5,"base_elevation":5.456714,"structure_owner_name":"VIRGINIA, COMMONWEALTH OF","structure_manager_name":null,"data_source":"FCC: Land Mobile - Private (GIS)"}},{"type":"Feature","geometry":{"type":"Point","coordinates":[-76.3433,37.0281]},"properties":{"name":"22 LINCOLN ST","styleUrl":"#towerStyle","styleHash":"1d01e409","county":"Hampton city","lat":37.0281,"lng":-76.3433,"structure_type":null,"structure_name":null,"structure_address":"22 LINCOLN ST","height":0,"base_elevation":1.704213,"structure_owner_name":"HAMPTON, CITY OF","structure_manager_name":null,"data_source":"FCC: Land Mobile - Private (GIS)"}},{"type":"Feature","geometry":{"type":"Point","coordinates":[-76.4264,37.0853]},"properties":{"name":"1435 BIG BETHEL RD","styleUrl":"#towerStyle","styleHash":"1d01e409","county":"Hampton city","lat":37.0853,"lng":-76.4264,"structure_type":null,"structure_name":null,"structure_address":"1435 BIG BETHEL RD","height":0,"base_elevation":7.509166,"structure_owner_name":"Transportation District Communications of Hampton Roads","structure_manager_name":null,"data_source":"FCC: Land Mobile - Private (GIS)"}},{"type":"Feature","geometry":{"type":"Point","coordinates":[-76.3242,37.0133]},"properties":{"name":"CENTRAL OFFICE HAMPTON ROADS TUNNEL","styleUrl":"#towerStyle","styleHash":"1d01e409","county":"Hampton city","lat":37.0133,"lng":-76.3242,"structure_type":null,"structure_name":null,"structure_address":"CENTRAL OFFICE HAMPTON ROADS TUNNEL","height":0,"base_elevation":2.870404,"structure_owner_name":"VIRGINIA, COMMONWEALTH OF","structure_manager_name":null,"data_source":"FCC: Land Mobile - Private (GIS)"}},{"type":"Feature","geometry":{"type":"Point","coordinates":[-76.4056,37.0181]},"properties":{"name":"1590 BRIARFIELD RD","styleUrl":"#towerStyle","styleHash":"1d01e409","county":"Hampton city","lat":37.0181,"lng":-76.4056,"structure_type":null,"structure_name":null,"structure_address":"1590 BRIARFIELD RD","height":0,"base_elevation":3.394569,"structure_owner_name":"HAMPTON, CITY OF","structure_manager_name":null,"data_source":"FCC: Land Mobile - Private (GIS)"}},{"type":"Feature","geometry":{"type":"Point","coordinates":[-76.3433,37.0281]},"properties":{"name":"22 LINCOLN ST","styleUrl":"#towerStyle","styleHash":"1d01e409","county":"Hampton city","lat":37.0281,"lng":-76.3433,"structure_type":null,"structure_name":null,"structure_address":"22 LINCOLN ST","height":0,"base_elevation":1.704213,"structure_owner_name":"HAMPTON, CITY OF","structure_manager_name":null,"data_source":"FCC: Land Mobile - Private (GIS)"}},{"type":"Feature","geometry":{"type":"Point","coordinates":[-76.3433,37.0281]},"properties":{"name":"22 LINCOLN ST","styleUrl":"#towerStyle","styleHash":"1d01e409","county":"Hampton city","lat":37.0281,"lng":-76.3433,"structure_type":null,"structure_name":null,"structure_address":"22 LINCOLN ST","height":0,"base_elevation":1.704213,"structure_owner_name":"HAMPTON, CITY OF","structure_manager_name":null,"data_source":"FCC: Land Mobile - Private (GIS)"}},{"type":"Feature","geometry":{"type":"Point","coordinates":[-76.3414,37.0256]},"properties":{"name":"2 Eaton Street","styleUrl":"#towerStyle","styleHash":"1d01e409","county":"Hampton city","lat":37.0256,"lng":-76.3414,"structure_type":"B","structure_name":null,"structure_address":"2 Eaton Street","height":65.5,"base_elevation":1.419371,"structure_owner_name":"FCI 900, INC.","structure_manager_name":null,"data_source":"FCC: Land Mobile - Commercial (GIS)"}},{"type":"Feature","geometry":{"type":"Point","coordinates":[-76.4017,37.0133]},"properties":{"name":"GATELY COMMUNICATIONS 501","styleUrl":"#towerStyle","styleHash":"1d01e409","county":"Hampton city","lat":37.0133,"lng":-76.4017,"structure_type":"TOWER","structure_name":null,"structure_address":"GATELY COMMUNICATIONS 501","height":61,"base_elevation":3.246924,"structure_owner_name":"NEXTEL COMMUNICATIONS OF THE MID-ATLANTIC, INC.","structure_manager_name":null,"data_source":"FCC: Land Mobile - Commercial (GIS)"}},{"type":"Feature","geometry":{"type":"Point","coordinates":[-76.3078,37.0386]},"properties":{"name":"1932 E. PEMBROKE AVENUE","styleUrl":"#towerStyle","styleHash":"1d01e409","county":"Hampton city","lat":37.0386,"lng":-76.3078,"structure_type":"POLE","structure_name":null,"structure_address":"1932 E. PEMBROKE AVENUE","height":158.4,"base_elevation":2.746999,"structure_owner_name":"NEXTEL COMMUNICATIONS OF THE MID-ATLANTIC, INC.","structure_manager_name":null,"data_source":"FCC: Land Mobile - Commercial (GIS)"}},{"type":"Feature","geometry":{"type":"Point","coordinates":[-76.4039,37.063899]},"properties":{"name":"400 BUTLER FARM ROAD","styleUrl":"#towerStyle","styleHash":"1d01e409","county":"Hampton city","lat":37.063899,"lng":-76.4039,"structure_type":"B","structure_name":null,"structure_address":"400 BUTLER FARM ROAD","height":61,"base_elevation":4.554191,"structure_owner_name":"NEXTEL COMMUNICATIONS OF THE MID-ATLANTIC, INC.","structure_manager_name":null,"data_source":"FCC: Land Mobile - Commercial (GIS)"}},{"type":"Feature","geometry":{"type":"Point","coordinates":[-76.3411,37.0253]},"properties":{"name":"2 EATON STREET","styleUrl":"#towerStyle","styleHash":"1d01e409","county":"Hampton city","lat":37.0253,"lng":-76.3411,"structure_type":"B","structure_name":null,"structure_address":"2 EATON STREET","height":65.5,"base_elevation":1.350308,"structure_owner_name":"NEXTEL COMMUNICATIONS OF THE MID-ATLANTIC, INC.","structure_manager_name":null,"data_source":"FCC: Land Mobile - Commercial (GIS)"}},{"type":"Feature","geometry":{"type":"Point","coordinates":[-76.4017,37.0133]},"properties":{"name":"Vertical Asset","styleUrl":"#towerStyle","styleHash":"1d01e409","county":"Hampton city","lat":37.0133,"lng":-76.4017,"structure_type":null,"structure_name":null,"structure_address":null,"height":0,"base_elevation":3.246924,"structure_owner_name":"GATELY COMMUNICATION COMPANY INC","structure_manager_name":null,"data_source":"FCC: Land Mobile - Commercial (GIS)"}},{"type":"Feature","geometry":{"type":"Point","coordinates":[-76.4017,37.0133]},"properties":{"name":"501 INDUSTRY DR","styleUrl":"#towerStyle","styleHash":"1d01e409","county":"Hampton city","lat":37.0133,"lng":-76.4017,"structure_type":null,"structure_name":null,"structure_address":"501 INDUSTRY DR","height":0,"base_elevation":3.246924,"structure_owner_name":"GATELY COMMUNICATION COMPANY INC","structure_manager_name":null,"data_source":"FCC: Land Mobile - Commercial (GIS)"}},{"type":"Feature","geometry":{"type":"Point","coordinates":[-76.4017,37.0133]},"properties":{"name":"GATELY COMMUNICATIONS 501","styleUrl":"#towerStyle","styleHash":"1d01e409","county":"Hampton city","lat":37.0133,"lng":-76.4017,"structure_type":"TOWER","structure_name":null,"structure_address":"GATELY COMMUNICATIONS 501","height":61,"base_elevation":3.246924,"structure_owner_name":"Nextel Communications of the Mid-Atlantic, Inc.","structure_manager_name":null,"data_source":"FCC: Land Mobile - Commercial (GIS)"}},{"type":"Feature","geometry":{"type":"Point","coordinates":[-76.375,37.0303]},"properties":{"name":"MC DONALD RD N OR QUEEN","styleUrl":"#towerStyle","styleHash":"1d01e409","county":"Hampton city","lat":37.0303,"lng":-76.375,"structure_type":null,"structure_name":null,"structure_address":"MC DONALD RD N OR QUEEN","height":0,"base_elevation":0.966593,"structure_owner_name":"Nextel Communications of the Mid-Atlantic, Inc.","structure_manager_name":null,"data_source":"FCC: Land Mobile - Commercial (GIS)"}},{"type":"Feature","geometry":{"type":"Point","coordinates":[-76.4261,37.0853]},"properties":{"name":"1435 BIG BETHEL RD","styleUrl":"#towerStyle","styleHash":"1d01e409","county":"Hampton city","lat":37.0853,"lng":-76.4261,"structure_type":null,"structure_name":null,"structure_address":"1435 BIG BETHEL RD","height":0,"base_elevation":7.520823,"structure_owner_name":"NEXTEL COMMUNICATIONS OF THE MID-ATLANTIC, INC.","structure_manager_name":null,"data_source":"FCC: Land Mobile - Commercial (GIS)"}},{"type":"Feature","geometry":{"type":"Point","coordinates":[-76.4261,37.0853]},"properties":{"name":"1435 BIG BETHEL RD","styleUrl":"#towerStyle","styleHash":"1d01e409","county":"Hampton city","lat":37.0853,"lng":-76.4261,"structure_type":"TOWER","structure_name":null,"structure_address":"1435 BIG BETHEL RD","height":0,"base_elevation":7.520823,"structure_owner_name":"NEXTEL COMMUNICATIONS OF THE MID-ATLANTIC, INC.","structure_manager_name":null,"data_source":"FCC: Land Mobile - Commercial (GIS)"}},{"type":"Feature","geometry":{"type":"Point","coordinates":[-76.3078,37.0389]},"properties":{"name":"1930 E PEMBROKE AVE","styleUrl":"#towerStyle","styleHash":"1d01e409","county":"Hampton city","lat":37.0389,"lng":-76.3078,"structure_type":null,"structure_name":null,"structure_address":"1930 E PEMBROKE AVE","height":9,"base_elevation":2.746999,"structure_owner_name":"WVEC TELEVISION, INC.","structure_manager_name":null,"data_source":"FCC: Land Mobile - Broadcast (GIS)"}},{"type":"Feature","geometry":{"type":"Point","coordinates":[-76.291699,37.0742]},"properties":{"name":"TWR 3  ON HALL RD","styleUrl":"#towerStyle","styleHash":"1d01e409","county":"Hampton city","lat":37.0742,"lng":-76.291699,"structure_type":"OTHER","structure_name":null,"structure_address":"TWR 3  ON HALL RD","height":153.1,"base_elevation":2.098042,"structure_owner_name":"COMMONWEALTH RADIO, L.L.C.","structure_manager_name":null,"data_source":"FCC: Land Mobile - Broadcast (GIS)"}},{"type":"Feature","geometry":{"type":"Point","coordinates":[-76.3414,37.0256]},"properties":{"name":"DOWNTOWN HAMPTON CELL SITE - 2 EATON STREET","styleUrl":"#towerStyle","styleHash":"1d01e409","county":"Hampton city","lat":37.0256,"lng":-76.3414,"structure_type":"B","structure_name":null,"structure_address":"DOWNTOWN HAMPTON CELL SITE - 2 EATON STREET","height":65.2,"base_elevation":1.419371,"structure_owner_name":"Alltel Communications, LLC","structure_manager_name":null,"data_source":"FCC: Cellular (GIS)"}},{"type":"Feature","geometry":{"type":"Point","coordinates":[-76.3083,37.0411]},"properties":{"name":"BUCKROE BEACH CELL SITE 24 SKYLAND DRIVE","styleUrl":"#towerStyle","styleHash":"1d01e409","county":"Hampton city","lat":37.0411,"lng":-76.3083,"structure_type":"POLE","structure_name":null,"structure_address":"BUCKROE BEACH CELL SITE 24 SKYLAND DRIVE","height":39.6,"base_elevation":2.893532,"structure_owner_name":"Alltel Communications, LLC","structure_manager_name":null,"data_source":"FCC: Cellular (GIS)"}},{"type":"Feature","geometry":{"type":"Point","coordinates":[-76.396399,37.1017]},"properties":{"name":"POQUOSON CELL SITE: 6 SHUTTLE COURT","styleUrl":"#towerStyle","styleHash":"1d01e409","county":"Hampton city","lat":37.1017,"lng":-76.396399,"structure_type":"POLE","structure_name":null,"structure_address":"POQUOSON CELL SITE: 6 SHUTTLE COURT","height":46.9,"base_elevation":3.016025,"structure_owner_name":"Alltel Communications, LLC","structure_manager_name":null,"data_source":"FCC: Cellular (GIS)"}},{"type":"Feature","geometry":{"type":"Point","coordinates":[-76.315799,37.0561]},"properties":{"name":"522 WOODLAND ROAD  ( 085562 )","styleUrl":"#towerStyle","styleHash":"1d01e409","county":"Hampton city","lat":37.0561,"lng":-76.315799,"structure_type":"POLE","structure_name":null,"structure_address":"522 WOODLAND ROAD  ( 085562 )","height":46.9,"base_elevation":2.660694,"structure_owner_name":"Cellco Partnership","structure_manager_name":null,"data_source":"FCC: Cellular (GIS)"}},{"type":"Feature","geometry":{"type":"Point","coordinates":[-76.3217,37.0231]},