{"type":"FeatureCollection","features":[{"type":"Feature","geometry":{"type":"Point","coordinates":[-76.10957768333543,36.765987761607555]},"properties":{"OBJECTID":1,"GPIN":14842794330000,"NAME2":"New Castle Elementary School","ADDRESS":"4136 DAM NECK RD","WEB_LINK":"http://www.vbgov.com/residents/emergency-preparedness/pages/emergency%20shelters.aspx","SP_Y":3447222.89596121,"SP_X":12183056.3000288,"LATI":36.76598776,"LONG_":-76.10957768,"SUB_CATEGORY":"Hurricane Shelter Class 2","CATEGORY":"SHELTERS"}},{"type":"Feature","geometry":{"type":"Point","coordinates":[-76.00696484421263,36.78749186327579]},"properties":{"OBJECTID":2,"GPIN":24152589670000,"NAME2":"Corporate Landing Elementary School","ADDRESS":"1590 Corporate Landing Pkwy","WEB_LINK":"http://www.vbgov.com/residents/emergency-preparedness/pages/emergency%20shelters.aspx","SP_Y":3455826.83708663,"SP_X":12212897.3758452,"LATI":36.78749186,"LONG_":-76.00696484,"SUB_CATEGORY":"Hurricane Shelter Class 2","CATEGORY":"SHELTERS"}},{"type":"Feature","geometry":{"type":"Point","coordinates":[-76.10010051817339,36.798262637298684]},"properties":{"OBJECTID":3,"GPIN":14855839590000,"NAME2":"Rosemont Elementary School","ADDRESS":"1257 ROSEMONT RD","WEB_LINK":"http://www.vbgov.com/residents/emergency-preparedness/pages/emergency%20shelters.aspx","SP_Y":3459040.31589588,"SP_X":12185532.8118081,"LATI":36.79826264,"LONG_":-76.10010052,"SUB_CATEGORY":"Hurricane Shelter Class 2","CATEGORY":"SHELTERS"}},{"type":"Feature","geometry":{"type":"Point","coordinates":[-76.11155792236121,36.80467820720141]},"properties":{"OBJECTID":5,"GPIN":14862146150000,"NAME2":"Green Run High School","ADDRESS":"1700 DAHLIA DR","WEB_LINK":"http://www.vbgov.com/residents/emergency-preparedness/pages/emergency%20shelters.aspx","SP_Y":3461290.30877121,"SP_X":12182120.0660089,"LATI":36.80467821,"LONG_":-76.11155792,"SUB_CATEGORY":"Hurricane Shelter Class 1","CATEGORY":"SHELTERS"}},{"type":"Feature","geometry":{"type":"Point","coordinates":[-76.14598263875808,36.785918185413394]},"properties":{"OBJECTID":6,"GPIN":14752411120000,"NAME2":"Salem Middle School","ADDRESS":"2380 LYNNHAVEN PKWY","WEB_LINK":"http://www.vbgov.com/residents/emergency-preparedness/pages/emergency%20shelters.aspx","SP_Y":3454209.0634193,"SP_X":12172214.8213837,"LATI":36.78591819,"LONG_":-76.14598264,"SUB_CATEGORY":"Hurricane Shelter Class 1","CATEGORY":"SHELTERS"}},{"type":"Feature","geometry":{"type":"Point","coordinates":[-76.2012093376604,36.81383486629629]},"properties":{"OBJECTID":8,"GPIN":14565458890000,"NAME2":"Woodstock Elementary School","ADDRESS":"6016 Providence Rd","WEB_LINK":"http://www.vbgov.com/residents/emergency-preparedness/pages/emergency%20shelters.aspx","SP_Y":3463971.57210946,"SP_X":12155799.2193725,"LATI":36.81383487,"LONG_":-76.20120934,"SUB_CATEGORY":"Hurricane Shelter Class 2","CATEGORY":"SHELTERS"}},{"type":"Feature","geometry":{"type":"Point","coordinates":[-75.99238511977775,36.808704917397584]},"properties":{"OBJECTID":9,"GPIN":24166368740000,"NAME2":"Birdneck Elementary School","ADDRESS":"957 S BIRDNECK RD","WEB_LINK":"http://www.vbgov.com/residents/emergency-preparedness/pages/emergency%20shelters.aspx","SP_Y":3463660.52975255,"SP_X":12216960.3057115,"LATI":36.80870492,"LONG_":-75.99238512,"SUB_CATEGORY":"Hurricane Shelter Class 1","CATEGORY":"SHELTERS"}},{"type":"Feature","geometry":{"type":"Point","coordinates":[-76.10594502298895,36.776927578000794]},"properties":{"OBJECTID":10,"GPIN":14854231010000,"NAME2":"Landstown Elementary School","ADDRESS":"2212 RECREATION DR","WEB_LINK":"http://www.vbgov.com/residents/emergency-preparedness/pages/emergency%20shelters.aspx","SP_Y":3451231.59791754,"SP_X":12184019.0576177,"LATI":36.77692758,"LONG_":-76.10594502,"SUB_CATEGORY":"Hurricane Shelter Class 2","CATEGORY":"SHELTERS"}},{"type":"Feature","geometry":{"type":"Point","coordinates":[-76.10092756381786,36.78019705393861]},"properties":{"OBJECTID":11,"GPIN":14855225160000,"NAME2":"Landstown High School","ADDRESS":"2001 CONCERT DR","WEB_LINK":"http://www.vbgov.com/residents/emergency-preparedness/pages/emergency%20shelters.aspx","SP_Y":3452458.88220838,"SP_X":12185457.8641233,"LATI":36.78019706,"LONG_":-76.10092756,"SUB_CATEGORY":"Hurricane Shelter Class 1","CATEGORY":"SHELTERS"}},{"type":"Feature","geometry":{"type":"Point","coordinates":[-76.14352420584534,36.782794980341414]},"properties":{"OBJECTID":12,"GPIN":14752363780000,"NAME2":"Salem High School","ADDRESS":"1993 SUNDEVIL DR","WEB_LINK":"http://www.vbgov.com/residents/emergency-preparedness/pages/emergency%20shelters.aspx","SP_Y":3453090.2664443,"SP_X":12172962.9261867,"LATI":36.78279498,"LONG_":-76.14352421,"SUB_CATEGORY":"Hurricane Shelter Class 1","CATEGORY":"SHELTERS"}},{"type":"Feature","geometry":{"type":"Point","coordinates":[-76.01138994620057,36.78732840576133]},"properties":{"OBJECTID":13,"GPIN":24151548070000,"NAME2":"Corporate Landing Middle School","ADDRESS":"1597 CORPORATE LANDING PKWY","WEB_LINK":"http://www.vbgov.com/residents/emergency-preparedness/pages/emergency%20shelters.aspx","SP_Y":3455733.15846822,"SP_X":12211603.5395221,"LATI":36.78732841,"LONG_":-76.01138995,"SUB_CATEGORY":"Hurricane Shelter Class 1","CATEGORY":"SHELTERS"}},{"type":"Feature","geometry":{"type":"Point","coordinates":[-76.14049010105744,36.897120773465794]},"properties":{"OBJECTID":14,"GPIN":14792498200000,"NAME2":"Hermitage Elementary School","ADDRESS":"1701 PLEASURE HOUSE RD","WEB_LINK":"http://www.vbgov.com/residents/emergency-preparedness/pages/emergency%20shelters.aspx","SP_Y":3494723.74452887,"SP_X":12172810.9724224,"LATI":36.89712077,"LONG_":-76.1404901,"SUB_CATEGORY":"Hurricane Shelter Class 2","CATEGORY":"SHELTERS"}},{"type":"Feature","geometry":{"type":"Point","coordinates":[-76.18141768406679,36.784791592236736]},"properties":{"OBJECTID":15,"GPIN":14651344580000,"NAME2":"Tallwood High School","ADDRESS":"1668 KEMPSVILLE RD","WEB_LINK":"http://www.vbgov.com/residents/emergency-preparedness/pages/emergency%20shelters.aspx","SP_Y":3453542.22551413,"SP_X":12161850.9851561,"LATI":36.78479159,"LONG_":-76.18141768,"SUB_CATEGORY":"Hurricane Shelter Class 1","CATEGORY":"SHELTERS"}},{"type":"Feature","geometry":{"type":"Point","coordinates":[-76.17968098011116,36.8952050033813]},"properties":{"OBJECTID":16,"GPIN":14691347310000,"NAME2":"Bayside Elementary School","ADDRESS":"5649 BAYSIDE RD","WEB_LINK":"http://www.vbgov.com/residents/emergency-preparedness/pages/emergency%20shelters.aspx","SP_Y":3493742.4252973,"SP_X":12161371.4667581,"LATI":36.895205,"LONG_":-76.17968098,"SUB_CATEGORY":"Hurricane Shelter Class 1","CATEGORY":"SHELTERS"}},{"type":"Feature","geometry":{"type":"Point","coordinates":[-76.12276211572495,36.7981837459481]},"properties":{"OBJECTID":17,"GPIN":14758886130000,"NAME2":"Parkway Elementary School","ADDRESS":"4180 OHARE DR","WEB_LINK":"http://www.vbgov.com/residents/emergency-preparedness/pages/emergency%20shelters.aspx","SP_Y":3458843.73459613,"SP_X":12178900.3313067,"LATI":36.79818375,"LONG_":-76.12276212,"SUB_CATEGORY":"Hurricane Shelter Class 2","CATEGORY":"SHELTERS"}},{"type":"Feature","geometry":{"type":"Point","coordinates":[-76.10374929429612,36.77719825307923]},"properties":{"OBJECTID":18,"GPIN":14854231010000,"NAME2":"Landstown Middle School","ADDRESS":"2204 RECREATION DR","WEB_LINK":"http://www.vbgov.com/residents/emergency-preparedness/pages/emergency%20shelters.aspx","SP_Y":3451346.4293808,"SP_X":12184659.4405233,"LATI":36.77719825,"LONG_":-76.10374929,"SUB_CATEGORY":"Hurricane Shelter Class 1","CATEGORY":"SHELTERS"}},{"type":"Feature","geometry":{"type":"Point","coordinates":[-76.14226356766767,36.8170868345567]},"properties":{"OBJECTID":20,"GPIN":14763516350000,"NAME2":"Kempsville Meadows Elementary School","ADDRESS":"736 EDWIN DR","WEB_LINK":"http://www.vbgov.com/residents/emergency-preparedness/pages/emergency%20shelters.aspx","SP_Y":3465580.73030846,"SP_X":12173020.2164265,"LATI":36.81708684,"LONG_":-76.14226357,"SUB_CATEGORY":"Hurricane Shelter Class 2","CATEGORY":"SHELTERS"}},{"type":"Feature","geometry":{"type":"Point","coordinates":[-76.18996058157035,36.76813072572426]},"properties":{"OBJECTID":21,"GPIN":14549755950000,"NAME2":"Centerville Elementary School","ADDRESS":"2201 CENTERVILLE TPKE","WEB_LINK":"http://www.vbgov.com/residents/emergency-preparedness/pages/emergency%20shelters.aspx","SP_Y":3447416.74760763,"SP_X":12159498.3468167,"LATI":36.76813073,"LONG_":-76.18996058,"SUB_CATEGORY":"Hurricane Shelter Class 2","CATEGORY":"SHELTERS"}},{"type":"Feature","geometry":{"type":"Point","coordinates":[-76.1970285971927,36.779710298799706]},"properties":{"OBJECTID":22,"GPIN":14557124390000,"NAME2":"Tallwood Elementary School","ADDRESS":"2025 KEMPSVILLE RD","WEB_LINK":"http://www.vbgov.com/residents/emergency-preparedness/pages/emergency%20shelters.aspx","SP_Y":3451580.86099854,"SP_X":12157325.7868574,"LATI":36.7797103,"LONG_":-76.1970286,"SUB_CATEGORY":"Hurricane Shelter Class 2","CATEGORY":"SHELTERS"}},{"type":"Feature","geometry":{"type":"Point","coordinates":[-76.02766288714821,36.859624721591935]},"properties":{"OBJECTID":23,"GPIN":24086211840000,"NAME2":"Linkhorn Park Elementary School","ADDRESS":"977 FIRST COLONIAL RD","WEB_LINK":"http://www.vbgov.com/residents/emergency-preparedness/pages/emergency%20shelters.aspx","SP_Y":3481920.92039704,"SP_X":12206150.5031841,"LATI":36.85962472,"LONG_":-76.02766289,"SUB_CATEGORY":"Hurricane Shelter Class 2","CATEGORY":"SHELTERS"}},{"type":"Feature","geometry":{"type":"Point","coordinates":[-76.05184256027479,36.88737634464002]},"properties":{"OBJECTID":24,"GPIN":14998186570000,"NAME2":"Cox High School","ADDRESS":"2425 SHOREHAVEN DR","WEB_LINK":"http://www.vbgov.com/residents/emergency-preparedness/pages/emergency%20shelters.aspx","SP_Y":3491837.13383229,"SP_X":12198816.8108306,"LATI":36.88737635,"LONG_":-76.05184256,"SUB_CATEGORY":"Hurricane Shelter Class 1","CATEGORY":"SHELTERS"}},{"type":"Feature","geometry":{"type":"Point","coordinates":[-76.01838071748826,36.766298234637595]},"properties":{"OBJECTID":25,"GPIN":24049767130000,"NAME2":"Strawbridge Elementary School","ADDRESS":"2553 STRAWBRIDGE RD","WEB_LINK":"http://www.vbgov.com/residents/emergency-preparedness/pages/emergency%20shelters.aspx","SP_Y":3448025.15354305,"SP_X":12209758.3056798,"LATI":36.76629824,"LONG_":-76.01838072,"SUB_CATEGORY":"Hurricane Shelter Class 2","CATEGORY":"SHELTERS"}},{"type":"Feature","geometry":{"type":"Point","coordinates":[-76.1390754287581,36.77333597332329]},"properties":{"OBJECTID":26,"GPIN":14754031760000,"NAME2":"Glenwood Elementary School","ADDRESS":"2213 ROUND HILL DR","WEB_LINK":"http://www.vbgov.com/residents/emergency-preparedness/pages/emergency%20shelters.aspx","SP_Y":3449680.01210996,"SP_X":12174351.5077271,"LATI":36.77333597,"LONG_":-76.13907543,"SUB_CATEGORY":"Hurricane Shelter Class 2","CATEGORY":"SHELTERS"}}]}