{"type":"FeatureCollection","features":[{"type":"Feature","geometry":{"type":"Point","coordinates":[-80.075699,36.6066]},"properties":{"name":"Stella Loop Road","styleUrl":"#towerStyle","styleHash":"1d01e409","county":"Patrick County","lat":36.6066,"lng":-80.075699,"structure_type":null,"structure_name":null,"structure_address":"Stella Loop Road","height":57.6,"base_elevation":322.228576,"structure_owner_name":"Beacon Towers","structure_manager_name":null,"data_source":"FCC: Antenna Structure Registration (GIS)"}},{"type":"Feature","geometry":{"type":"Point","coordinates":[-80.1978,36.6285]},"properties":{"name":"255 Vernon Drive","styleUrl":"#towerStyle","styleHash":"1d01e409","county":"Patrick County","lat":36.6285,"lng":-80.1978,"structure_type":null,"structure_name":null,"structure_address":"255 Vernon Drive","height":76.2,"base_elevation":384.88565,"structure_owner_name":"Beacon Towers","structure_manager_name":null,"data_source":"FCC: Antenna Structure Registration (GIS)"}},{"type":"Feature","geometry":{"type":"Point","coordinates":[-80.1731,36.602]},"properties":{"name":"South Fork Loop","styleUrl":"#towerStyle","styleHash":"1d01e409","county":"Patrick County","lat":36.602,"lng":-80.1731,"structure_type":null,"structure_name":null,"structure_address":"South Fork Loop","height":76.2,"base_elevation":340.889739,"structure_owner_name":"Beacon Towers","structure_manager_name":null,"data_source":"FCC: Antenna Structure Registration (GIS)"}},{"type":"Feature","geometry":{"type":"Point","coordinates":[-80.2247,36.693]},"properties":{"name":"Bull Mountain, Fire Trail Ln. 3.3 miles N of Tudor Orchard Ln., Patrick County","styleUrl":"#towerStyle","styleHash":"1d01e409","county":"Patrick County","lat":36.693,"lng":-80.2247,"structure_type":null,"structure_name":null,"structure_address":"Bull Mountain, Fire Trail Ln. 3.3 miles N of Tudor Orchard Ln., Patrick County","height":54.8,"base_elevation":978.803283,"structure_owner_name":"Virginia Department of State Police","structure_manager_name":null,"data_source":"FCC: Antenna Structure Registration (GIS)"}},{"type":"Feature","geometry":{"type":"Point","coordinates":[-80.2633,36.6236]},"properties":{"name":"VA HWY 631, 0.1 MI NW OF JCT W/ VA HWY 682","styleUrl":"#towerStyle","styleHash":"1d01e409","county":"Patrick County","lat":36.6236,"lng":-80.2633,"structure_type":null,"structure_name":null,"structure_address":"VA HWY 631, 0.1 MI NW OF JCT W/ VA HWY 682","height":61.6,"base_elevation":438.491882,"structure_owner_name":"MOUNTAIN VIEW COMMUNICATIONS INC","structure_manager_name":null,"data_source":"FCC: Antenna Structure Registration (GIS)"}},{"type":"Feature","geometry":{"type":"Point","coordinates":[-80.0545,36.5949]},"properties":{"name":"State Route 629","styleUrl":"#towerStyle","styleHash":"1d01e409","county":"Patrick County","lat":36.5949,"lng":-80.0545,"structure_type":null,"structure_name":null,"structure_address":"State Route 629","height":50.2,"base_elevation":298.806762,"structure_owner_name":"United States Cellular Corporation","structure_manager_name":null,"data_source":"FCC: Antenna Structure Registration (GIS)"}},{"type":"Feature","geometry":{"type":"Point","coordinates":[-80.4331,36.6137]},"properties":{"name":"Adjacent to 576 Ike Slate Lane","styleUrl":"#towerStyle","styleHash":"1d01e409","county":"Patrick County","lat":36.6137,"lng":-80.4331,"structure_type":null,"structure_name":null,"structure_address":"Adjacent to 576 Ike Slate Lane","height":85.3,"base_elevation":494.664031,"structure_owner_name":"Appalachian Power Company dba American Electric Power","structure_manager_name":null,"data_source":"FCC: Antenna Structure Registration (GIS)"}},{"type":"Feature","geometry":{"type":"Point","coordinates":[-80.452299,36.7284]},"properties":{"name":"1532 Widow Drive","styleUrl":"#towerStyle","styleHash":"1d01e409","county":"Patrick County","lat":36.7284,"lng":-80.452299,"structure_type":null,"structure_name":null,"structure_address":"1532 Widow Drive","height":82.3,"base_elevation":963.501098,"structure_owner_name":"Cellco Partnership","structure_manager_name":null,"data_source":"FCC: Antenna Structure Registration (GIS)"}},{"type":"Feature","geometry":{"type":"Point","coordinates":[-80.1353,36.586099]},"properties":{"name":"0.07 mi South of US Hwy 58","styleUrl":"#towerStyle","styleHash":"1d01e409","county":"Patrick County","lat":36.586099,"lng":-80.1353,"structure_type":null,"structure_name":null,"structure_address":"0.07 mi South of US Hwy 58","height":83.8,"base_elevation":335.636322,"structure_owner_name":"United States Cellular Corporation","structure_manager_name":null,"data_source":"FCC: Antenna Structure Registration (GIS)"}},{"type":"Feature","geometry":{"type":"Point","coordinates":[-80.4006,36.7367]},"properties":{"name":"MEADOWS OF DAN SCHOOL","styleUrl":"#towerStyle","styleHash":"1d01e409","county":"Patrick County","lat":36.7367,"lng":-80.4006,"structure_type":"TOWER","structure_name":null,"structure_address":"MEADOWS OF DAN SCHOOL","height":51,"base_elevation":902.667419,"structure_owner_name":"PATRICK, COUNTY OF","structure_manager_name":null,"data_source":"FCC: Land Mobile - Private (GIS)"}},{"type":"Feature","geometry":{"type":"Point","coordinates":[-80.5003,36.6217]},"properties":{"name":"Ravens Rock Church  1.7 mi  NNE","styleUrl":"#towerStyle","styleHash":"1d01e409","county":"Patrick County","lat":36.6217,"lng":-80.5003,"structure_type":"PIPE","structure_name":null,"structure_address":"Ravens Rock Church  1.7 mi  NNE","height":5.2,"base_elevation":457.184875,"structure_owner_name":"Virginia Department of Emergency Management","structure_manager_name":null,"data_source":"FCC: Land Mobile - Private (GIS)"}},{"type":"Feature","geometry":{"type":"Point","coordinates":[-80.6019,36.6422]},"properties":{"name":"Willow Hill Church  5.9 mi  WNW","styleUrl":"#towerStyle","styleHash":"1d01e409","county":"Patrick County","lat":36.6422,"lng":-80.6019,"structure_type":"PIPE","structure_name":null,"structure_address":"Willow Hill Church  5.9 mi  WNW","height":5.2,"base_elevation":488.643249,"structure_owner_name":"Virginia Department of Emergency Management","structure_manager_name":null,"data_source":"FCC: Land Mobile - Private (GIS)"}},{"type":"Feature","geometry":{"type":"Point","coordinates":[-80.5472,36.6183]},"properties":{"name":"Doe Run Church  2.4 mi  NW","styleUrl":"#towerStyle","styleHash":"1d01e409","county":"Patrick County","lat":36.6183,"lng":-80.5472,"structure_type":"PIPE","structure_name":null,"structure_address":"Doe Run Church  2.4 mi  NW","height":5.2,"base_elevation":460.793762,"structure_owner_name":"Virginia Department of Emergency Management","structure_manager_name":null,"data_source":"FCC: Land Mobile - Private (GIS)"}},{"type":"Feature","geometry":{"type":"Point","coordinates":[-80.5844,36.566399]},"properties":{"name":"Samuels Grove Chuch  4.7 mi WSW","styleUrl":"#towerStyle","styleHash":"1d01e409","county":"Patrick County","lat":36.566399,"lng":-80.5844,"structure_type":"PIPE","structure_name":null,"structure_address":"Samuels Grove Chuch  4.7 mi WSW","height":5.2,"base_elevation":397.005432,"structure_owner_name":"Virginia Department of Emergency Management","structure_manager_name":null,"data_source":"FCC: Land Mobile - Private (GIS)"}},{"type":"Feature","geometry":{"type":"Point","coordinates":[-80.3442,36.5833]},"properties":{"name":"Dry Pond  5.8 mi  SW","styleUrl":"#towerStyle","styleHash":"1d01e409","county":"Patrick County","lat":36.5833,"lng":-80.3442,"structure_type":"PIPE","structure_name":null,"structure_address":"Dry Pond  5.8 mi  SW","height":5.2,"base_elevation":404.727142,"structure_owner_name":"Virginia Department of Emergency Management","structure_manager_name":null,"data_source":"FCC: Land Mobile - Private (GIS)"}},{"type":"Feature","geometry":{"type":"Point","coordinates":[-80.1467,36.6314]},"properties":{"name":"Critz  6.9 mi  E","styleUrl":"#towerStyle","styleHash":"1d01e409","county":"Patrick County","lat":36.6314,"lng":-80.1467,"structure_type":"PIPE","structure_name":null,"structure_address":"Critz  6.9 mi  E","height":5.2,"base_elevation":348.217102,"structure_owner_name":"Virginia Department of Emergency Management","structure_manager_name":null,"data_source":"FCC: Land Mobile - Private (GIS)"}},{"type":"Feature","geometry":{"type":"Point","coordinates":[-80.309399,36.7111]},"properties":{"name":"Trot Valley  4.2 mi  NW","styleUrl":"#towerStyle","styleHash":"1d01e409","county":"Patrick County","lat":36.7111,"lng":-80.309399,"structure_type":"PIPE","structure_name":null,"structure_address":"Trot Valley  4.2 mi  NW","height":5.2,"base_elevation":817.318481,"structure_owner_name":"Virginia Department of Emergency Management","structure_manager_name":null,"data_source":"FCC: Land Mobile - Private (GIS)"}},{"type":"Feature","geometry":{"type":"Point","coordinates":[-80.2886,36.6997]},"properties":{"name":"Central Academy  4.0 mi  NNW","styleUrl":"#towerStyle","styleHash":"1d01e409","county":"Patrick County","lat":36.6997,"lng":-80.2886,"structure_type":"PIPE","structure_name":null,"structure_address":"Central Academy  4.0 mi  NNW","height":5.2,"base_elevation":487.967529,"structure_owner_name":"Virginia Department of Emergency Management","structure_manager_name":null,"data_source":"FCC: Land Mobile - Private (GIS)"}},{"type":"Feature","geometry":{"type":"Point","coordinates":[-80.3339,36.7136]},"properties":{"name":"Circle M  6.1 mi  NW","styleUrl":"#towerStyle","styleHash":"1d01e409","county":"Patrick County","lat":36.7136,"lng":-80.3339,"structure_type":"PIPE","structure_name":null,"structure_address":"Circle M  6.1 mi  NW","height":5.2,"base_elevation":920.04663,"structure_owner_name":"Virginia Department of Emergency Management","structure_manager_name":null,"data_source":"FCC: Land Mobile - Private (GIS)"}},{"type":"Feature","geometry":{"type":"Point","coordinates":[-80.3503,36.6939]},"properties":{"name":"Busted Rock #2  5.7 mi  NW","styleUrl":"#towerStyle","styleHash":"1d01e409","county":"Patrick County","lat":36.6939,"lng":-80.3503,"structure_type":"PIPE","structure_name":null,"structure_address":"Busted Rock #2  5.7 mi  NW","height":5.2,"base_elevation":838.776672,"structure_owner_name":"Virginia Department of Emergency Management","structure_manager_name":null,"data_source":"FCC: Land Mobile - Private (GIS)"}},{"type":"Feature","geometry":{"type":"Point","coordinates":[-80.3794,36.6717]},"properties":{"name":"Busted Rock #1  6.5 mi  WNW","styleUrl":"#towerStyle","styleHash":"1d01e409","county":"Patrick County","lat":36.6717,"lng":-80.3794,"structure_type":"PIPE","structure_name":null,"structure_address":"Busted Rock #1  6.5 mi  WNW","height":5.2,"base_elevation":825.347351,"structure_owner_name":"Virginia Department of Emergency Management","structure_manager_name":null,"data_source":"FCC: Land Mobile - Private (GIS)"}},{"type":"Feature","geometry":{"type":"Point","coordinates":[-80.433,36.6136]},"properties":{"name":"adjacent to 576 Ike Slate Lane 1.8mi North of","styleUrl":"#towerStyle","styleHash":"1d01e409","county":"Patrick County","lat":36.6136,"lng":-80.433,"structure_type":"TOWER","structure_name":null,"structure_address":"adjacent to 576 Ike Slate Lane 1.8mi North of","height":91.4,"base_elevation":494.762786,"structure_owner_name":"American Electric Power Service Corporation","structure_manager_name":null,"data_source":"FCC: Land Mobile - Private (GIS)"}},{"type":"Feature","geometry":{"type":"Point","coordinates":[-80.384999,36.6664]},"properties":{"name":"PRIMLAND END OF BUSTED ROCK RD OFF RTE 58","styleUrl":"#towerStyle","styleHash":"1d01e409","county":"Patrick County","lat":36.6664,"lng":-80.384999,"structure_type":"TOWER","structure_name":null,"structure_address":"PRIMLAND END OF BUSTED ROCK RD OFF RTE 58","height":54.9,"base_elevation":873.896789,"structure_owner_name":"PATRICK, COUNTY OF","structure_manager_name":null,"data_source":"FCC: Land Mobile - Private (GIS)"}},{"type":"Feature","geometry":{"type":"Point","coordinates":[-80.2681,36.6408]},"properties":{"name":"RT 58 BEHIND COUNTY COURT HOUSE","styleUrl":"#towerStyle","styleHash":"1d01e409","county":"Patrick County","lat":36.6408,"lng":-80.2681,"structure_type":"BANT","structure_name":null,"structure_address":"RT 58 BEHIND COUNTY COURT HOUSE","height":6,"base_elevation":397.69403,"structure_owner_name":"PATRICK COUNTY PUBLIC SCHOOLS","structure_manager_name":null,"data_source":"FCC: Land Mobile - Private (GIS)"}},{"type":"Feature","geometry":{"type":"Point","coordinates":[-80.274999,36.7892]},"properties":{"name":"RT 1 S WOOLWINE ELEMENTARY","styleUrl":"#towerStyle","styleHash":"1d01e409","county":"Patrick County","lat":36.7892,"lng":-80.274999,"structure_type":"BANT","structure_name":null,"structure_address":"RT 1 S WOOLWINE ELEMENTARY","height":6,"base_elevation":445.121459,"structure_owner_name":"PATRICK COUNTY PUBLIC SCHOOLS","structure_manager_name":null,"data_source":"FCC: Land Mobile - Private (GIS)"}},{"type":"Feature","geometry":{"type":"Point","coordinates":[-80.3236,36.6347]},"properties":{"name":"SR 8 S PATRICK CO HIGH SCHOOL","styleUrl":"#towerStyle","styleHash":"1d01e409","county":"Patrick County","lat":36.6347,"lng":-80.3236,"structure_type":"BANT","structure_name":null,"structure_address":"SR 8 S PATRICK CO HIGH SCHOOL","height":6,"base_elevation":521.130432,"structure_owner_name":"PATRICK COUNTY PUBLIC SCHOOLS","structure_manager_name":null,"data_source":"FCC: Land Mobile - Private (GIS)"}},{"type":"Feature","geometry":{"type":"Point","coordinates":[-80.3833,36.5742]},"properties":{"name":"US RT 58 W MEADOWS OF DAN ELEM","styleUrl":"#towerStyle","styleHash":"1d01e409","county":"Patrick County","lat":36.5742,"lng":-80.3833,"structure_type":"BANT","structure_name":null,"structure_address":"US RT 58 W MEADOWS OF DAN ELEM","height":6,"base_elevation":380.361846,"structure_owner_name":"PATRICK COUNTY PUBLIC SCHOOLS","structure_manager_name":null,"data_source":"FCC: Land Mobile - Private (GIS)"}},{"type":"Feature","geometry":{"type":"Point","coordinates":[-80.5078,36.5986]},"properties":{"name":"SR 733 BLUE RIDGE ELEMENTARY SCHOOL","styleUrl":"#towerStyle","styleHash":"1d01e409","county":"Patrick County","lat":36.5986,"lng":-80.5078,"structure_type":"BANT","structure_name":null,"structure_address":"SR 733 BLUE RIDGE ELEMENTARY SCHOOL","height":6,"base_elevation":439.770751,"structure_owner_name":"PATRICK COUNTY PUBLIC SCHOOLS","structure_manager_name":null,"data_source":"FCC: Land Mobile - Private (GIS)"}},{"type":"Feature","geometry":{"type":"Point","coordinates":[-80.2247,36.6928]},"properties":{"name":"BULL MTN 5 KM N","styleUrl":"#towerStyle","styleHash":"1d01e409","county":"Patrick County","lat":36.6928,"lng":-80.2247,"structure_type":"TOWER","structure_name":null,"structure_address":"BULL MTN 5 KM N","height":40,"base_elevation":977.075378,"structure_owner_name":"PATRICK COUNTY PUBLIC SCHOOLS","structure_manager_name":null,"data_source":"FCC: Land Mobile - Private (GIS)"}},{"type":"Feature","geometry":{"type":"Point","coordinates":[-80.358299,36.7231]},"properties":{"name":"346 STATE SHED ROAD","styleUrl":"#towerStyle","styleHash":"1d01e409","county":"Patrick County","lat":36.7231,"lng":-80.358299,"structure_type":"TOWER","structure_name":null,"structure_address":"346 STATE SHED ROAD","height":14.3,"base_elevation":903.82611,"structure_owner_name":"GOAD, GARRETT G","structure_manager_name":null,"data_source":"FCC: Land Mobile - Private (GIS)"}},{"type":"Feature","geometry":{"type":"Point","coordinates":[-80.2247,36.6931]},"properties":{"name":"RICHWOOD KNOB FIRE TWR, 3 MILES N OF","styleUrl":"#towerStyle","styleHash":"1d01e409","county":"Patrick County","lat":36.6931,"lng":-80.2247,"structure_type":"TOWER","structure_name":null,"structure_address":"RICHWOOD KNOB FIRE TWR, 3 MILES N OF","height":50,"base_elevation":978.682373,"structure_owner_name":"American Electric Power Service Corporation","structure_manager_name":null,"data_source":"FCC: Land Mobile - Private (GIS)"}},{"type":"Feature","geometry":{"type":"Point","coordinates":[-80.358299,36.8025]},"properties":{"name":"GRASSY KNOLL","styleUrl":"#towerStyle","styleHash":"1d01e409","county":"Patrick County","lat":36.8025,"lng":-80.358299,"structure_type":"TOWER","structure_name":null,"structure_address":"GRASSY KNOLL","height":18,"base_elevation":917.910278,"structure_owner_name":"FLOYD, COUNTY OF","structure_manager_name":null,"data_source":"FCC: Land Mobile - Private (GIS)"}},{"type":"Feature","geometry":{"type":"Point","coordinates":[-80.4108,36.735]},"properties":{"name":"Vertical Asset","styleUrl":"#towerStyle","styleHash":"1d01e409","county":"Patrick County","lat":36.735,"lng":-80.4108,"structure_type":null,"structure_name":null,"structure_address":null,"height":0,"base_elevation":901.01007,"structure_owner_name":"Primland","structure_manager_name":null,"data_source":"FCC: Land Mobile - Private (GIS)"}},{"type":"Feature","geometry":{"type":"Point","coordinates":[-80.2828,36.6353]},"properties":{"name":"RAW WATER INTAKE PS, RTU 1 STATE ROUTHE 631","styleUrl":"#towerStyle","styleHash":"1d01e409","county":"Patrick County","lat":36.6353,"lng":-80.2828,"structure_type":"POLE","structure_name":null,"structure_address":"RAW WATER INTAKE PS, RTU 1 STATE ROUTHE 631","height":6,"base_elevation":377.720092,"structure_owner_name":"TOWN OF STUART","structure_manager_name":null,"data_source":"FCC: Land Mobile - Private (GIS)"}},{"type":"Feature","geometry":{"type":"Point","coordinates":[-80.2892,36.627]},"properties":{"name":"WPT MASTER & PLANT CONTROL PANEL 1.45 KM WEST OF ROUTE 8","styleUrl":"#towerStyle","styleHash":"1d01e409","county":"Patrick County","lat":36.627,"lng":-80.2892,"structure_type":"B","structure_name":null,"structure_address":"WPT MASTER & PLANT CONTROL PANEL 1.45 KM WEST OF ROUTE 8","height":6,"base_elevation":444.264526,"structure_owner_name":"TOWN OF STUART","structure_manager_name":null,"data_source":"FCC: Land Mobile - Private (GIS)"}},{"type":"Feature","geometry":{"type":"Point","coordinates":[-80.2247,36.6928]},"properties":{"name":"Vertical Asset","styleUrl":"#towerStyle","styleHash":"1d01e409","county":"Patrick County","lat":36.6928,"lng":-80.2247,"structure_type":null,"structure_name":null,"structure_address":null,"height":0,"base_elevation":977.075378,"structure_owner_name":"Virginia Department of Forestry","structure_manager_name":null,"data_source":"FCC: Land Mobile - Private (GIS)"}},{"type":"Feature","geometry":{"type":"Point","coordinates":[-80.3581,36.7178]},"properties":{"name":"Vertical Asset","styleUrl":"#towerStyle","styleHash":"1d01e409","county":"Patrick County","lat":36.7178,"lng":-80.3581,"structure_type":null,"structure_name":null,"structure_address":null,"height":0,"base_elevation":872.813049,"structure_owner_name":"Campbell, Wilma P","structure_manager_name":null,"data_source":"FCC: Land Mobile - Private (GIS)"}},{"type":"Feature","geometry":{"type":"Point","coordinates":[-80.3581,36.7178]},"properties":{"name":"7958 Jeb Stuart","styleUrl":"#towerStyle","styleHash":"1d01e409","county":"Patrick County","lat":36.7178,"lng":-80.3581,"structure_type":"TOWER","structure_name":null,"structure_address":"7958 Jeb Stuart","height":17,"base_elevation":872.813049,"structure_owner_name":"Campbell, Wilma P","structure_manager_name":null,"data_source":"FCC: Land Mobile - Private (GIS)"}},{"type":"Feature","geometry":{"type":"Point","coordinates":[-80.3581,36.7178]},"properties":{"name":"7958 JEB Stuart Hwy","styleUrl":"#towerStyle","styleHash":"1d01e409","county":"Patrick County","lat":36.7178,"lng":-80.3581,"structure_type":"TOWER","structure_name":null,"structure_address":"7958 JEB Stuart Hwy","height":17,"base_elevation":872.813049,"structure_owner_name":"Campbell, Wilma P","structure_manager_name":null,"data_source":"FCC: Land Mobile - Private (GIS)"}},{"type":"Feature","geometry":{"type":"Point","coordinates":[-80.2247,36.6931]},"properties":{"name":"RICHWOOD KNOB FIRE TWR 3 MI N","styleUrl":"#towerStyle","styleHash":"1d01e409","county":"Patrick County","lat":36.6931,"lng":-80.2247,"structure_type":"TOWER","structure_name":null,"structure_address":"RICHWOOD KNOB FIRE TWR 3 MI N","height":50,"base_elevation":978.682373,"structure_owner_name":"AMERICAN ELECTRIC POWER SERVICE CORPORATION","structure_manager_name":null,"data_source":"FCC: Land Mobile - Private (GIS)"}},{"type":"Feature","geometry":{"type":"Point","coordinates":[-80.450299,36.7336]},"properties":{"name":"225 JEB STUART HWY","styleUrl":"#towerStyle","styleHash":"1d01e409","county":"Patrick County","lat":36.7336,"lng":-80.450299,"structure_type":"B","structure_name":null,"structure_address":"225 JEB STUART HWY","height":5,"base_elevation":896.244262,"structure_owner_name":"ROTO DIE COMPANY INC","structure_manager_name":null,"data_source":"FCC: Land Mobile - Private (GIS)"}},{"type":"Feature","geometry":{"type":"Point","coordinates":[-80.2003,36.6244]},"properties":{"name":"RT 58 E APPROX 2 MI E","styleUrl":"#towerStyle","styleHash":"1d01e409","county":"Patrick County","lat":36.6244,"lng":-80.2003,"structure_type":null,"structure_name":null,"structure_address":"RT 58 E APPROX 2 MI E","height":0,"base_elevation":364.574768,"structure_owner_name":"J C JOYCE TRUCKING & PAVING CO INC","structure_manager_name":null,"data_source":"FCC: Land Mobile - Private (GIS)"}},{"type":"Feature","geometry":{"type":"Point","coordinates":[-80.3356,36.7136]},"properties":{"name":"SR 610 7 MI S US 58","styleUrl":"#towerStyle","styleHash":"1d01e409","county":"Patrick County","lat":36.7136,"lng":-80.3356,"structure_type":null,"structure_name":null,"structure_address":"SR 610 7 MI S US 58","height":0,"base_elevation":921.390197,"structure_owner_name":"DAVENPORT ENERGY INC","structure_manager_name":null,"data_source":"FCC: Land Mobile - Private (GIS)"}},{"type":"Feature","geometry":{"type":"Point","coordinates":[-80.4411,36.6853]},"properties":{"name":"1048 LOWER DAM LN","styleUrl":"#towerStyle","styleHash":"1d01e409","county":"Patrick County","lat":36.6853,"lng":-80.4411,"structure_type":"TOWER","structure_name":null,"structure_address":"1048 LOWER DAM LN","height":23,"base_elevation":841.024658,"structure_owner_name":"DANVILLE, CITY OF","structure_manager_name":null,"data_source":"FCC: Land Mobile - Private (GIS)"}},{"type":"Feature","geometry":{"type":"Point","coordinates":[-80.3989,36.6628]},"properties":{"name":"RT 1 BOX 100","styleUrl":"#towerStyle","styleHash":"1d01e409","county":"Patrick County","lat":36.6628,"lng":-80.3989,"structure_type":null,"structure_name":null,"structure_address":"RT 1 BOX 100","height":0,"base_elevation":860.066833,"structure_owner_name":"PRIMLAND, LTD","structure_manager_name":null,"data_source":"FCC: Land Mobile - Private (GIS)"}},{"type":"Feature","geometry":{"type":"Point","coordinates":[-80.3847,36.6661]},"properties":{"name":"EXT OF CR 610 3 MI SW","styleUrl":"#towerStyle","styleHash":"1d01e409","county":"Patrick County","lat":36.6661,"lng":-80.3847,"structure_type":null,"structure_name":null,"structure_address":"EXT OF CR 610 3 MI SW","height":0,"base_elevation":872.006164,"structure_owner_name":"PRIMLAND, LTD","structure_manager_name":null,"data_source":"FCC: Land Mobile - Private (GIS)"}},{"type":"Feature","geometry":{"type":"Point","coordinates":[-80.450299,36.7336]},"properties":{"name":"Vertical Asset","styleUrl":"#towerStyle","styleHash":"1d01e409","county":"Patrick County","lat":36.7336,"lng":-80.450299,"structure_type":null,"structure_name":null,"structure_address":null,"height":0,"base_elevation":896.244262,"structure_owner_name":"ROTO DIE CO INC","structure_manager_name":null,"data_source":"FCC: Land Mobile - Private (GIS)"}},{"type":"Feature","geometry":{"type":"Point","coordinates":[-80.3342,36.7133]},"properties":{"name":"HWY 58 2 MI E","styleUrl":"#towerStyle","styleHash":"1d01e409","county":"Patrick County","lat":36.7133,"lng":-80.3342,"structure_type":null,"structure_name":null,"structure_address":"HWY 58 2 MI E","height":30,"base_elevation":919.178039,"structure_owner_name":"STEP INC","structure_manager_name":null,"data_source":"FCC: Land Mobile - Private (GIS)"}},{"type":"Feature","geometry":{"type":"Point","coordinates":[-80.3847,36.6661]},"properties":{"name":"EXT OF SR 610 3 MI SW","styleUrl":"#towerStyle","styleHash":"1d01e409","county":"Patrick County","lat":36.6661,"lng":-80.3847,"structure_type":"TOWER","structure_name":null,"structure_address":"EXT OF SR 610 3 MI SW","height":37,"base_elevation":872.006164,"structure_owner_name":"PRIMLAND LTD","structure_manager_name":null,"data_source":"FCC: Land Mobile - Private (GIS)"}},{"type":"Feature","geometry":{"type":"Point","coordinates":[-80.433,36.7256]},"properties":{"name":"ST RT 600 .6 MI S OF US RT 58","styleUrl":"#towerStyle","styleHash":"1d01e409","county":"Patrick County","lat":36.7256,"lng":-80.433,"structure_type":null,"structure_name":null,"structure_address":"ST RT 600 .6 MI S OF US RT 58","height":0,"base_elevation":894.478393,"structure_owner_name":"HARRELL, DAVID L","structure_manager_name":null,"data_source":"FCC: Land Mobile - Private (GIS)"}},{"type":"Feature","geometry":{"type":"Point","coordinates":[-80.277499,36.6439]},"properties":{"name":"RT 8 & 58 W","styleUrl":"#towerStyle","styleHash":"1d01e409","county":"Patrick County","lat":36.6439,"lng":-80.277499,"structure_type":null,"structure_name":null,"structure_address":"RT 8 & 58 W","height":0,"base_elevation":412.728302,"structure_owner_name":"STANLEY CHEVROLET INC","structure_manager_name":null,"data_source":"FCC: Land Mobile - Private (GIS)"}},{"type":"Feature","geometry":{"type":"Point","coordinates":[-80.3342,36.7133]},"properties":{"name":"HWY 58 2 MI E","styleUrl":"#towerStyle","styleHash":"1d01e409","county":"Patrick County","lat":36.7133,"lng":-80.3342,"structure_type":null,"structure_name":null,"structure_address":"HWY 58 2 MI E","height":0,"base_elevation":919.178039,"structure_owner_name":"Henderson Jr, Henry B","structure_manager_name":null,"data_source":"FCC: Land Mobile - Private (GIS)"}},{"type":"Feature","geometry":{"type":"Point","coordinates":[-80.2247,36.6928]},"properties":{"name":"BULL MTN 4.8 KM N","styleUrl":"#towerStyle","styleHash":"1d01e409","county":"Patrick County","lat":36.6928,"lng":-80.2247,"structure_type":"TOWER","structure_name":null,"structure_address":"BULL MTN 4.8 KM N","height":23,"base_elevation":977.075378,"structure_owner_name":"VIRGINIA DEPARTMENT OF STATE POLICE","structure_manager_name":null,"data_source":"FCC: Land Mobile - Private (GIS)"}},{"type":"Feature","geometry":{"type":"Point","coordinates":[-80.1864,36.6122]},"properties":{"name":"US 58 .2 KM E OF SR 625","styleUrl":"#towerStyle","styleHash":"1d01e409","county":"Patrick County","lat":36.6122,"lng":-80.1864,"structure_type":"UPOLE","structure_name":null,"structure_address":"US 58 .2 KM E OF SR 625","height":12,"base_elevation":372.023284,"structure_owner_name":"VIRGINIA, COMMONWEALTH OF","structure_manager_name":null,"data_source":"FCC: Land Mobile - Private (GIS)"}},{"type":"Feature","geometry":{"type":"Point","coordinates":[-80.3589,36.7211]},"properties":{"name":"SR 636 .5 KM N OF US 58","styleUrl":"#towerStyle","styleHash":"1d01e409","county":"Patrick County","lat":36.7211,"lng":-80.3589,"structure_type":"UPOLE","structure_name":null,"structure_address":"SR 636 .5 KM N OF US 58","height":20,"base_elevation":893.326416,"structure_owner_name":"VIRGINIA, COMMONWEALTH OF","structure_manager_name":null,"data_source":"FCC: Land Mobile - Private (GIS)"}},{"type":"Feature","geometry":{"type":"Point","coordinates":[-80.3092,36.5983]},"properties":{"name":"SR 664 & 225 W OF SR 103","styleUrl":"#towerStyle","styleHash":"1d01e409","county":"Patrick County","lat":36.5983,"lng":-80.3092,"structure_type":"UPOLE","structure_name":null,"structure_address":"SR 664 & 225 W OF SR 103","height":15,"base_elevation":419.896545,"structure_owner_name":"VIRGINIA, COMMONWEALTH OF","structure_manager_name":null,"data_source":"FCC: Land Mobile - Private (GIS)"}},{"type":"Feature","geometry":{"type":"Point","coordinates":[-80.2697,36.6419]},"properties":{"name":"COUNTY COURTHOUSE","styleUrl":"#towerStyle","styleHash":"1d01e409","county":"Patrick County","lat":36.6419,"lng":-80.2697,"structure_type":"B","structure_name":null,"structure_address":"COUNTY COURTHOUSE","height":23,"base_elevation":420.6893,"structure_owner_name":"PATRICK, COUNTY OF","structure_manager_name":null,"data_source":"FCC: Land Mobile - Private (GIS)"}},{"type":"Feature","geometry":{"type":"Point","coordinates":[-80.2247,36.6928]},"properties":{"name":"BULL MOUNTAIN 5KM N","styleUrl":"#towerStyle","styleHash":"1d01e409","county":"Patrick County","lat":36.6928,"lng":-80.2247,"structure_type":"TOWER","structure_name":null,"structure_address":"BULL MOUNTAIN 5KM N","height":25,"base_elevation":977.075378,"structure_owner_name":"PATRICK, COUNTY OF","structure_manager_name":null,"data_source":"FCC: Land Mobile - Private (GIS)"}},{"type":"Feature","geometry":{"type":"Point","coordinates":[-80.2322,36.7247]},"properties":{"name":"SR 57 .2 KM E OF SR 8 14 KM N OF ST","styleUrl":"#towerStyle","styleHash":"1d01e409","county":"Patrick County","lat":36.7247,"lng":-80.2322,"structure_type":"UPOLE","structure_name":null,"structure_address":"SR 57 .2 KM E OF SR 8 14 KM N OF ST","height":15,"base_elevation":460.863586,"structure_owner_name":"VIRGINIA, COMMONWEALTH OF","structure_manager_name":null,"data_source":"FCC: Land Mobile - Private (GIS)"}},{"type":"Feature","geometry":{"type":"Point","coordinates":[-80.2247,36.6928]},"properties":{"name":"BULL MOUNTAIN","styleUrl":"#towerStyle","styleHash":"1d01e409","county":"Patrick County","lat":36.6928,"lng":-80.2247,"structure_type":"TOWER","structure_name":null,"structure_address":"BULL MOUNTAIN","height":23,"base_elevation":977.075378,"structure_owner_name":"Virginia, Commonwealth of       Department of State Police","structure_manager_name":null,"data_source":"FCC: Land Mobile - Private (GIS)"}},{"type":"Feature","geometry":{"type":"Point","coordinates":[-80.1186,36.802799]},"properties":{"name":"FAIRY STONE STATE PARK","styleUrl":"#towerStyle","styleHash":"1d01e409","county":"Patrick County","lat":36.802799,"lng":-80.1186,"structure_type":null,"structure_name":null,"structure_address":"FAIRY STONE STATE PARK","height":0,"base_elevation":314.953216,"structure_owner_name":"VIRGINIA, COMMONWEALTH OF","structure_manager_name":null,"data_source":"FCC: Land Mobile - Private (GIS)"}},{"type":"Feature","geometry":{"type":"Point","coordinates":[-80.2247,36.6928]},"properties":{"name":"BULL MT FIRE TOWER 4 KM N RT 607","styleUrl":"#towerStyle","styleHash":"1d01e409","county":"Patrick County","lat":36.6928,"lng":-80.2247,"structure_type":"B","structure_name":null,"structure_address":"BULL MT FIRE TOWER 4 KM N RT 607","height":24,"base_elevation":977.075378,"structure_owner_name":"Virginia Department of Forestry","structure_manager_name":null,"data_source":"FCC: Land Mobile - Private (GIS)"}},{"type":"Feature","geometry":{"type":"Point","coordinates":[-80.2703,36.6417]},"properties":{"name":"RJ REYNOLDS PATRICK CTY MEMORIAL HOSPITAL","styleUrl":"#towerStyle","styleHash":"1d01e409","county":"Patrick County","lat":36.6417,"lng":-80.2703,"structure_type":"B","structure_name":null,"structure_address":"RJ REYNOLDS PATRICK CTY MEMORIAL HOSPITAL","height":0,"base_elevation":417.09027,"structure_owner_name":"PATRICK, COUNTY OF","structure_manager_name":null,"data_source":"FCC: Land Mobile - Private (GIS)"}},{"type":"Feature","geometry":{"type":"Point","coordinates":[-80.2247,36.6928]},"properties":{"name":"BULL MOUNTAIN","styleUrl":"#towerStyle","styleHash":"1d01e409","county":"Patrick County","lat":36.6928,"lng":-80.2247,"structure_type":"B","structure_name":null,"structure_address":"BULL MOUNTAIN","height":0,"base_elevation":977.075378,"structure_owner_name":"PATRICK, COUNTY OF","structure_manager_name":null,"data_source":"FCC: Land Mobile - Private (GIS)"}},{"type":"Feature","geometry":{"type":"Point","coordinates":[-80.2658,36.645]},"properties":{"name":"INT RT 8 & 58","styleUrl":"#towerStyle","styleHash":"1d01e409","county":"Patrick County","lat":36.645,"lng":-80.2658,"structure_type":null,"structure_name":null,"structure_address":"INT RT 8 & 58","height":8,"base_elevation":394.170562,"structure_owner_name":"STUART, TOWN OF","structure_manager_name":null,"data_source":"FCC: Land Mobile - Private (GIS)"}},{"type":"Feature","geometry":{"type":"Point","coordinates":[-80.3442,36.5836]},"properties":{"name":"DRY POND 5.9 MI SW","styleUrl":"#towerStyle","styleHash":"1d01e409","county":"Patrick County","lat":36.5836,"lng":-80.3442,"structure_type":null,"structure_name":null,"structure_address":"DRY POND 5.9 MI SW","height":0,"base_elevation":404.835327,"structure_owner_name":"PATRICK, COUNTY OF","structure_manager_name":null,"data_source":"FCC: Land Mobile - Private (GIS)"}},{"type":"Feature","geometry":{"type":"Point","coordinates":[-80.145799,36.6311]},"properties":{"name":"CRITZ 7.7 MI E","styleUrl":"#towerStyle","styleHash":"1d01e409","county":"Patrick County","lat":36.6311,"lng":-80.145799,"structure_type":null,"structure_name":null,"structure_address":"CRITZ 7.7 MI E","height":0,"base_elevation":353.803039,"structure_owner_name":"PATRICK, COUNTY OF","structure_manager_name":null,"data_source":"FCC: Land Mobile - Private (GIS)"}},{"type":"Feature","geometry":{"type":"Point","coordinates":[-80.305,36.6928]},"properties":{"name":"TROT VALLEY 4 MI NW","styleUrl":"#towerStyle","styleHash":"1d01e409","county":"Patrick County","lat":36.6928,"lng":-80.305,"structure_type":null,"structure_name":null,"structure_address":"TROT VALLEY 4 MI NW","height":0,"base_elevation":504.726989,"structure_owner_name":"PATRICK, COUNTY OF","structure_manager_name":null,"data_source":"FCC: Land Mobile - Private (GIS)"}},{"type":"Feature","geometry":{"type":"Point","coordinates":[-80.2842,36.7039]},"properties":{"name":"CENTRAL ACADEMY 4 MI NNW","styleUrl":"#towerStyle","styleHash":"1d01e409","county":"Patrick County","lat":36.7039,"lng":-80.2842,"structure_type":null,"structure_name":null,"structure_address":"CENTRAL ACADEMY 4 MI NNW","height":0,"base_elevation":484.138488,"structure_owner_name":"PATRICK, COUNTY OF","structure_manager_name":null,"data_source":"FCC: Land Mobile - Private (GIS)"}},{"type":"Feature","geometry":{"type":"Point","coordinates":[-80.3347,36.7156]},"properties":{"name":"CIRCLE M 6.1 MI NNW","styleUrl":"#towerStyle","styleHash":"1d01e409","county":"Patrick County","lat":36.7156,"lng":-80.3347,"structure_type":null,"structure_name":null,"structure_address":"CIRCLE M 6.1 MI NNW","height":0,"base_elevation":911.744262,"structure_owner_name":"PATRICK, COUNTY OF","structure_manager_name":null,"data_source":"FCC: Land Mobile - Private (GIS)"}},{"type":"Feature","geometry":{"type":"Point","coordinates":[-80.3539,36.6889]},"properties":{"name":"BUSTED ROCK 2 5.7 MI NW","styleUrl":"#towerStyle","styleHash":"1d01e409","county":"Patrick County","lat":36.6889,"lng":-80.3539,"structure_type":null,"structure_name":null,"structure_address":"BUSTED ROCK 2 5.7 MI NW","height":0,"base_elevation":819.507812,"structure_owner_name":"PATRICK, COUNTY OF","structure_manager_name":null,"data_source":"FCC: Land Mobile - Private (GIS)"}},{"type":"Feature","geometry":{"type":"Point","coordinates":[-80.374199,36.6769]},"properties":{"name":"BUSTED ROCK 1 6.1 MI WNW","styleUrl":"#towerStyle","styleHash":"1d01e409","county":"Patrick County","lat":36.6769,"lng":-80.374199,"structure_type":null,"structure_name":null,"structure_address":"BUSTED ROCK 1 6.1 MI WNW","height":0,"base_elevation":844.154113,"structure_owner_name":"PATRICK, COUNTY OF","structure_manager_name":null,"data_source":"FCC: Land Mobile - Private (GIS)"}},{"type":"Feature","geometry":{"type":"Point","coordinates":[-80.269999,36.6422]},"properties":{"name":"PATRICK EOC CTY COURTHOUSE","styleUrl":"#towerStyle","styleHash":"1d01e409","county":"Patrick County","lat":36.6422,"lng":-80.269999,"structure_type":null,"structure_name":null,"structure_address":"PATRICK EOC CTY COURTHOUSE","height":0,"base_elevation":421.039215,"structure_owner_name":"PATRICK, COUNTY OF","structure_manager_name":null,"data_source":"FCC: Land Mobile - Private (GIS)"}},{"type":"Feature","geometry":{"type":"Point","coordinates":[-80.254999,36.6389]},"properties":{"name":"Vertical Asset","styleUrl":"#towerStyle","styleHash":"1d01e409","county":"Patrick County","lat":36.6389,"lng":-80.254999,"structure_type":null,"structure_name":null,"structure_address":null,"height":0,"base_elevation":389.01007,"structure_owner_name":"STUART, TOWN OF","structure_manager_name":null,"data_source":"FCC: Land Mobile - Private (GIS)"}},{"type":"Feature","geometry":{"type":"Point","coordinates":[-80.2697,36.6419]},"properties":{"name":"COUNTY COURTHOUSE","styleUrl":"#towerStyle","styleHash":"1d01e409","county":"Patrick County","lat":36.6419,"lng":-80.2697,"structure_type":"B","structure_name":null,"structure_address":"COUNTY COURTHOUSE","height":23,"base_elevation":420.6893,"structure_owner_name":"PATRICK, COUNTY OF","structure_manager_name":null,"data_source":"FCC: Land Mobile - Private (GIS)"}},{"type":"Feature","geometry":{"type":"Point","coordinates":[-80.2247,36.6928]},"properties":{"name":"BULL MOUNTAIN 5KM N","styleUrl":"#towerStyle","styleHash":"1d01e409","county":"Patrick County","lat":36.6928,"lng":-80.2247,"structure_type":"TOWER","structure_name":null,"structure_address":"BULL MOUNTAIN 5KM N","height":25,"base_elevation":977.075378,"structure_owner_name":"PATRICK, COUNTY OF","structure_manager_name":null,"data_source":"FCC: Land Mobile - Private (GIS)"}},{"type":"Feature","geometry":{"type":"Point","coordinates":[-80.2658,36.645]},"properties":{"name":"INT RT 8 & 58","styleUrl":"#towerStyle","styleHash":"1d01e409","county":"Patrick County","lat":36.645,"lng":-80.2658,"structure_type":null,"structure_name":null,"structure_address":"INT RT 8 & 58","height":0,"base_elevation":394.170562,"structure_owner_name":"PATRICK, COUNTY OF","structure_manager_name":null,"data_source":"FCC: Land Mobile - Private (GIS)"}},{"type":"Feature","geometry":{"type":"Point","coordinates":[-80.3369,36.5831]},"properties":{"name":"NR RTS 103 & 662","styleUrl":"#towerStyle","styleHash":"1d01e409","county":"Patrick County","lat":36.5831,"lng":-80.3369,"structure_type":null,"structure_name":null,"structure_address":"NR RTS 103 & 662","height":0,"base_elevation":380.515777,"structure_owner_name":"PATRICK, COUNTY OF","structure_manager_name":null,"data_source":"FCC: Land Mobile - Private (GIS)"}},{"type":"Feature","geometry":{"type":"Point","coordinates":[-80.0853,36.6883]},"properties":{"name":"NR RTS 627 & 692","styleUrl":"#towerStyle","styleHash":"1d01e409","county":"Patrick County","lat":36.6883,"lng":-80.0853,"structure_type":null,"structure_name":null,"structure_address":"NR RTS 627 & 692","height":0,"base_elevation":329.657653,"structure_owner_name":"PATRICK, COUNTY OF","structure_manager_name":null,"data_source":"FCC: Land Mobile - Private (GIS)"}},{"type":"Feature","geometry":{"type":"Point","coordinates":[-80.403,36.7417]},"properties":{"name":"RT 58 NEAR PARKWAY","styleUrl":"#towerStyle","styleHash":"1d01e409","county":"Patrick County","lat":36.7417,"lng":-80.403,"structure_type":null,"structure_name":null,"structure_address":"RT 58 NEAR PARKWAY","height":0,"base_elevation":918.718078,"structure_owner_name":"PATRICK, COUNTY OF","structure_manager_name":null,"data_source":"FCC: Land Mobile - Private (GIS)"}},{"type":"Feature","geometry":{"type":"Point","coordinates":[-80.511099,36.6014]},"properties":{"name":"RTS 675 & 773 ARRAT VOL FD","styleUrl":"#towerStyle","styleHash":"1d01e409","county":"Patrick County","lat":36.6014,"lng":-80.511099,"structure_type":null,"structure_name":null,"structure_address":"RTS 675 & 773 ARRAT VOL FD","height":0,"base_elevation":435.530364,"structure_owner_name":"PATRICK, COUNTY OF","structure_manager_name":null,"data_source":"FCC: Land Mobile - Private (GIS)"}},{"type":"Feature","geometry":{"type":"Point","coordinates":[-80.3578,36.73]},"properties":{"name":"RTS 636 & 58","styleUrl":"#towerStyle","styleHash":"1d01e409","county":"Patrick County","lat":36.73,"lng":-80.3578,"structure_type":null,"structure_name":null,"structure_address":"RTS 636 & 58","height":0,"base_elevation":899.943908,"structure_owner_name":"PATRICK, COUNTY OF","structure_manager_name":null,"data_source":"FCC: Land Mobile - Private (GIS)"}},{"type":"Feature","geometry":{"type":"Point","coordinates":[-80.2744,36.7861]},"properties":{"name":"NR WOOLWINE SCHOOL","styleUrl":"#towerStyle","styleHash":"1d01e409","county":"Patrick County","lat":36.7861,"lng":-80.2744,"structure_type":null,"structure_name":null,"structure_address":"NR WOOLWINE SCHOOL","height":0,"base_elevation":455.941986,"structure_owner_name":"PATRICK, COUNTY OF","structure_manager_name":null,"data_source":"FCC: Land Mobile - Private (GIS)"}},{"type":"Feature","geometry":{"type":"Point","coordinates":[-80.198899,36.6383]},"properties":{"name":"NEAR INTS 680 & 625","styleUrl":"#towerStyle","styleHash":"1d01e409","county":"Patrick County","lat":36.6383,"lng":-80.198899,"structure_type":null,"structure_name":null,"structure_address":"NEAR INTS 680 & 625","height":0,"base_elevation":390.836303,"structure_owner_name":"PATRICK, COUNTY OF","structure_manager_name":null,"data_source":"FCC: Land Mobile - Private (GIS)"}},{"type":"Feature","geometry":{"type":"Point","coordinates":[-80.316899,36.7167]},"properties":{"name":"ROUTE 58 AT LOVERS LEAP MOUNTAIN","styleUrl":"#towerStyle","styleHash":"1d01e409","county":"Patrick County","lat":36.7167,"lng":-80.316899,"structure_type":"TOWER","structure_name":null,"structure_address":"ROUTE 58 AT LOVERS LEAP MOUNTAIN","height":51,"base_elevation":939.926025,"structure_owner_name":"SMITH, GILES","structure_manager_name":null,"data_source":"FCC: Land Mobile - Commercial (GIS)"}},{"type":"Feature","geometry":{"type":"Point","coordinates":[-80.316899,36.7167]},"properties":{"name":"ROUTE 58 AT LOVERS LEAP MOUNTAIN","styleUrl":"#towerStyle","styleHash":"1d01e409","county":"Patrick County","lat":36.7167,"lng":-80.316899,"structure_type":"TOWER","structure_name":null,"structure_address":"ROUTE 58 AT LOVERS LEAP MOUNTAIN","height":51,"base_elevation":939.926025,"structure_owner_name":"AMC INVESTORS, INC.","structure_manager_name":null,"data_source":"FCC: Land Mobile - Commercial (GIS)"}},{"type":"Feature","geometry":{"type":"Point","coordinates":[-80.2247,36.6928]},"properties":{"name":"Vertical Asset","styleUrl":"#towerStyle","styleHash":"1d01e409","county":"Patrick County","lat":36.6928,"lng":-80.2247,"structure_type":null,"structure_name":null,"structure_address":null,"height":0,"base_elevation":977.075378,"structure_owner_name":"RA TECH SERVICES","structure_manager_name":null,"data_source":"FCC: Land Mobile - Commercial (GIS)"}},{"type":"Feature","geometry":{"type":"Point","coordinates":[-80.2247,36.6928]},"properties":{"name":"BULL MT 5 KM N OF","styleUrl":"#towerStyle","styleHash":"1d01e409","county":"Patrick County","lat":36.6928,"lng":-80.2247,"structure_type":"TOWER","structure_name":null,"structure_address":"BULL MT 5 KM N OF","height":49,"base_elevation":977.075378,"structure_owner_name":"RA TECH SERVICES","structure_manager_name":null,"data_source":"FCC: Land Mobile - Commercial (GIS)"}},{"type":"Feature","geometry":{"type":"Point","coordinates":[-80.2247,36.6931]},"properties":{"name":"ATOP BULL MOUNTAIN","styleUrl":"#towerStyle","styleHash":"1d01e409","county":"Patrick County","lat":36.6931,"lng":-80.2247,"structure_type":"TOWER","structure_name":null,"structure_address":"ATOP BULL MOUNTAIN","height":15,"base_elevation":978.682373,"structure_owner_name":"Vanguard Communication Services, Inc.","structure_manager_name":null,"data_source":"FCC: Land Mobile - Commercial (GIS)"}},{"type":"Feature","geometry":{"type":"Point","coordinates":[-80.3342,36.7133]},"properties":{"name":"LOVERS LEAP MOUNTAIN OFF US 58","styleUrl":"#towerStyle","styleHash":"1d01e409","county":"Patrick County","lat":36.7133,"lng":-80.3342,"structure_type":"TOWER","structure_name":null,"structure_address":"LOVERS LEAP MOUNTAIN OFF US 58","height":0,"base_elevation":919.178039,"structure_owner_name":"VANGUARD COMMUNICATION SERVICES INC","structure_manager_name":null,"data_source":"FCC: Land Mobile - Commercial (GIS)"}},{"type":"Feature","geometry":{"type":"Point","coordinates":[-80.3342,36.7133]},"properties":{"name":"HWY 58 2 MI E","styleUrl":"#towerStyle","styleHash":"1d01e409","county":"Patrick County","lat":36.7133,"lng":-80.3342,"structure_type":null,"structure_name":null,"structure_address":"HWY 58 2 MI E","height":0,"base_elevation":919.178039,"structure_owner_name":"PROFESSIONAL COMMUNICATIONS INC","structure_manager_name":null,"data_source":"FCC: Land Mobile - Commercial (GIS)"}},{"type":"Feature","geometry":{"type":"Point","coordinates":[-80.252799,36.6381]},"properties":{"name":"PATRICK COUNTY ROTARY CLUB","styleUrl":"#towerStyle","styleHash":"1d01e409","county":"Patrick County","lat":36.6381,"lng":-80.252799,"structure_type":null,"structure_name":null,"structure_address":"PATRICK COUNTY ROTARY CLUB","height":22.6,"base_elevation":398.256256,"structure_owner_name":"USCOC OF VIRGINIA RSA #3, INC.","structure_manager_name":null,"data_source":"FCC: Cellular (GIS)"}},{"type":"Feature","geometry":{"type":"Point","coordinates":[-80.3222,36.7153]},"properties":{"name":"8 KM NNW OF","styleUrl":"#towerStyle","styleHash":"1d01e409","county":"Patrick County","lat":36.7153,"lng":-80.3222,"structure_type":null,"structure_name":null,"structure_address":"8 KM NNW OF","height":0,"base_elevation":904.701782,"structure_owner_name":"USCOC OF VIRGINIA RSA #3, INC.","structure_manager_name":null,"data_source":"FCC: Cellular (GIS)"}},{"type":"Feature","geometry":{"type":"Point","coordinates":[-80.2658,36.6622]},"properties":{"name":"650 Mt. Calvary Church Rd.","styleUrl":"#towerStyle","styleHash":"1d01e409","county":"Patrick County","lat":36.6622,"lng":-80.2658,"structure_type":"POLE","structure_name":null,"structure_address":"650 Mt. Calvary Church Rd.","height":60.7,"base_elevation":662.36499,"structure_owner_name":"Cellco Partnership","structure_manager_name":null,"data_source":"FCC: Cellular (GIS)"}},{"type":"Feature","geometry":{"type":"Point","coordinates":[-80.333599,36.7133]},"properties":{"name":"7750 Jeb Stuart Highway","styleUrl":"#towerStyle","styleHash":"1d01e409","county":"Patrick County","lat":36.7133,"lng":-80.333599,"structure_type":"MAST","structure_name":null,"structure_address":"7750 Jeb Stuart Highway","height":60.6,"base_elevation":912.701232,"structure_owner_name":"Cellco Partnership","structure_manager_name":null,"data_source":"FCC: Cellular (GIS)"}},{"type":"Feature","geometry":{"type":"Point","coordinates":[-80.2247,36.6929]},"properties":{"name":"Bull Mtn 4.2 Mi NE","styleUrl":"#towerStyle","styleHash":"1d01e409","county":"Patrick County","lat":36.6929,"lng":-80.2247,"structure_type":"TOWER","structure_name":null,"structure_address":"Bull Mtn 4.2 Mi NE","height":18.3,"base_elevation":977.43872,"structure_owner_name":"Danville, City of","structure_manager_name":null,"data_source":"FCC: Microwave (GIS)"}},{"type":"Feature","geometry":{"type":"Point","coordinates":[-80.4412,36.6854]},"properties":{"name":"Rock House 1 Mi E of HWY 614 and HWY 602","styleUrl":"#towerStyle","styleHash":"1d01e409","county":"Patrick County","lat":36.6854,"lng":-80.4412,"structure_type":"TOWER","structure_name":null,"structure_address":"Rock House 1 Mi E of HWY 614 and HWY 602","height":18.3,"base_elevation":838.311035,"structure_owner_name":"Danville, City of","structure_manager_name":null,"data_source":"FCC: Microwave (GIS)"}},{"type":"Feature","geometry":{"type":"Point","coordinates":[-80.1353,36.586099]},"properties":{"name":"0.07 mi South of US Hwy 58","styleUrl":"#towerStyle","styleHash":"1d01e409","county":"Patrick County","lat":36.586099,"lng":-80.1353,"structure_type":"TOWER","structure_name":null,"structure_address":"0.07 mi South of US Hwy 58","height":86.8,"base_elevation":335.636322,"structure_owner_name":"USCOC OF VIRGINIA RSA #3, INC.","structure_manager_name":null,"data_source":"FCC: Microwave (GIS)"}},{"type":"Feature","geometry":{"type":"Point","coordinates":[-80.2247,36.693]},"properties":{"name":"Bull Mountain, Fire Trail Ln. 3.3 miles N of Tudor Orchard Ln., Patric","styleUrl":"#towerStyle","styleHash":"1d01e409","county":"Patrick County","lat":36.693,"lng":-80.2247,"structure_type":"TOWER","structure_name":null,"structure_address":"Bull Mountain, Fire Trail Ln. 3.3 miles N of Tudor Orchard Ln., Patric","height":54.8,"base_elevation":978.803283,"structure_owner_name":"Commonwealth of Virginia, Department of State Police","structure_manager_name":null,"data_source":"FCC: Microwave (GIS)"}},{"type":"Feature","geometry":{"type":"Point","coordinates":[-80.2248,36.6929]},"properties":{"name":"BULL MOUNTAIN COMMUNICATIONS SITE","styleUrl":"#towerStyle","styleHash":"1d01e409","county":"Patrick County","lat":36.6929,"lng":-80.2248,"structure_type":"TOWER","structure_name":null,"structure_address":"BULL MOUNTAIN COMMUNICATIONS SITE","height":22,"base_elevation":978.885314,"structure_owner_name":"PATRICK, COUNTY OF","structure_manager_name":null,"data_source":"FCC: Microwave (GIS)"}},{"type":"Feature","geometry":{"type":"Point","coordinates":[-80.384999,36.6664]},"properties":{"name":"END OF BUSTED ROCK ROAD","styleUrl":"#towerStyle","styleHash":"1d01e409","county":"Patrick County","lat":36.6664,"lng":-80.384999,"structure_type":"TOWER","structure_name":null,"structure_address":"END OF BUSTED ROCK ROAD","height":55,"base_elevation":873.896789,"structure_owner_name":"PATRICK, COUNTY OF","structure_manager_name":null,"data_source":"FCC: Microwave (GIS)"}},{"type":"Feature","geometry":{"type":"Point","coordinates":[-80.4331,36.6137]},"properties":{"name":"Adjacent to 576 Ike Slate Lane","styleUrl":"#towerStyle","styleHash":"1d01e409","county":"Patrick County","lat":36.6137,"lng":-80.4331,"structure_type":"TOWER","structure_name":null,"structure_address":"Adjacent to 576 Ike Slate Lane","height":91.4,"base_elevation":494.664031,"structure_owner_name":"Appalachian Power Company","structure_manager_name":null,"data_source":"FCC: Microwave (GIS)"}},{"type":"Feature","geometry":{"type":"Point","coordinates":[-80.2248,36.6932]},"properties":{"name":"3 mi N or Patrick Springs","styleUrl":"#towerStyle","styleHash":"1d01e409","county":"Patrick County","lat":36.6932,"lng":-80.2248,"structure_type":"TOWER","structure_name":null,"structure_address":"3 mi N or Patrick Springs","height":50,"base_elevation":978.698242,"structure_owner_name":"Appalachian Power Company","structure_manager_name":null,"data_source":"FCC: Microwave (GIS)"}},{"type":"Feature","geometry":{"type":"Point","coordinates":[-80.322299,36.7159]},"properties":{"name":"8 KM NNW OF STUART","styleUrl":"#towerStyle","styleHash":"1d01e409","county":"Patrick County","lat":36.7159,"lng":-80.322299,"structure_type":"TOWER","structure_name":null,"structure_address":"8 KM NNW OF STUART","height":58.8,"base_elevation":903.698242,"structure_owner_name":"USCOC OF VIRGINIA RSA #3, INC.","structure_manager_name":null,"data_source":"FCC: Microwave (GIS)"}},{"type":"Feature","geometry":{"type":"Point","coordinates":[-80.384999,36.6664]},"properties":{"name":"END OF BUSTED ROCK RD","styleUrl":"#towerStyle","styleHash":"1d01e409","county":"Patrick County","lat":36.6664,"lng":-80.384999,"structure_type":"TOWER","structure_name":null,"structure_address":"END OF BUSTED ROCK RD","height":54.9,"base_elevation":873.896789,"structure_owner_name":"PATRICK, COUNTY OF","structure_manager_name":null,"data_source":"FCC: Land Mobile - Private (GIS)"}},{"type":"Feature","geometry":{"type":"Point","coordinates":[-80.4414,36.6853]},"properties":{"name":"RT 58W AT MEADOWS OF DAN SCHOOL","styleUrl":"#towerStyle","styleHash":"1d01e409","county":"Patrick County","lat":36.6853,"lng":-80.4414,"structure_type":"TOWER","structure_name":null,"structure_address":"RT 58W AT MEADOWS OF DAN SCHOOL","height":54.9,"base_elevation":830.868408,"structure_owner_name":"PATRICK, COUNTY OF","structure_manager_name":null,"data_source":"FCC: Land Mobile - Private (GIS)"}},{"type":"Feature","geometry":{"type":"Point","coordinates":[-80.2247,36.6928]},"properties":{"name":"2884 TUDOR ORCHARD RD","styleUrl":"#towerStyle","styleHash":"1d01e409","county":"Patrick County","lat":36.6928,"lng":-80.2247,"structure_type":"TOWER","structure_name":null,"structure_address":"2884 TUDOR ORCHARD RD","height":15,"base_elevation":977.075378,"structure_owner_name":"DANVILLE, CITY OF","structure_manager_name":null,"data_source":"FCC: Land Mobile - Private (GIS)"}},{"type":"Feature","geometry":{"type":"Point","coordinates":[-80.269999,36.6422]},"properties":{"name":"Patrick County 911/Sheriff'sOffice-105 Orchard St.","styleUrl":"#towerStyle","styleHash":"1d01e409","county":"Patrick County","lat":36.6422,"lng":-80.269999,"structure_type":"BPOLE","structure_name":null,"structure_address":"Patrick County 911/Sheriff'sOffice-105 Orchard St.","height":16.8,"base_elevation":421.039215,"structure_owner_name":"Virginia Department of Emergency Management","structure_manager_name":null,"data_source":"FCC: Land Mobile - Private (GIS)"}},{"type":"Feature","geometry":{"type":"Point","coordinates":[-80.270499,36.6256]},"properties":{"name":"215 Cougar Lane","styleUrl":"#towerStyle","styleHash":"1d01e409","county":"Patrick County","lat":36.6256,"lng":-80.270499,"structure_type":"BANT","structure_name":null,"structure_address":"215 Cougar Lane","height":10.1,"base_elevation":410.033752,"structure_owner_name":"Patrick County Public School System","structure_manager_name":null,"data_source":"FCC: Land Mobile - Private (GIS)"}},{"type":"Feature","geometry":{"type":"Point","coordinates":[-80.2244,36.6928]},"properties":{"name":"1 Bull Mountain road","styleUrl":"#towerStyle","styleHash":"1d01e409","county":"Patrick County","lat":36.6928,"lng":-80.2244,"structure_type":"TOWER","structure_name":null,"structure_address":"1 Bull Mountain road","height":61,"base_elevation":973.618469,"structure_owner_name":"VIRGINIA DEPARTMENT OF FORESTRY","structure_manager_name":null,"data_source":"FCC: Land Mobile - Private (GIS)"}},{"type":"Feature","geometry":{"type":"Point","coordinates":[-80.2581,36.6331]},"properties":{"name":"724 COMMERCE ST","styleUrl":"#towerStyle","styleHash":"1d01e409","county":"Patrick County","lat":36.6331,"lng":-80.2581,"structure_type":"TOWER","structure_name":null,"structure_address":"724 COMMERCE ST","height":47.2,"base_elevation":367.8143,"structure_owner_name":"PATRICK, COUNTY OF","structure_manager_name":null,"data_source":"FCC: Land Mobile - Private (GIS)"}},{"type":"Feature","geometry":{"type":"Point","coordinates":[-80.2581,36.6331]},"properties":{"name":"724 COMMERCE ST","styleUrl":"#towerStyle","styleHash":"1d01e409","county":"Patrick County","lat":36.6331,"lng":-80.2581,"structure_type":"TOWER","structure_name":null,"structure_address":"724 COMMERCE ST","height":47.2,"base_elevation":367.8143,"structure_owner_name":"PATRICK, COUNTY OF","structure_manager_name":null,"data_source":"FCC: Land Mobile - Private (GIS)"}},{"type":"Feature","geometry":{"type":"Point","coordinates":[-80.2244,36.6928]},"properties":{"name":"BULL MOUNTAIN VSP TOWER SITE","styleUrl":"#towerStyle","styleHash":"1d01e409","county":"Patrick County","lat":36.6928,"lng":-80.2244,"structure_type":"TOWER","structure_name":null,"structure_address":"BULL MOUNTAIN VSP TOWER SITE","height":54.8,"base_elevation":973.618469,"structure_owner_name":"VIRGINIA, COMMONWEALTH OF, DEPT OF TRANSPORTATION","structure_manager_name":null,"data_source":"FCC: Land Mobile - Private (GIS)"}},{"type":"Feature","geometry":{"type":"Point","coordinates":[-80.3461,36.7106]},"properties":{"name":"INTERSECTION SR 610, US HIGHWAY 58","styleUrl":"#towerStyle","styleHash":"1d01e409","county":"Patrick County","lat":36.7106,"lng":-80.3461,"structure_type":null,"structure_name":null,"structure_address":"INTERSECTION SR 610, US HIGHWAY 58","height":30.5,"base_elevation":877.136291,"structure_owner_name":"AFTON COMMUNICATIONS CORPORATION","structure_manager_name":null,"data_source":"FCC: Paging (GIS)"}}]}