{"type":"FeatureCollection","features":[{"type":"Feature","geometry":{"type":"Point","coordinates":[-79.365,37.7353]},"properties":{"name":"160 GLEN MAURY PARK ROAD","styleUrl":"#towerStyle","styleHash":"1d01e409","county":"Buena Vista city","lat":37.7353,"lng":-79.365,"structure_type":"TOWER","structure_name":null,"structure_address":"160 GLEN MAURY PARK ROAD","height":32,"base_elevation":319.535217,"structure_owner_name":"BUENA VISTA CITY OF","structure_manager_name":null,"data_source":"FCC: Land Mobile - Private (GIS)"}},{"type":"Feature","geometry":{"type":"Point","coordinates":[-79.3603,37.7258]},"properties":{"name":"Vertical Asset","styleUrl":"#towerStyle","styleHash":"1d01e409","county":"Buena Vista city","lat":37.7258,"lng":-79.3603,"structure_type":null,"structure_name":null,"structure_address":null,"height":0,"base_elevation":255.710006,"structure_owner_name":"MODINE MANUFACTURING CO","structure_manager_name":null,"data_source":"FCC: Land Mobile - Private (GIS)"}},{"type":"Feature","geometry":{"type":"Point","coordinates":[-79.3392,37.7342]},"properties":{"name":"SE Corner of Hickory & 24th Street","styleUrl":"#towerStyle","styleHash":"1d01e409","county":"Buena Vista city","lat":37.7342,"lng":-79.3392,"structure_type":"TOWER","structure_name":null,"structure_address":"SE Corner of Hickory & 24th Street","height":37,"base_elevation":362.077636,"structure_owner_name":"Virginia Electric and Power Company","structure_manager_name":null,"data_source":"FCC: Land Mobile - Private (GIS)"}},{"type":"Feature","geometry":{"type":"Point","coordinates":[-79.3539,37.7367]},"properties":{"name":"2271 SYCAMORE AVE","styleUrl":"#towerStyle","styleHash":"1d01e409","county":"Buena Vista city","lat":37.7367,"lng":-79.3539,"structure_type":"BANT","structure_name":null,"structure_address":"2271 SYCAMORE AVE","height":13,"base_elevation":255.659957,"structure_owner_name":"ROCKBRIDGE COUNTY PUBLIC SAFETY","structure_manager_name":null,"data_source":"FCC: Land Mobile - Private (GIS)"}},{"type":"Feature","geometry":{"type":"Point","coordinates":[-79.3392,37.7342]},"properties":{"name":"SE COR OF HICKORY & 24TH ST","styleUrl":"#towerStyle","styleHash":"1d01e409","county":"Buena Vista city","lat":37.7342,"lng":-79.3392,"structure_type":null,"structure_name":null,"structure_address":"SE COR OF HICKORY & 24TH ST","height":30,"base_elevation":362.077636,"structure_owner_name":"Virginia Electric and Power Company","structure_manager_name":null,"data_source":"FCC: Land Mobile - Private (GIS)"}},{"type":"Feature","geometry":{"type":"Point","coordinates":[-79.3661,37.7442]},"properties":{"name":"Vertical Asset","styleUrl":"#towerStyle","styleHash":"1d01e409","county":"Buena Vista city","lat":37.7442,"lng":-79.3661,"structure_type":null,"structure_name":null,"structure_address":null,"height":0,"base_elevation":255.565109,"structure_owner_name":"BONTEX, Inc.","structure_manager_name":null,"data_source":"FCC: Land Mobile - Private (GIS)"}},{"type":"Feature","geometry":{"type":"Point","coordinates":[-79.3619,37.7378]},"properties":{"name":"BATH HOUSE GLEN MAURY PK W 10TH ST","styleUrl":"#towerStyle","styleHash":"1d01e409","county":"Buena Vista city","lat":37.7378,"lng":-79.3619,"structure_type":null,"structure_name":null,"structure_address":"BATH HOUSE GLEN MAURY PK W 10TH ST","height":0,"base_elevation":329.97528,"structure_owner_name":"BUENA VISTA, CITY OF","structure_manager_name":null,"data_source":"FCC: Land Mobile - Private (GIS)"}},{"type":"Feature","geometry":{"type":"Point","coordinates":[-79.3547,37.735]},"properties":{"name":"Vertical Asset","styleUrl":"#towerStyle","styleHash":"1d01e409","county":"Buena Vista city","lat":37.735,"lng":-79.3547,"structure_type":null,"structure_name":null,"structure_address":null,"height":0,"base_elevation":254.630783,"structure_owner_name":"BUENA VISTA, CITY OF","structure_manager_name":null,"data_source":"FCC: Land Mobile - Private (GIS)"}},{"type":"Feature","geometry":{"type":"Point","coordinates":[-79.3514,37.7369]},"properties":{"name":"2329 CHESTNUT AVE, SUITE A","styleUrl":"#towerStyle","styleHash":"1d01e409","county":"Buena Vista city","lat":37.7369,"lng":-79.3514,"structure_type":"BANT","structure_name":null,"structure_address":"2329 CHESTNUT AVE, SUITE A","height":10,"base_elevation":261.065948,"structure_owner_name":"Conterra Ultra Broadband, LLC","structure_manager_name":null,"data_source":"FCC: Microwave (GIS)"}},{"type":"Feature","geometry":{"type":"Point","coordinates":[-79.3599,37.7193]},"properties":{"name":"278 HAZEL AVE","styleUrl":"#towerStyle","styleHash":"1d01e409","county":"Buena Vista city","lat":37.7193,"lng":-79.3599,"structure_type":"TOWER","structure_name":null,"structure_address":"278 HAZEL AVE","height":18.3,"base_elevation":316.854003,"structure_owner_name":"Conterra Ultra Broadband, LLC","structure_manager_name":null,"data_source":"FCC: Microwave (GIS)"}},{"type":"Feature","geometry":{"type":"Point","coordinates":[-79.3542,37.7408]},"properties":{"name":"Rockbridge County 911 - 306 Park Ave. Suite A, Buena Vista","styleUrl":"#towerStyle","styleHash":"1d01e409","county":"Buena Vista city","lat":37.7408,"lng":-79.3542,"structure_type":"POLE","structure_name":null,"structure_address":"Rockbridge County 911 - 306 Park Ave. Suite A, Buena Vista","height":9.4,"base_elevation":265.653778,"structure_owner_name":"Virginia Department of Emergency Management","structure_manager_name":null,"data_source":"FCC: Land Mobile - Private (GIS)"}},{"type":"Feature","geometry":{"type":"Point","coordinates":[-79.3542,37.7408]},"properties":{"name":"306 Park Ave","styleUrl":"#towerStyle","styleHash":"1d01e409","county":"Buena Vista city","lat":37.7408,"lng":-79.3542,"structure_type":"POLE","structure_name":null,"structure_address":"306 Park Ave","height":18.3,"base_elevation":265.653778,"structure_owner_name":"Rockbridge County, VA.","structure_manager_name":null,"data_source":"FCC: Land Mobile - Private (GIS)"}},{"type":"Feature","geometry":{"type":"Point","coordinates":[-79.3672,37.7217]},"properties":{"name":"302 Piedmont Ave","styleUrl":"#towerStyle","styleHash":"1d01e409","county":"Buena Vista city","lat":37.7217,"lng":-79.3672,"structure_type":"B","structure_name":null,"structure_address":"302 Piedmont Ave","height":5.5,"base_elevation":257.215332,"structure_owner_name":"Shenandoah Hardwood Lumber Co.","structure_manager_name":null,"data_source":"FCC: Land Mobile - Private (GIS)"}}]}