{"type":"FeatureCollection","features":[{"type":"Feature","geometry":{"type":"Point","coordinates":[-77.4379,38.7764]},"properties":{"name":"9104 INDUSTRY DRIVE","styleUrl":"#towerStyle","styleHash":"1d01e409","county":"Manassas Park city","lat":38.7764,"lng":-77.4379,"structure_type":null,"structure_name":null,"structure_address":"9104 INDUSTRY DRIVE","height":76.5,"base_elevation":68.695678,"structure_owner_name":"New Cingular Wireless PCS, LLC","structure_manager_name":null,"data_source":"FCC: Antenna Structure Registration (GIS)"}},{"type":"Feature","geometry":{"type":"Point","coordinates":[-77.4435,38.7696]},"properties":{"name":"9102 MANASSAS DRIVE","styleUrl":"#towerStyle","styleHash":"1d01e409","county":"Manassas Park city","lat":38.7696,"lng":-77.4435,"structure_type":null,"structure_name":null,"structure_address":"9102 MANASSAS DRIVE","height":57.1,"base_elevation":85.320785,"structure_owner_name":"Comcast of Virginia, Inc.","structure_manager_name":null,"data_source":"FCC: Antenna Structure Registration (GIS)"}},{"type":"Feature","geometry":{"type":"Point","coordinates":[-77.454135,38.770036]},"properties":{"name":"WS Centreville Rd","styleUrl":"#towerStyle","styleHash":"1d01e409","county":"Manassas Park city","lat":38.770036,"lng":-77.454135,"structure_type":"Water Storage Tank","structure_name":null,"structure_address":"WS Centreville Rd","height":null,"base_elevation":297.1355403,"structure_owner_name":"Manassas Park, City of and Manassas Park City Schools","structure_manager_name":null,"data_source":"Virginia Municipal League"}},{"type":"Feature","geometry":{"type":"Point","coordinates":[-77.454135,38.770036]},"properties":{"name":"WS Centreville Road","styleUrl":"#towerStyle","styleHash":"1d01e409","county":"Manassas Park city","lat":38.770036,"lng":-77.454135,"structure_type":"Water Storage Tank 250,000 gallons","structure_name":null,"structure_address":"WS Centreville Road","height":null,"base_elevation":297.1355403,"structure_owner_name":"Manassas Park, City of and Manassas Park City Schools","structure_manager_name":null,"data_source":"Virginia Municipal League"}},{"type":"Feature","geometry":{"type":"Point","coordinates":[-77.441699,38.7647]},"properties":{"name":"9300 Manassas Drive","styleUrl":"#towerStyle","styleHash":"1d01e409","county":"Manassas Park city","lat":38.7647,"lng":-77.441699,"structure_type":"TOWER","structure_name":null,"structure_address":"9300 Manassas Drive","height":18,"base_elevation":69.436477,"structure_owner_name":"Virginia Railway Express","structure_manager_name":null,"data_source":"FCC: Land Mobile - Private (GIS)"}},{"type":"Feature","geometry":{"type":"Point","coordinates":[-77.4425,38.7672]},"properties":{"name":"Vertical Asset","styleUrl":"#towerStyle","styleHash":"1d01e409","county":"Manassas Park city","lat":38.7672,"lng":-77.4425,"structure_type":null,"structure_name":null,"structure_address":null,"height":0,"base_elevation":75.432968,"structure_owner_name":"MANASSAS PARK, CITY OF","structure_manager_name":null,"data_source":"FCC: Land Mobile - Private (GIS)"}},{"type":"Feature","geometry":{"type":"Point","coordinates":[-77.44,38.774999]},"properties":{"name":"8200 EUCLID AVE","styleUrl":"#towerStyle","styleHash":"1d01e409","county":"Manassas Park city","lat":38.774999,"lng":-77.44,"structure_type":"PIPE","structure_name":null,"structure_address":"8200 EUCLID AVE","height":9,"base_elevation":72.64347,"structure_owner_name":"MANASSAS PARK CITY SCHOOLS","structure_manager_name":null,"data_source":"FCC: Land Mobile - Private (GIS)"}},{"type":"Feature","geometry":{"type":"Point","coordinates":[-77.44,38.774999]},"properties":{"name":"Vertical Asset","styleUrl":"#towerStyle","styleHash":"1d01e409","county":"Manassas Park city","lat":38.774999,"lng":-77.44,"structure_type":null,"structure_name":null,"structure_address":null,"height":0,"base_elevation":72.64347,"structure_owner_name":"MANASSAS PARK CITY SCHOOLS","structure_manager_name":null,"data_source":"FCC: Land Mobile - Private (GIS)"}},{"type":"Feature","geometry":{"type":"Point","coordinates":[-77.4542,38.769999]},"properties":{"name":"Vertical Asset","styleUrl":"#towerStyle","styleHash":"1d01e409","county":"Manassas Park city","lat":38.769999,"lng":-77.4542,"structure_type":null,"structure_name":null,"structure_address":null,"height":0,"base_elevation":90.566909,"structure_owner_name":"MANASSAS PARK, CITY OF","structure_manager_name":null,"data_source":"FCC: Land Mobile - Private (GIS)"}},{"type":"Feature","geometry":{"type":"Point","coordinates":[-77.4542,38.769999]},"properties":{"name":"300 S INT MANASSAS DR MATHIS AVE","styleUrl":"#towerStyle","styleHash":"1d01e409","county":"Manassas Park city","lat":38.769999,"lng":-77.4542,"structure_type":null,"structure_name":null,"structure_address":"300 S INT MANASSAS DR MATHIS AVE","height":0,"base_elevation":90.566909,"structure_owner_name":"MANASSAS PARK, CITY OF","structure_manager_name":null,"data_source":"FCC: Land Mobile - Private (GIS)"}},{"type":"Feature","geometry":{"type":"Point","coordinates":[-77.453899,38.769999]},"properties":{"name":"9102 Manassas Drive","styleUrl":"#towerStyle","styleHash":"1d01e409","county":"Manassas Park city","lat":38.769999,"lng":-77.453899,"structure_type":"TOWER","structure_name":null,"structure_address":"9102 Manassas Drive","height":53.9,"base_elevation":90.806877,"structure_owner_name":"FCI 900, INC.","structure_manager_name":null,"data_source":"FCC: Land Mobile - Commercial (GIS)"}},{"type":"Feature","geometry":{"type":"Point","coordinates":[-77.453899,38.769999]},"properties":{"name":"9102 MANASSAS DRIVE","styleUrl":"#towerStyle","styleHash":"1d01e409","county":"Manassas Park city","lat":38.769999,"lng":-77.453899,"structure_type":"TOWER","structure_name":null,"structure_address":"9102 MANASSAS DRIVE","height":53.9,"base_elevation":90.806877,"structure_owner_name":"NEXTEL COMMUNICATIONS OF THE MID-ATLANTIC, INC.","structure_manager_name":null,"data_source":"FCC: Land Mobile - Commercial (GIS)"}},{"type":"Feature","geometry":{"type":"Point","coordinates":[-77.4379,38.7764]},"properties":{"name":"9104 INDUSTRY DRIVE","styleUrl":"#towerStyle","styleHash":"1d01e409","county":"Manassas Park city","lat":38.7764,"lng":-77.4379,"structure_type":"TOWER","structure_name":null,"structure_address":"9104 INDUSTRY DRIVE","height":80.2,"base_elevation":68.695678,"structure_owner_name":"Cricket License Company, LLC","structure_manager_name":null,"data_source":"FCC: Microwave (GIS)"}},{"type":"Feature","geometry":{"type":"Point","coordinates":[-77.4379,38.7764]},"properties":{"name":"9104 INDUSTRY DRIVE","styleUrl":"#towerStyle","styleHash":"1d01e409","county":"Manassas Park city","lat":38.7764,"lng":-77.4379,"structure_type":"TOWER","structure_name":null,"structure_address":"9104 INDUSTRY DRIVE","height":80.2,"base_elevation":68.695678,"structure_owner_name":"FiberTower Network Services Corp.","structure_manager_name":null,"data_source":"FCC: Microwave (GIS)"}},{"type":"Feature","geometry":{"type":"Point","coordinates":[-77.445,38.7661]},"properties":{"name":"NEW DOMINION SE","styleUrl":"#towerStyle","styleHash":"1d01e409","county":"Manassas Park city","lat":38.7661,"lng":-77.445,"structure_type":"B","structure_name":null,"structure_address":"NEW DOMINION SE","height":9.1,"base_elevation":79.097373,"structure_owner_name":"PRINCE WILLIAM COUNTY PUBLIC SCHOOLS","structure_manager_name":null,"data_source":"FCC: Land Mobile - Private (GIS)"}}]}