{"type":"FeatureCollection","features":[{"type":"Feature","geometry":{"type":"Point","coordinates":[-79.241899,37.2439]},"properties":{"name":"2.3MI ENE","styleUrl":"#towerStyle","styleHash":"1d01e409","county":"Campbell County","lat":37.2439,"lng":-79.241899,"structure_type":null,"structure_name":null,"structure_address":"2.3MI ENE","height":91.4,"base_elevation":296.282653,"structure_owner_name":"Spire Telecom, LP","structure_manager_name":null,"data_source":"FCC: Antenna Structure Registration (GIS)"}},{"type":"Feature","geometry":{"type":"Point","coordinates":[-79.1675,37.3489]},"properties":{"name":"2.2 MI S","styleUrl":"#towerStyle","styleHash":"1d01e409","county":"Campbell County","lat":37.3489,"lng":-79.1675,"structure_type":null,"structure_name":null,"structure_address":"2.2 MI S","height":21.3,"base_elevation":415.033203,"structure_owner_name":"United States Cellular Corporation","structure_manager_name":null,"data_source":"FCC: Antenna Structure Registration (GIS)"}},{"type":"Feature","geometry":{"type":"Point","coordinates":[-79.208,37.2981]},"properties":{"name":"1678 Lawyers Road","styleUrl":"#towerStyle","styleHash":"1d01e409","county":"Campbell County","lat":37.2981,"lng":-79.208,"structure_type":null,"structure_name":null,"structure_address":"1678 Lawyers Road","height":59.4,"base_elevation":225.209197,"structure_owner_name":"Tower Development Corporation","structure_manager_name":null,"data_source":"FCC: Antenna Structure Registration (GIS)"}},{"type":"Feature","geometry":{"type":"Point","coordinates":[-79.180299,37.2131]},"properties":{"name":"4600 Browns Mill Road","styleUrl":"#towerStyle","styleHash":"1d01e409","county":"Campbell County","lat":37.2131,"lng":-79.180299,"structure_type":null,"structure_name":null,"structure_address":"4600 Browns Mill Road","height":79.3,"base_elevation":263.638275,"structure_owner_name":"CROWN ATLANTIC COMPANY, LLC","structure_manager_name":null,"data_source":"FCC: Antenna Structure Registration (GIS)"}},{"type":"Feature","geometry":{"type":"Point","coordinates":[-79.0897,37.2858]},"properties":{"name":"Long Mountain in Campbell County, Va","styleUrl":"#towerStyle","styleHash":"1d01e409","county":"Campbell County","lat":37.2858,"lng":-79.0897,"structure_type":null,"structure_name":null,"structure_address":"Long Mountain in Campbell County, Va","height":54.2,"base_elevation":434.226318,"structure_owner_name":"Virginia, Commonwealth of  Dept. of State Police","structure_manager_name":null,"data_source":"FCC: Antenna Structure Registration (GIS)"}},{"type":"Feature","geometry":{"type":"Point","coordinates":[-79.1678,37.3492]},"properties":{"name":"On top of Candler's Mountain","styleUrl":"#towerStyle","styleHash":"1d01e409","county":"Campbell County","lat":37.3492,"lng":-79.1678,"structure_type":null,"structure_name":null,"structure_address":"On top of Candler's Mountain","height":21,"base_elevation":416.537109,"structure_owner_name":null,"structure_manager_name":null,"data_source":"FCC: Antenna Structure Registration (GIS)"}},{"type":"Feature","geometry":{"type":"Point","coordinates":[-78.8373,37.1832]},"properties":{"name":"8770 Sugar Hill Road","styleUrl":"#towerStyle","styleHash":"1d01e409","county":"Campbell County","lat":37.1832,"lng":-78.8373,"structure_type":null,"structure_name":null,"structure_address":"8770 Sugar Hill Road","height":97.5,"base_elevation":223.279129,"structure_owner_name":"Spire Telecom, LP","structure_manager_name":null,"data_source":"FCC: Antenna Structure Registration (GIS)"}},{"type":"Feature","geometry":{"type":"Point","coordinates":[-79.1584,37.314999]},"properties":{"name":"1124 Sunnymead Rd","styleUrl":"#towerStyle","styleHash":"1d01e409","county":"Campbell County","lat":37.314999,"lng":-79.1584,"structure_type":null,"structure_name":null,"structure_address":"1124 Sunnymead Rd","height":59.4,"base_elevation":287.332489,"structure_owner_name":"Tower Development Corporation","structure_manager_name":null,"data_source":"FCC: Antenna Structure Registration (GIS)"}},{"type":"Feature","geometry":{"type":"Point","coordinates":[-78.941399,37.0383]},"properties":{"name":"RADIO RD","styleUrl":"#towerStyle","styleHash":"1d01e409","county":"Campbell County","lat":37.0383,"lng":-78.941399,"structure_type":null,"structure_name":null,"structure_address":"RADIO RD","height":60.9,"base_elevation":116.066444,"structure_owner_name":"JKC Media Ventures, LLC","structure_manager_name":null,"data_source":"FCC: Antenna Structure Registration (GIS)"}},{"type":"Feature","geometry":{"type":"Point","coordinates":[-79.2242,37.1606]},"properties":{"name":"W SIDE OF US HWY 29 1.3 KM N INT RT 699","styleUrl":"#towerStyle","styleHash":"1d01e409","county":"Campbell County","lat":37.1606,"lng":-79.2242,"structure_type":null,"structure_name":null,"structure_address":"W SIDE OF US HWY 29 1.3 KM N INT RT 699","height":82,"base_elevation":235.109283,"structure_owner_name":"D J BROADCASTING INC  DBA =  WKDE","structure_manager_name":null,"data_source":"FCC: Antenna Structure Registration (GIS)"}},{"type":"Feature","geometry":{"type":"Point","coordinates":[-79.2092,37.2024]},"properties":{"name":"5124 Wands Road","styleUrl":"#towerStyle","styleHash":"1d01e409","county":"Campbell County","lat":37.2024,"lng":-79.2092,"structure_type":null,"structure_name":null,"structure_address":"5124 Wands Road","height":73.2,"base_elevation":257.072509,"structure_owner_name":"Alltel Communications of Petersburg, Inc.","structure_manager_name":null,"data_source":"FCC: Antenna Structure Registration (GIS)"}},{"type":"Feature","geometry":{"type":"Point","coordinates":[-79.3517,37.1975]},"properties":{"name":"NEAR RT 626 JOHNSON MT 4.5 MI SW","styleUrl":"#towerStyle","styleHash":"1d01e409","county":"Campbell County","lat":37.1975,"lng":-79.3517,"structure_type":null,"structure_name":null,"structure_address":"NEAR RT 626 JOHNSON MT 4.5 MI SW","height":175.6,"base_elevation":405.172332,"structure_owner_name":"Liberty University, Inc.","structure_manager_name":null,"data_source":"FCC: Antenna Structure Registration (GIS)"}},{"type":"Feature","geometry":{"type":"Point","coordinates":[-79.206199,37.3396]},"properties":{"name":"713D Leesville Road","styleUrl":"#towerStyle","styleHash":"1d01e409","county":"Campbell County","lat":37.3396,"lng":-79.206199,"structure_type":null,"structure_name":null,"structure_address":"713D Leesville Road","height":23.4,"base_elevation":286.482238,"structure_owner_name":"Alltel Communications of Petersburg, Inc.","structure_manager_name":null,"data_source":"FCC: Antenna Structure Registration (GIS)"}},{"type":"Feature","geometry":{"type":"Point","coordinates":[-78.9955,37.1101]},"properties":{"name":"13982 Hwy 501","styleUrl":"#towerStyle","styleHash":"1d01e409","county":"Campbell County","lat":37.1101,"lng":-78.9955,"structure_type":null,"structure_name":null,"structure_address":"13982 Hwy 501","height":57.9,"base_elevation":191.690979,"structure_owner_name":"Alltel Communications of Petersburg, Inc.","structure_manager_name":null,"data_source":"FCC: Antenna Structure Registration (GIS)"}},{"type":"Feature","geometry":{"type":"Point","coordinates":[-79.2335,37.3297]},"properties":{"name":"25 PROGRESS LANE","styleUrl":"#towerStyle","styleHash":"1d01e409","county":"Campbell County","lat":37.3297,"lng":-79.2335,"structure_type":null,"structure_name":null,"structure_address":"25 PROGRESS LANE","height":33.5,"base_elevation":296.836303,"structure_owner_name":"Alltel Communications of Petersburg, Inc.","structure_manager_name":null,"data_source":"FCC: Antenna Structure Registration (GIS)"}},{"type":"Feature","geometry":{"type":"Point","coordinates":[-79.168,37.3495]},"properties":{"name":"0.5 MI S OF SR 224 & CANDLER MTN RD INT","styleUrl":"#towerStyle","styleHash":"1d01e409","county":"Campbell County","lat":37.3495,"lng":-79.168,"structure_type":null,"structure_name":null,"structure_address":"0.5 MI S OF SR 224 & CANDLER MTN RD INT","height":21.3,"base_elevation":409.293762,"structure_owner_name":"Alltel Communications of Petersburg, Inc.","structure_manager_name":null,"data_source":"FCC: Antenna Structure Registration (GIS)"}},{"type":"Feature","geometry":{"type":"Point","coordinates":[-79.177799,37.2736]},"properties":{"name":"INT OF RT 688 AND RT 690","styleUrl":"#towerStyle","styleHash":"1d01e409","county":"Campbell County","lat":37.2736,"lng":-79.177799,"structure_type":null,"structure_name":null,"structure_address":"INT OF RT 688 AND RT 690","height":41.1,"base_elevation":318.641632,"structure_owner_name":"Alltel Communications of Petersburg, Inc.","structure_manager_name":null,"data_source":"FCC: Antenna Structure Registration (GIS)"}},{"type":"Feature","geometry":{"type":"Point","coordinates":[-79.167299,37.3325]},"properties":{"name":"Candlers Mountain Rd","styleUrl":"#towerStyle","styleHash":"1d01e409","county":"Campbell County","lat":37.3325,"lng":-79.167299,"structure_type":null,"structure_name":null,"structure_address":"Candlers Mountain Rd","height":59.4,"base_elevation":309.676788,"structure_owner_name":"Tower Development Corporation","structure_manager_name":null,"data_source":"FCC: Antenna Structure Registration (GIS)"}},{"type":"Feature","geometry":{"type":"Point","coordinates":[-79.136399,37.3371]},"properties":{"name":"Jack Mountain, approx. 5.6 Km SouthEast","styleUrl":"#towerStyle","styleHash":"1d01e409","county":"Campbell County","lat":37.3371,"lng":-79.136399,"structure_type":null,"structure_name":null,"structure_address":"Jack Mountain, approx. 5.6 Km SouthEast","height":45.7,"base_elevation":409.203582,"structure_owner_name":"Comcast of Georgia/Virginia, Inc.","structure_manager_name":null,"data_source":"FCC: Antenna Structure Registration (GIS)"}},{"type":"Feature","geometry":{"type":"Point","coordinates":[-78.9036,37.0892]},"properties":{"name":"S OF HWY 600 1 MI SW OF INT HWY 618","styleUrl":"#towerStyle","styleHash":"1d01e409","county":"Campbell County","lat":37.0892,"lng":-78.9036,"structure_type":null,"structure_name":null,"structure_address":"S OF HWY 600 1 MI SW OF INT HWY 618","height":85.3,"base_elevation":192.486953,"structure_owner_name":"SOUTHSIDE ELECTRIC COOPERATIVE","structure_manager_name":null,"data_source":"FCC: Antenna Structure Registration (GIS)"}},{"type":"Feature","geometry":{"type":"Point","coordinates":[-79.2511,37.2769]},"properties":{"name":"15211 Leesville Road","styleUrl":"#towerStyle","styleHash":"1d01e409","county":"Campbell County","lat":37.2769,"lng":-79.2511,"structure_type":null,"structure_name":null,"structure_address":"15211 Leesville Road","height":57.9,"base_elevation":279.816101,"structure_owner_name":"Tower Development Corporation","structure_manager_name":null,"data_source":"FCC: Antenna Structure Registration (GIS)"}},{"type":"Feature","geometry":{"type":"Point","coordinates":[-79.1744,37.2983]},"properties":{"name":"HYLAND DR & VS 29","styleUrl":"#towerStyle","styleHash":"1d01e409","county":"Campbell County","lat":37.2983,"lng":-79.1744,"structure_type":null,"structure_name":null,"structure_address":"HYLAND DR & VS 29","height":49.4,"base_elevation":308.134796,"structure_owner_name":"CROWN COMMUNICATION LLC","structure_manager_name":null,"data_source":"FCC: Antenna Structure Registration (GIS)"}},{"type":"Feature","geometry":{"type":"Point","coordinates":[-79.2205,37.314]},"properties":{"name":"(Tower LN305); Lakeland Lake, 1359 Waterlick Road","styleUrl":"#towerStyle","styleHash":"1d01e409","county":"Campbell County","lat":37.314,"lng":-79.2205,"structure_type":null,"structure_name":null,"structure_address":"(Tower LN305); Lakeland Lake, 1359 Waterlick Road","height":54.9,"base_elevation":271.652343,"structure_owner_name":"CROWN COMMUNICATION LLC","structure_manager_name":null,"data_source":"FCC: Antenna Structure Registration (GIS)"}},{"type":"Feature","geometry":{"type":"Point","coordinates":[-79.0994,37.238]},"properties":{"name":"2723 Rocky Road  (#311247)","styleUrl":"#towerStyle","styleHash":"1d01e409","county":"Campbell County","lat":37.238,"lng":-79.0994,"structure_type":null,"structure_name":null,"structure_address":"2723 Rocky Road  (#311247)","height":59.7,"base_elevation":272.760437,"structure_owner_name":"SpectraSite Communications, LLC. through American Towers, LLC.","structure_manager_name":null,"data_source":"FCC: Antenna Structure Registration (GIS)"}},{"type":"Feature","geometry":{"type":"Point","coordinates":[-79.1412,37.2633]},"properties":{"name":"1770 Colonial Highway  (#311246)","styleUrl":"#towerStyle","styleHash":"1d01e409","county":"Campbell County","lat":37.2633,"lng":-79.1412,"structure_type":null,"structure_name":null,"structure_address":"1770 Colonial Highway  (#311246)","height":59.7,"base_elevation":296.063873,"structure_owner_name":"SpectraSite Communications, LLC. through American Towers, LLC.","structure_manager_name":null,"data_source":"FCC: Antenna Structure Registration (GIS)"}},{"type":"Feature","geometry":{"type":"Point","coordinates":[-79.0435,37.3849]},"properties":{"name":"1264 CABIN FIELD ROAD","styleUrl":"#towerStyle","styleHash":"1d01e409","county":"Campbell County","lat":37.3849,"lng":-79.0435,"structure_type":null,"structure_name":null,"structure_address":"1264 CABIN FIELD ROAD","height":54.9,"base_elevation":237.860565,"structure_owner_name":"United States Cellular Corporation","structure_manager_name":null,"data_source":"FCC: Antenna Structure Registration (GIS)"}},{"type":"Feature","geometry":{"type":"Point","coordinates":[-79.1806,37.2575]},"properties":{"name":"IN THE CITY OF YELLOW BRANCH","styleUrl":"#towerStyle","styleHash":"1d01e409","county":"Campbell County","lat":37.2575,"lng":-79.1806,"structure_type":null,"structure_name":null,"structure_address":"IN THE CITY OF YELLOW BRANCH","height":73.2,"base_elevation":280.195465,"structure_owner_name":"United States Cellular Corporation","structure_manager_name":null,"data_source":"FCC: Antenna Structure Registration (GIS)"}},{"type":"Feature","geometry":{"type":"Point","coordinates":[-78.9592,37.0558]},"properties":{"name":"1.5 MI NW","styleUrl":"#towerStyle","styleHash":"1d01e409","county":"Campbell County","lat":37.0558,"lng":-78.9592,"structure_type":null,"structure_name":null,"structure_address":"1.5 MI NW","height":91.4,"base_elevation":176.608215,"structure_owner_name":"United States Cellular Corporation","structure_manager_name":null,"data_source":"FCC: Antenna Structure Registration (GIS)"}},{"type":"Feature","geometry":{"type":"Point","coordinates":[-79.2906,37.1272]},"properties":{"name":"5 MI NNW OF BROOKNEAL","styleUrl":"#towerStyle","styleHash":"1d01e409","county":"Campbell County","lat":37.1272,"lng":-79.2906,"structure_type":null,"structure_name":null,"structure_address":"5 MI NNW OF BROOKNEAL","height":54.9,"base_elevation":252.290283,"structure_owner_name":"United States Cellular Corporation","structure_manager_name":null,"data_source":"FCC: Antenna Structure Registration (GIS)"}},{"type":"Feature","geometry":{"type":"Point","coordinates":[-79.09,37.2854]},"properties":{"name":"SW END OF LONG MOUNTAIN .7 MI NE","styleUrl":"#towerStyle","styleHash":"1d01e409","county":"Campbell County","lat":37.2854,"lng":-79.09,"structure_type":null,"structure_name":null,"structure_address":"SW END OF LONG MOUNTAIN .7 MI NE","height":54.9,"base_elevation":430.15393,"structure_owner_name":"United States Cellular Corporation","structure_manager_name":null,"data_source":"FCC: Antenna Structure Registration (GIS)"}},{"type":"Feature","geometry":{"type":"Point","coordinates":[-78.9259,37.0385]},"properties":{"name":"6800' SE OF US 501 & SR 40","styleUrl":"#towerStyle","styleHash":"1d01e409","county":"Campbell County","lat":37.0385,"lng":-78.9259,"structure_type":null,"structure_name":null,"structure_address":"6800' SE OF US 501 & SR 40","height":76.2,"base_elevation":167.954544,"structure_owner_name":"Alltel Communications of Petersburg, Inc.","structure_manager_name":null,"data_source":"FCC: Antenna Structure Registration (GIS)"}},{"type":"Feature","geometry":{"type":"Point","coordinates":[-79.0899,37.2866]},"properties":{"name":"Campbell County","styleUrl":"#towerStyle","styleHash":"1d01e409","county":"Campbell County","lat":37.2866,"lng":-79.0899,"structure_type":null,"structure_name":null,"structure_address":"Campbell County","height":79.2,"base_elevation":422.960113,"structure_owner_name":"SBA Properties, Inc.","structure_manager_name":null,"data_source":"FCC: Antenna Structure Registration (GIS)"}},{"type":"Feature","geometry":{"type":"Point","coordinates":[-79.0572,37.4042]},"properties":{"name":"Vertical Asset","styleUrl":"#towerStyle","styleHash":"1d01e409","county":"Campbell County","lat":37.4042,"lng":-79.0572,"structure_type":null,"structure_name":null,"structure_address":null,"height":0,"base_elevation":166.427673,"structure_owner_name":"Intermet Archer Creek Foundry","structure_manager_name":null,"data_source":"FCC: Land Mobile - Private (GIS)"}},{"type":"Feature","geometry":{"type":"Point","coordinates":[-79.102199,37.276099]},"properties":{"name":"684 Village Highway","styleUrl":"#towerStyle","styleHash":"1d01e409","county":"Campbell County","lat":37.276099,"lng":-79.102199,"structure_type":null,"structure_name":null,"structure_address":"684 Village Highway","height":0,"base_elevation":264.802307,"structure_owner_name":"Campbell County School Board","structure_manager_name":null,"data_source":"FCC: Land Mobile - Private (GIS)"}},{"type":"Feature","geometry":{"type":"Point","coordinates":[-79.102199,37.276099]},"properties":{"name":"684 Village Highway","styleUrl":"#towerStyle","styleHash":"1d01e409","county":"Campbell County","lat":37.276099,"lng":-79.102199,"structure_type":null,"structure_name":null,"structure_address":"684 Village Highway","height":0,"base_elevation":264.802307,"structure_owner_name":"Campbell County School Board","structure_manager_name":null,"data_source":"FCC: Land Mobile - Private (GIS)"}},{"type":"Feature","geometry":{"type":"Point","coordinates":[-79.0903,37.2853]},"properties":{"name":"Vertical Asset","styleUrl":"#towerStyle","styleHash":"1d01e409","county":"Campbell County","lat":37.2853,"lng":-79.0903,"structure_type":null,"structure_name":null,"structure_address":null,"height":0,"base_elevation":430.09262,"structure_owner_name":"Norfolk Southern Railway Company","structure_manager_name":null,"data_source":"FCC: Land Mobile - Private (GIS)"}},{"type":"Feature","geometry":{"type":"Point","coordinates":[-79.1844,37.2508]},"properties":{"name":"Vertical Asset","styleUrl":"#towerStyle","styleHash":"1d01e409","county":"Campbell County","lat":37.2508,"lng":-79.1844,"structure_type":null,"structure_name":null,"structure_address":null,"height":0,"base_elevation":275.739562,"structure_owner_name":"Campbell County Schools","structure_manager_name":null,"data_source":"FCC: Land Mobile - Private (GIS)"}},{"type":"Feature","geometry":{"type":"Point","coordinates":[-79.0622,37.412]},"properties":{"name":"8.5 MI E OF US RT 29 ON RT 460 1.9 MO ON MT ATHOS RD","styleUrl":"#towerStyle","styleHash":"1d01e409","county":"Campbell County","lat":37.412,"lng":-79.0622,"structure_type":"tower","structure_name":null,"structure_address":"8.5 MI E OF US RT 29 ON RT 460 1.9 MO ON MT ATHOS RD","height":20,"base_elevation":174.280258,"structure_owner_name":"BABCOCK & WILCOX NUCLEAR OPEATIONS GROUP INC","structure_manager_name":null,"data_source":"FCC: Land Mobile - Private (GIS)"}},{"type":"Feature","geometry":{"type":"Point","coordinates":[-79.1158,37.2689]},"properties":{"name":"RT24 RR CROSSING AT RR MP L11.50","styleUrl":"#towerStyle","styleHash":"1d01e409","county":"Campbell County","lat":37.2689,"lng":-79.1158,"structure_type":"BANT","structure_name":null,"structure_address":"RT24 RR CROSSING AT RR MP L11.50","height":3.1,"base_elevation":286.137603,"structure_owner_name":"Norfolk Southern Railway Company","structure_manager_name":null,"data_source":"FCC: Land Mobile - Private (GIS)"}},{"type":"Feature","geometry":{"type":"Point","coordinates":[-79.1014,37.275599]},"properties":{"name":"Vertical Asset","styleUrl":"#towerStyle","styleHash":"1d01e409","county":"Campbell County","lat":37.275599,"lng":-79.1014,"structure_type":null,"structure_name":null,"structure_address":null,"height":0,"base_elevation":261.953643,"structure_owner_name":"RUSTBURG HIGH SCHOOL","structure_manager_name":null,"data_source":"FCC: Land Mobile - Private (GIS)"}},{"type":"Feature","geometry":{"type":"Point","coordinates":[-79.0905,37.2856]},"properties":{"name":"Vertical Asset","styleUrl":"#towerStyle","styleHash":"1d01e409","county":"Campbell County","lat":37.2856,"lng":-79.0905,"structure_type":null,"structure_name":null,"structure_address":null,"height":0,"base_elevation":427.733703,"structure_owner_name":"VIRGINIA, COMMONWEALTH OF","structure_manager_name":null,"data_source":"FCC: Land Mobile - Private (GIS)"}},{"type":"Feature","geometry":{"type":"Point","coordinates":[-79.0864,37.2914]},"properties":{"name":"RTE 2802 OFF RTE 24 AT DEAD END","styleUrl":"#towerStyle","styleHash":"1d01e409","county":"Campbell County","lat":37.2914,"lng":-79.0864,"structure_type":"TOWER","structure_name":null,"structure_address":"RTE 2802 OFF RTE 24 AT DEAD END","height":30,"base_elevation":420.799926,"structure_owner_name":"CAMPBELL, COUNTY OF","structure_manager_name":null,"data_source":"FCC: Land Mobile - Private (GIS)"}},{"type":"Feature","geometry":{"type":"Point","coordinates":[-78.9311,37.045]},"properties":{"name":"Reke Owen St RR crossing at MP L31.85","styleUrl":"#towerStyle","styleHash":"1d01e409","county":"Campbell County","lat":37.045,"lng":-78.9311,"structure_type":"BANT","structure_name":null,"structure_address":"Reke Owen St RR crossing at MP L31.85","height":3.1,"base_elevation":158.52098,"structure_owner_name":"Norfolk Southern Railway Company","structure_manager_name":null,"data_source":"FCC: Land Mobile - Private (GIS)"}},{"type":"Feature","geometry":{"type":"Point","coordinates":[-79.2608,37.1453]},"properties":{"name":"2882 Dearing Ford Rd","styleUrl":"#towerStyle","styleHash":"1d01e409","county":"Campbell County","lat":37.1453,"lng":-79.2608,"structure_type":"POLE","structure_name":null,"structure_address":"2882 Dearing Ford Rd","height":36.6,"base_elevation":221.762252,"structure_owner_name":"SOUTHSIDE ELECTRIC COOPERATIVE INC","structure_manager_name":null,"data_source":"FCC: Land Mobile - Private (GIS)"}},{"type":"Feature","geometry":{"type":"Point","coordinates":[-78.9036,37.0892]},"properties":{"name":"S OF HWY 600 1 MI SW OF INT HWY 618","styleUrl":"#towerStyle","styleHash":"1d01e409","county":"Campbell County","lat":37.0892,"lng":-78.9036,"structure_type":"TOWER","structure_name":null,"structure_address":"S OF HWY 600 1 MI SW OF INT HWY 618","height":91.4,"base_elevation":192.486953,"structure_owner_name":"SOUTHSIDE ELECTRIC COOPERATIVE INC","structure_manager_name":null,"data_source":"FCC: Land Mobile - Private (GIS)"}},{"type":"Feature","geometry":{"type":"Point","coordinates":[-78.9036,37.0892]},"properties":{"name":"S OF HWY 600 1 MI SW OF INT HWY 618","styleUrl":"#towerStyle","styleHash":"1d01e409","county":"Campbell County","lat":37.0892,"lng":-78.9036,"structure_type":"TOWER","structure_name":null,"structure_address":"S OF HWY 600 1 MI SW OF INT HWY 618","height":91.4,"base_elevation":192.486953,"structure_owner_name":"SOUTHSIDE ELECTRIC COOPERATIVE INC","structure_manager_name":null,"data_source":"FCC: Land Mobile - Private (GIS)"}},{"type":"Feature","geometry":{"type":"Point","coordinates":[-79.3517,37.1975]},"properties":{"name":"NEAR RT 626 JOHNSON MT 4.5 MI SW","styleUrl":"#towerStyle","styleHash":"1d01e409","county":"Campbell County","lat":37.1975,"lng":-79.3517,"structure_type":"TOWER","structure_name":null,"structure_address":"NEAR RT 626 JOHNSON MT 4.5 MI SW","height":176.5,"base_elevation":405.172332,"structure_owner_name":"SOUTHSIDE ELECTRIC COOPERATIVE INC","structure_manager_name":null,"data_source":"FCC: Land Mobile - Private (GIS)"}},{"type":"Feature","geometry":{"type":"Point","coordinates":[-79.3517,37.1975]},"properties":{"name":"NEAR RT 626 JOHNSON MT 4.5 MI SW","styleUrl":"#towerStyle","styleHash":"1d01e409","county":"Campbell County","lat":37.1975,"lng":-79.3517,"structure_type":"TOWER","structure_name":null,"structure_address":"NEAR RT 626 JOHNSON MT 4.5 MI SW","height":175.6,"base_elevation":405.172332,"structure_owner_name":"SOUTHSIDE ELECTRIC COOPERATIVE INC","structure_manager_name":null,"data_source":"FCC: Land Mobile - Private (GIS)"}},{"type":"Feature","geometry":{"type":"Point","coordinates":[-79.265,37.3364]},"properties":{"name":"Vertical Asset","styleUrl":"#towerStyle","styleHash":"1d01e409","county":"Campbell County","lat":37.3364,"lng":-79.265,"structure_type":null,"structure_name":null,"structure_address":null,"height":0,"base_elevation":278.570678,"structure_owner_name":"Yum Restaurant Service Group, Inc.","structure_manager_name":null,"data_source":"FCC: Land Mobile - Private (GIS)"}},{"type":"Feature","geometry":{"type":"Point","coordinates":[-78.836899,37.1831]},"properties":{"name":"1.2 MI WSW","styleUrl":"#towerStyle","styleHash":"1d01e409","county":"Campbell County","lat":37.1831,"lng":-78.836899,"structure_type":"TOWER","structure_name":null,"structure_address":"1.2 MI WSW","height":93.8,"base_elevation":223.802398,"structure_owner_name":"CHARLOTTE, COUNTY OF","structure_manager_name":null,"data_source":"FCC: Land Mobile - Private (GIS)"}},{"type":"Feature","geometry":{"type":"Point","coordinates":[-78.836899,37.1831]},"properties":{"name":"1.2 MI WSW","styleUrl":"#towerStyle","styleHash":"1d01e409","county":"Campbell County","lat":37.1831,"lng":-78.836899,"structure_type":"TOWER","structure_name":null,"structure_address":"1.2 MI WSW","height":93.8,"base_elevation":223.802398,"structure_owner_name":"Charlotte, County of","structure_manager_name":null,"data_source":"FCC: Land Mobile - Private (GIS)"}},{"type":"Feature","geometry":{"type":"Point","coordinates":[-79.0814,37.1695]},"properties":{"name":"SR635 RR crossing at MP L19.4","styleUrl":"#towerStyle","styleHash":"1d01e409","county":"Campbell County","lat":37.1695,"lng":-79.0814,"structure_type":"BANT","structure_name":null,"structure_address":"SR635 RR crossing at MP L19.4","height":3.1,"base_elevation":215.152496,"structure_owner_name":"Norfolk Southern Railway Company","structure_manager_name":null,"data_source":"FCC: Land Mobile - Private (GIS)"}},{"type":"Feature","geometry":{"type":"Point","coordinates":[-78.9419,37.0483]},"properties":{"name":"Old Main St RR crossing at MP L31.28","styleUrl":"#towerStyle","styleHash":"1d01e409","county":"Campbell County","lat":37.0483,"lng":-78.9419,"structure_type":"BANT","structure_name":null,"structure_address":"Old Main St RR crossing at MP L31.28","height":3.1,"base_elevation":167.833694,"structure_owner_name":"Norfolk Southern Railway Company","structure_manager_name":null,"data_source":"FCC: Land Mobile - Private (GIS)"}},{"type":"Feature","geometry":{"type":"Point","coordinates":[-78.9469,37.0519]},"properties":{"name":"Mattox St RR crossing at MP L30.90","styleUrl":"#towerStyle","styleHash":"1d01e409","county":"Campbell County","lat":37.0519,"lng":-78.9469,"structure_type":"BANT","structure_name":null,"structure_address":"Mattox St RR crossing at MP L30.90","height":3.1,"base_elevation":168.164245,"structure_owner_name":"Norfolk Southern Railway Company","structure_manager_name":null,"data_source":"FCC: Land Mobile - Private (GIS)"}},{"type":"Feature","geometry":{"type":"Point","coordinates":[-78.9694,37.0683]},"properties":{"name":"GA Pacific RR crossing at MP L29.09","styleUrl":"#towerStyle","styleHash":"1d01e409","county":"Campbell County","lat":37.0683,"lng":-78.9694,"structure_type":"BANT","structure_name":null,"structure_address":"GA Pacific RR crossing at MP L29.09","height":3.1,"base_elevation":172.087707,"structure_owner_name":"Norfolk Southern Railway Company","structure_manager_name":null,"data_source":"FCC: Land Mobile - Private (GIS)"}},{"type":"Feature","geometry":{"type":"Point","coordinates":[-79.199999,37.3269]},"properties":{"name":"Vertical Asset","styleUrl":"#towerStyle","styleHash":"1d01e409","county":"Campbell County","lat":37.3269,"lng":-79.199999,"structure_type":null,"structure_name":null,"structure_address":null,"height":0,"base_elevation":281.917785,"structure_owner_name":"LYNCHBURG REGIONAL AIRPORT","structure_manager_name":null,"data_source":"FCC: Land Mobile - Private (GIS)"}},{"type":"Feature","geometry":{"type":"Point","coordinates":[-79.0622,37.412]},"properties":{"name":"Mt Athos Road","styleUrl":"#towerStyle","styleHash":"1d01e409","county":"Campbell County","lat":37.412,"lng":-79.0622,"structure_type":"TOWER","structure_name":null,"structure_address":"Mt Athos Road","height":15.2,"base_elevation":174.280258,"structure_owner_name":"BABCOCK & WILCOX NUCLEAR OPEATIONS GROUP INC","structure_manager_name":null,"data_source":"FCC: Land Mobile - Private (GIS)"}},{"type":"Feature","geometry":{"type":"Point","coordinates":[-79.0528,37.4111]},"properties":{"name":"Rt. 726 Mt. Athos Road","styleUrl":"#towerStyle","styleHash":"1d01e409","county":"Campbell County","lat":37.4111,"lng":-79.0528,"structure_type":"B","structure_name":null,"structure_address":"Rt. 726 Mt. Athos Road","height":0,"base_elevation":169.965118,"structure_owner_name":"FRAMATONE ANP","structure_manager_name":null,"data_source":"FCC: Land Mobile - Private (GIS)"}},{"type":"Feature","geometry":{"type":"Point","coordinates":[-79.0905,37.2856]},"properties":{"name":"Vertical Asset","styleUrl":"#towerStyle","styleHash":"1d01e409","county":"Campbell County","lat":37.2856,"lng":-79.0905,"structure_type":null,"structure_name":null,"structure_address":null,"height":0,"base_elevation":427.733703,"structure_owner_name":"Virginia Department of Forestry","structure_manager_name":null,"data_source":"FCC: Land Mobile - Private (GIS)"}},{"type":"Feature","geometry":{"type":"Point","coordinates":[-79.0861,37.290799]},"properties":{"name":"ATOP LONG MTN 1 MI NE OF","styleUrl":"#towerStyle","styleHash":"1d01e409","county":"Campbell County","lat":37.290799,"lng":-79.0861,"structure_type":"TOWER","structure_name":null,"structure_address":"ATOP LONG MTN 1 MI NE OF","height":53.3,"base_elevation":434.456207,"structure_owner_name":"American Electric Power Service Corporation","structure_manager_name":null,"data_source":"FCC: Land Mobile - Private (GIS)"}},{"type":"Feature","geometry":{"type":"Point","coordinates":[-79.0675,37.3419]},"properties":{"name":"Vertical Asset","styleUrl":"#towerStyle","styleHash":"1d01e409","county":"Campbell County","lat":37.3419,"lng":-79.0675,"structure_type":null,"structure_name":null,"structure_address":null,"height":0,"base_elevation":213.070632,"structure_owner_name":"BOONSBORO COUNTRY CLUB CORPORATION","structure_manager_name":null,"data_source":"FCC: Land Mobile - Private (GIS)"}},{"type":"Feature","geometry":{"type":"Point","coordinates":[-79.0217,37.1256]},"properties":{"name":"RR crossing at SR-970 and MP L23.58","styleUrl":"#towerStyle","styleHash":"1d01e409","county":"Campbell County","lat":37.1256,"lng":-79.0217,"structure_type":"BANT","structure_name":null,"structure_address":"RR crossing at SR-970 and MP L23.58","height":3.1,"base_elevation":187.258789,"structure_owner_name":"Norfolk Southern Railway Company","structure_manager_name":null,"data_source":"FCC: Land Mobile - Private (GIS)"}},{"type":"Feature","geometry":{"type":"Point","coordinates":[-79.0739,37.1633]},"properties":{"name":"RR crossing at SR-761 and RR MP L19.75","styleUrl":"#towerStyle","styleHash":"1d01e409","county":"Campbell County","lat":37.1633,"lng":-79.0739,"structure_type":"BANT","structure_name":null,"structure_address":"RR crossing at SR-761 and RR MP L19.75","height":3.1,"base_elevation":237.861129,"structure_owner_name":"Norfolk Southern Railway Company","structure_manager_name":null,"data_source":"FCC: Land Mobile - Private (GIS)"}},{"type":"Feature","geometry":{"type":"Point","coordinates":[-79.0953,37.2253]},"properties":{"name":"RR crossing at SR-607","styleUrl":"#towerStyle","styleHash":"1d01e409","county":"Campbell County","lat":37.2253,"lng":-79.0953,"structure_type":"BANT","structure_name":null,"structure_address":"RR crossing at SR-607","height":3.1,"base_elevation":262.706512,"structure_owner_name":"Norfolk Southern Railway Company","structure_manager_name":null,"data_source":"FCC: Land Mobile - Private (GIS)"}},{"type":"Feature","geometry":{"type":"Point","coordinates":[-79.1208,37.2497]},"properties":{"name":"RR crossing at SR-686 and RR MP L13.05","styleUrl":"#towerStyle","styleHash":"1d01e409","county":"Campbell County","lat":37.2497,"lng":-79.1208,"structure_type":"BANT","structure_name":null,"structure_address":"RR crossing at SR-686 and RR MP L13.05","height":3.1,"base_elevation":271.166351,"structure_owner_name":"Norfolk Southern Railway Company","structure_manager_name":null,"data_source":"FCC: Land Mobile - Private (GIS)"}},{"type":"Feature","geometry":{"type":"Point","coordinates":[-79.11,37.307]},"properties":{"name":"RR crossing at SR-680 and RR MP L8.20","styleUrl":"#towerStyle","styleHash":"1d01e409","county":"Campbell County","lat":37.307,"lng":-79.11,"structure_type":"BANT","structure_name":null,"structure_address":"RR crossing at SR-680 and RR MP L8.20","height":3.1,"base_elevation":214.974121,"structure_owner_name":"Norfolk Southern Railway Company","structure_manager_name":null,"data_source":"FCC: Land Mobile - Private (GIS)"}},{"type":"Feature","geometry":{"type":"Point","coordinates":[-78.918,37.0319]},"properties":{"name":"DISP BASE, NS Microwave at 136.5 DEG 2.5 MI  INT SR602  501","styleUrl":"#towerStyle","styleHash":"1d01e409","county":"Campbell County","lat":37.0319,"lng":-78.918,"structure_type":"TOWER","structure_name":null,"structure_address":"DISP BASE, NS Microwave at 136.5 DEG 2.5 MI  INT SR602  501","height":36.6,"base_elevation":161.789474,"structure_owner_name":"Norfolk Southern Railway Company","structure_manager_name":null,"data_source":"FCC: Land Mobile - Private (GIS)"}},{"type":"Feature","geometry":{"type":"Point","coordinates":[-79.2619,37.3389]},"properties":{"name":"Vertical Asset","styleUrl":"#towerStyle","styleHash":"1d01e409","county":"Campbell County","lat":37.3389,"lng":-79.2619,"structure_type":null,"structure_name":null,"structure_address":null,"height":0,"base_elevation":270.507476,"structure_owner_name":"TIMBERLAKE CHRISTIAN SCHOOL","structure_manager_name":null,"data_source":"FCC: Land Mobile - Private (GIS)"}},{"type":"Feature","geometry":{"type":"Point","coordinates":[-79.0622,37.412]},"properties":{"name":"8 1/2 MI E OF US RT 29 ON RT 460 1.9 MI ON MOUNT ATHOS RD","styleUrl":"#towerStyle","styleHash":"1d01e409","county":"Campbell County","lat":37.412,"lng":-79.0622,"structure_type":"BANT","structure_name":null,"structure_address":"8 1/2 MI E OF US RT 29 ON RT 460 1.9 MI ON MOUNT ATHOS RD","height":20,"base_elevation":174.280258,"structure_owner_name":"BABCOCK & WILCOX NUCLEAR OPEATIONS GROUP INC","structure_manager_name":null,"data_source":"FCC: Land Mobile - Private (GIS)"}},{"type":"Feature","geometry":{"type":"Point","coordinates":[-79.2961,37.1294]},"properties":{"name":"OGDEN RD","styleUrl":"#towerStyle","styleHash":"1d01e409","county":"Campbell County","lat":37.1294,"lng":-79.2961,"structure_type":null,"structure_name":null,"structure_address":"OGDEN RD","height":0,"base_elevation":202.218719,"structure_owner_name":"YEATTS TRANSFER COMPANY","structure_manager_name":null,"data_source":"FCC: Land Mobile - Private (GIS)"}},{"type":"Feature","geometry":{"type":"Point","coordinates":[-79.1675,37.3486]},"properties":{"name":"CANDLERS MOUNTAIN","styleUrl":"#towerStyle","styleHash":"1d01e409","county":"Campbell County","lat":37.3486,"lng":-79.1675,"structure_type":null,"structure_name":null,"structure_address":"CANDLERS MOUNTAIN","height":0,"base_elevation":407.391754,"structure_owner_name":"United Parcel Service","structure_manager_name":null,"data_source":"FCC: Land Mobile - Private (GIS)"}},{"type":"Feature","geometry":{"type":"Point","coordinates":[-79.2133,37.2997]},"properties":{"name":"Detector, RR MP 180.8 NEAR LAWYERS","styleUrl":"#towerStyle","styleHash":"1d01e409","county":"Campbell County","lat":37.2997,"lng":-79.2133,"structure_type":"BANT","structure_name":null,"structure_address":"Detector, RR MP 180.8 NEAR LAWYERS","height":3,"base_elevation":243.83345,"structure_owner_name":"Norfolk Southern Railway Company","structure_manager_name":null,"data_source":"FCC: Land Mobile - Private (GIS)"}},{"type":"Feature","geometry":{"type":"Point","coordinates":[-79.0586,37.0483]},"properties":{"name":"Detector, RR MP V 177.4","styleUrl":"#towerStyle","styleHash":"1d01e409","county":"Campbell County","lat":37.0483,"lng":-79.0586,"structure_type":"B","structure_name":null,"structure_address":"Detector, RR MP V 177.4","height":6,"base_elevation":133.440719,"structure_owner_name":"Norfolk Southern Railway Company","structure_manager_name":null,"data_source":"FCC: Land Mobile - Private (GIS)"}},{"type":"Feature","geometry":{"type":"Point","coordinates":[-79.2911,37.1108]},"properties":{"name":"DISP BASE, NS MICROWAVE TOWER 300 N  RR PASSENGER STATION","styleUrl":"#towerStyle","styleHash":"1d01e409","county":"Campbell County","lat":37.1108,"lng":-79.2911,"structure_type":"MAST","structure_name":null,"structure_address":"DISP BASE, NS MICROWAVE TOWER 300 N  RR PASSENGER STATION","height":43,"base_elevation":183.701904,"structure_owner_name":"Norfolk Southern Railway Company","structure_manager_name":null,"data_source":"FCC: Land Mobile - Private (GIS)"}},{"type":"Feature","geometry":{"type":"Point","coordinates":[-79.0858,37.2911]},"properties":{"name":"DISP BASE   LONG MOUNTAIN VA 1.2 MI FM US 501 SR 24","styleUrl":"#towerStyle","styleHash":"1d01e409","county":"Campbell County","lat":37.2911,"lng":-79.0858,"structure_type":"TOWER","structure_name":null,"structure_address":"DISP BASE   LONG MOUNTAIN VA 1.2 MI FM US 501 SR 24","height":37,"base_elevation":434.938873,"structure_owner_name":"Norfolk Southern Railway Company","structure_manager_name":null,"data_source":"FCC: Land Mobile - Private (GIS)"}},{"type":"Feature","geometry":{"type":"Point","coordinates":[-78.918,37.0319]},"properties":{"name":"DISP BASE   2.53 MI AT 136.5 RM US 501  SR 601","styleUrl":"#towerStyle","styleHash":"1d01e409","county":"Campbell County","lat":37.0319,"lng":-78.918,"structure_type":"TOWER","structure_name":null,"structure_address":"DISP BASE   2.53 MI AT 136.5 RM US 501  SR 601","height":43,"base_elevation":161.789474,"structure_owner_name":"Norfolk Southern Railway Company","structure_manager_name":null,"data_source":"FCC: Land Mobile - Private (GIS)"}},{"type":"Feature","geometry":{"type":"Point","coordinates":[-79.0903,37.2853]},"properties":{"name":"ON LONG MOUNTAIN 1 MI NE","styleUrl":"#towerStyle","styleHash":"1d01e409","county":"Campbell County","lat":37.2853,"lng":-79.0903,"structure_type":"TOWER","structure_name":null,"structure_address":"ON LONG MOUNTAIN 1 MI NE","height":30,"base_elevation":430.09262,"structure_owner_name":"Norfolk Southern Railway Company","structure_manager_name":null,"data_source":"FCC: Land Mobile - Private (GIS)"}},{"type":"Feature","geometry":{"type":"Point","coordinates":[-79.0414,37.3939]},"properties":{"name":"MOUNT ATHOS PLANT OFF RT 460 6 MI E","styleUrl":"#towerStyle","styleHash":"1d01e409","county":"Campbell County","lat":37.3939,"lng":-79.0414,"structure_type":null,"structure_name":null,"structure_address":"MOUNT ATHOS PLANT OFF RT 460 6 MI E","height":0,"base_elevation":181.430038,"structure_owner_name":"BABCOCK & WILCOX NUCLEAR OPEATIONS GROUP INC","structure_manager_name":null,"data_source":"FCC: Land Mobile - Private (GIS)"}},{"type":"Feature","geometry":{"type":"Point","coordinates":[-79.0567,37.4028]},"properties":{"name":"Vertical Asset","styleUrl":"#towerStyle","styleHash":"1d01e409","county":"Campbell County","lat":37.4028,"lng":-79.0567,"structure_type":null,"structure_name":null,"structure_address":null,"height":0,"base_elevation":170.397796,"structure_owner_name":"INTERMET ARCHER CREEK","structure_manager_name":null,"data_source":"FCC: Land Mobile - Private (GIS)"}},{"type":"Feature","geometry":{"type":"Point","coordinates":[-79.1675,37.3486]},"properties":{"name":"Vertical Asset","styleUrl":"#towerStyle","styleHash":"1d01e409","county":"Campbell County","lat":37.3486,"lng":-79.1675,"structure_type":null,"structure_name":null,"structure_address":null,"height":0,"base_elevation":407.391754,"structure_owner_name":"R R DONNELLY AND SONS COMPANY","structure_manager_name":null,"data_source":"FCC: Land Mobile - Private (GIS)"}},{"type":"Feature","geometry":{"type":"Point","coordinates":[-79.25,37.1347]},"properties":{"name":"HWY 29N 1/2 MI N","styleUrl":"#towerStyle","styleHash":"1d01e409","county":"Campbell County","lat":37.1347,"lng":-79.25,"structure_type":null,"structure_name":null,"structure_address":"HWY 29N 1/2 MI N","height":0,"base_elevation":152.641815,"structure_owner_name":"ABBOTT LABORATORIES","structure_manager_name":null,"data_source":"FCC: Land Mobile - Private (GIS)"}},{"type":"Feature","geometry":{"type":"Point","coordinates":[-79.0572,37.4042]},"properties":{"name":"BLDG 1 PLANT SITE","styleUrl":"#towerStyle","styleHash":"1d01e409","county":"Campbell County","lat":37.4042,"lng":-79.0572,"structure_type":null,"structure_name":null,"structure_address":"BLDG 1 PLANT SITE","height":0,"base_elevation":166.427673,"structure_owner_name":"INTERMET ARCHER CREEK FOUNDRY","structure_manager_name":null,"data_source":"FCC: Land Mobile - Private (GIS)"}},{"type":"Feature","geometry":{"type":"Point","coordinates":[-79.250299,37.1347]},"properties":{"name":"HWY 29 N 1/2 MI N OF CITY LIMITS","styleUrl":"#towerStyle","styleHash":"1d01e409","county":"Campbell County","lat":37.1347,"lng":-79.250299,"structure_type":"B","structure_name":null,"structure_address":"HWY 29 N 1/2 MI N OF CITY LIMITS","height":15,"base_elevation":153.108779,"structure_owner_name":"ABBOTT LABORATORIES","structure_manager_name":null,"data_source":"FCC: Land Mobile - Private (GIS)"}},{"type":"Feature","geometry":{"type":"Point","coordinates":[-78.9567,37.0495]},"properties":{"name":"HWY 501 BROOKNEAL PLANT","styleUrl":"#towerStyle","styleHash":"1d01e409","county":"Campbell County","lat":37.0495,"lng":-78.9567,"structure_type":null,"structure_name":null,"structure_address":"HWY 501 BROOKNEAL PLANT","height":0,"base_elevation":149.470031,"structure_owner_name":"DAN RIVER INC","structure_manager_name":null,"data_source":"FCC: Land Mobile - Private (GIS)"}},{"type":"Feature","geometry":{"type":"Point","coordinates":[-79.0197,37.1356]},"properties":{"name":"250 FT E OF JCT OF ST RTS 650 & 797","styleUrl":"#towerStyle","styleHash":"1d01e409","county":"Campbell County","lat":37.1356,"lng":-79.0197,"structure_type":"TANK","structure_name":null,"structure_address":"250 FT E OF JCT OF ST RTS 650 & 797","height":32,"base_elevation":185.075881,"structure_owner_name":"CAMPBELL COUNTY UTILITIES AND SERVICE AUTHORITY","structure_manager_name":null,"data_source":"FCC: Land Mobile - Private (GIS)"}},{"type":"Feature","geometry":{"type":"Point","coordinates":[-79.3517,37.1972]},"properties":{"name":"JOHNSON MOUNTAIN 20 MI SW OF LYNCHBURG","styleUrl":"#towerStyle","styleHash":"1d01e409","county":"Campbell County","lat":37.1972,"lng":-79.3517,"structure_type":null,"structure_name":null,"structure_address":"JOHNSON MOUNTAIN 20 MI SW OF LYNCHBURG","height":169,"base_elevation":403.627868,"structure_owner_name":"VIRGINIA ELECTRIC AND POWER COMPANY","structure_manager_name":null,"data_source":"FCC: Land Mobile - Private (GIS)"}},{"type":"Feature","geometry":{"type":"Point","coordinates":[-79.106699,37.2742]},"properties":{"name":"OFF RT 24 AT END OF RT 671","styleUrl":"#towerStyle","styleHash":"1d01e409","county":"Campbell County","lat":37.2742,"lng":-79.106699,"structure_type":null,"structure_name":null,"structure_address":"OFF RT 24 AT END OF RT 671","height":8,"base_elevation":264.867065,"structure_owner_name":"CAMPBELL COUNTY UTILITIES AND SERVICE AUTHORITY","structure_manager_name":null,"data_source":"FCC: Land Mobile - Private (GIS)"}},{"type":"Feature","geometry":{"type":"Point","coordinates":[-79.2275,37.3247]},"properties":{"name":"OFF RT 460 S OFF RT 622 ON RT 682 AT RT 1539 W","styleUrl":"#towerStyle","styleHash":"1d01e409","county":"Campbell County","lat":37.3247,"lng":-79.2275,"structure_type":null,"structure_name":null,"structure_address":"OFF RT 460 S OFF RT 622 ON RT 682 AT RT 1539 W","height":30,"base_elevation":311.852752,"structure_owner_name":"CAMPBELL COUNTY UTILITIES AND SERVICE AUTHORITY","structure_manager_name":null,"data_source":"FCC: Land Mobile - Private (GIS)"}},{"type":"Feature","geometry":{"type":"Point","coordinates":[-79.2253,37.3142]},"properties":{"name":"ON RT 622 S OF RT 460 BYP AT RT 681","styleUrl":"#towerStyle","styleHash":"1d01e409","county":"Campbell County","lat":37.3142,"lng":-79.2253,"structure_type":null,"structure_name":null,"structure_address":"ON RT 622 S OF RT 460 BYP AT RT 681","height":3,"base_elevation":282.559509,"structure_owner_name":"CAMPBELL COUNTY UTILITIES AND SERVICE AUTHORITY","structure_manager_name":null,"data_source":"FCC: Land Mobile - Private (GIS)"}},{"type":"Feature","geometry":{"type":"Point","coordinates":[-79.2544,37.3094]},"properties":{"name":".8 MI E OF RT 460 ON RT 681 W","styleUrl":"#towerStyle","styleHash":"1d01e409","county":"Campbell County","lat":37.3094,"lng":-79.2544,"structure_type":null,"structure_name":null,"structure_address":".8 MI E OF RT 460 ON RT 681 W","height":44,"base_elevation":286.743621,"structure_owner_name":"CAMPBELL COUNTY UTILITIES AND SERVICE AUTHORITY","structure_manager_name":null,"data_source":"FCC: Land Mobile - Private (GIS)"}},{"type":"Feature","geometry":{"type":"Point","coordinates":[-79.2358,37.3406]},"properties":{"name":"OFF RT 460 ON RT 799 OAKDALE CIR W","styleUrl":"#towerStyle","styleHash":"1d01e409","county":"Campbell County","lat":37.3406,"lng":-79.2358,"structure_type":null,"structure_name":null,"structure_address":"OFF RT 460 ON RT 799 OAKDALE CIR W","height":39,"base_elevation":281.396972,"structure_owner_name":"CAMPBELL COUNTY UTILITIES AND SERVICE AUTHORITY","structure_manager_name":null,"data_source":"FCC: Land Mobile - Private (GIS)"}},{"type":"Feature","geometry":{"type":"Point","coordinates":[-79.1664,37.2789]},"properties":{"name":".1 MI E OF RT 29 ON RT 685 S","styleUrl":"#towerStyle","styleHash":"1d01e409","county":"Campbell County","lat":37.2789,"lng":-79.1664,"structure_type":null,"structure_name":null,"structure_address":".1 MI E OF RT 29 ON RT 685 S","height":20,"base_elevation":312.496582,"structure_owner_name":"CAMPBELL COUNTY UTILITIES AND SERVICE AUTHORITY","structure_manager_name":null,"data_source":"FCC: Land Mobile - Private (GIS)"}},{"type":"Feature","geometry":{"type":"Point","coordinates":[-79.236899,37.2347]},"properties":{"name":"ON RT 24 AT RT 692 W OF RT 29 S","styleUrl":"#towerStyle","styleHash":"1d01e409","county":"Campbell County","lat":37.2347,"lng":-79.236899,"structure_type":null,"structure_name":null,"structure_address":"ON RT 24 AT RT 692 W OF RT 29 S","height":5,"base_elevation":255.070877,"structure_owner_name":"CAMPBELL COUNTY UTILITIES AND SERVICE AUTHORITY","structure_manager_name":null,"data_source":"FCC: Land Mobile - Private (GIS)"}},{"type":"Feature","geometry":{"type":"Point","coordinates":[-79.3019,37.2078]},"properties":{"name":"1.75 MI S OF RT 24 ON RT 682","styleUrl":"#towerStyle","styleHash":"1d01e409","county":"Campbell County","lat":37.2078,"lng":-79.3019,"structure_type":null,"structure_name":null,"structure_address":"1.75 MI S OF RT 24 ON RT 682","height":4,"base_elevation":167.790985,"structure_owner_name":"CAMPBELL COUNTY UTILITIES AND SERVICE AUTHORITY","structure_manager_name":null,"data_source":"FCC: Land Mobile - Private (GIS)"}},{"type":"Feature","geometry":{"type":"Point","coordinates":[-79.3019,37.2094]},"properties":{"name":"1.75 MI S OF RT 24 ON RT 682","styleUrl":"#towerStyle","styleHash":"1d01e409","county":"Campbell County","lat":37.2094,"lng":-79.3019,"structure_type":null,"structure_name":null,"structure_address":"1.75 MI S OF RT 24 ON RT 682","height":4,"base_elevation":182.005798,"structure_owner_name":"CAMPBELL COUNTY UTILITIES AND SERVICE AUTHORITY","structure_manager_name":null,"data_source":"FCC: Land Mobile - Private (GIS)"}},{"type":"Feature","geometry":{"type":"Point","coordinates":[-79.2847,37.231699]},"properties":{"name":".1 MI S OF RT 24 ON RT 682","styleUrl":"#towerStyle","styleHash":"1d01e409","county":"Campbell County","lat":37.231699,"lng":-79.2847,"structure_type":null,"structure_name":null,"structure_address":".1 MI S OF RT 24 ON RT 682","height":21,"base_elevation":257.986541,"structure_owner_name":"CAMPBELL COUNTY UTILITIES AND SERVICE AUTHORITY","structure_manager_name":null,"data_source":"FCC: Land Mobile - Private (GIS)"}},{"type":"Feature","geometry":{"type":"Point","coordinates":[-79.0914,37.2861]},"properties":{"name":"LONG MOUNTAIN","styleUrl":"#towerStyle","styleHash":"1d01e409","county":"Campbell County","lat":37.2861,"lng":-79.0914,"structure_type":null,"structure_name":null,"structure_address":"LONG MOUNTAIN","height":24,"base_elevation":397.328674,"structure_owner_name":"COLUMBIA GAS OF VIRGINIA INC.","structure_manager_name":null,"data_source":"FCC: Land Mobile - Private (GIS)"}},{"type":"Feature","geometry":{"type":"Point","coordinates":[-79.0928,37.2247]},"properties":{"name":"5 MI S","styleUrl":"#towerStyle","styleHash":"1d01e409","county":"Campbell County","lat":37.2247,"lng":-79.0928,"structure_type":null,"structure_name":null,"structure_address":"5 MI S","height":0,"base_elevation":250.609588,"structure_owner_name":"ELLIOTT, CHARLIE W","structure_manager_name":null,"data_source":"FCC: Land Mobile - Private (GIS)"}},{"type":"Feature","geometry":{"type":"Point","coordinates":[-78.8694,37.129199]},"properties":{"name":"RT 1 OUTSIDE OF TOWN","styleUrl":"#towerStyle","styleHash":"1d01e409","county":"Campbell County","lat":37.129199,"lng":-78.8694,"structure_type":null,"structure_name":null,"structure_address":"RT 1 OUTSIDE OF TOWN","height":9,"base_elevation":216.779586,"structure_owner_name":"BATES, EDWARD L","structure_manager_name":null,"data_source":"FCC: Land Mobile - Private (GIS)"}},{"type":"Feature","geometry":{"type":"Point","coordinates":[-79.1997,37.2972]},"properties":{"name":"1 MI W OF INT RT 29 & RT 683","styleUrl":"#towerStyle","styleHash":"1d01e409","county":"Campbell County","lat":37.2972,"lng":-79.1997,"structure_type":null,"structure_name":null,"structure_address":"1 MI W OF INT RT 29 & RT 683","height":0,"base_elevation":273.44577,"structure_owner_name":"MARVIN V TEMPLETON & SONS INC","structure_manager_name":null,"data_source":"FCC: Land Mobile - Private (GIS)"}},{"type":"Feature","geometry":{"type":"Point","coordinates":[-79.1397,37.3308]},"properties":{"name":"JACKSON MOUNTAIN 3 MI S OF JCT 460 & 501","styleUrl":"#towerStyle","styleHash":"1d01e409","county":"Campbell County","lat":37.3308,"lng":-79.1397,"structure_type":null,"structure_name":null,"structure_address":"JACKSON MOUNTAIN 3 MI S OF JCT 460 & 501","height":0,"base_elevation":318.833312,"structure_owner_name":"FALWELL CORPORATION","structure_manager_name":null,"data_source":"FCC: Land Mobile - Private (GIS)"}},{"type":"Feature","geometry":{"type":"Point","coordinates":[-79.1014,37.275599]},"properties":{"name":"Vertical Asset","styleUrl":"#towerStyle","styleHash":"1d01e409","county":"Campbell County","lat":37.275599,"lng":-79.1014,"structure_type":null,"structure_name":null,"structure_address":null,"height":0,"base_elevation":261.953643,"structure_owner_name":"CAMPBELL COUNTY SCHOOL BOARD","structure_manager_name":null,"data_source":"FCC: Land Mobile - Private (GIS)"}},{"type":"Feature","geometry":{"type":"Point","coordinates":[-79.1672,37.3489]},"properties":{"name":57,"styleUrl":"#towerStyle","styleHash":"1d01e409","county":"Campbell County","lat":37.3489,"lng":-79.1672,"structure_type":"TOWER","structure_name":null,"structure_address":57,"height":24,"base_elevation":410.009582,"structure_owner_name":"COLUMBIA GAS OF VIRGINIA INC.","structure_manager_name":null,"data_source":"FCC: Land Mobile - Private (GIS)"}},{"type":"Feature","geometry":{"type":"Point","coordinates":[-79.0572,37.4042]},"properties":{"name":"1132 MT ATHOS RD","styleUrl":"#towerStyle","styleHash":"1d01e409","county":"Campbell County","lat":37.4042,"lng":-79.0572,"structure_type":"B","structure_name":null,"structure_address":"1132 MT ATHOS RD","height":23,"base_elevation":166.427673,"structure_owner_name":"INTERMET ARCHER CREEK FOUNDRY","structure_manager_name":null,"data_source":"FCC: Land Mobile - Private (GIS)"}},{"type":"Feature","geometry":{"type":"Point","coordinates":[-79.0275,37.1272]},"properties":{"name":".8 KM SW JCT RT 501 & RT 650","styleUrl":"#towerStyle","styleHash":"1d01e409","county":"Campbell County","lat":37.1272,"lng":-79.0275,"structure_type":"B","structure_name":null,"structure_address":".8 KM SW JCT RT 501 & RT 650","height":15,"base_elevation":175.579528,"structure_owner_name":"GEORGIA-PACIFIC LLC","structure_manager_name":null,"data_source":"FCC: Land Mobile - Private (GIS)"}},{"type":"Feature","geometry":{"type":"Point","coordinates":[-78.999199,37.3236]},"properties":{"name":"Detector, RR MP PH 2.9","styleUrl":"#towerStyle","styleHash":"1d01e409","county":"Campbell County","lat":37.3236,"lng":-78.999199,"structure_type":"B","structure_name":null,"structure_address":"Detector, RR MP PH 2.9","height":4,"base_elevation":249.404983,"structure_owner_name":"Norfolk Southern Railway Company","structure_manager_name":null,"data_source":"FCC: Land Mobile - Private (GIS)"}},{"type":"Feature","geometry":{"type":"Point","coordinates":[-79.1375,37.3369]},"properties":{"name":"JACKS MOUNTAIN","styleUrl":"#towerStyle","styleHash":"1d01e409","county":"Campbell County","lat":37.3369,"lng":-79.1375,"structure_type":null,"structure_name":null,"structure_address":"JACKS MOUNTAIN","height":0,"base_elevation":391.143859,"structure_owner_name":"WESTVACO DEVELOPMENT CORPORATION","structure_manager_name":null,"data_source":"FCC: Land Mobile - Private (GIS)"}},{"type":"Feature","geometry":{"type":"Point","coordinates":[-79.2003,37.3331]},"properties":{"name":"Vertical Asset","styleUrl":"#towerStyle","styleHash":"1d01e409","county":"Campbell County","lat":37.3331,"lng":-79.2003,"structure_type":null,"structure_name":null,"structure_address":null,"height":0,"base_elevation":283.380218,"structure_owner_name":"ITW","structure_manager_name":null,"data_source":"FCC: Land Mobile - Private (GIS)"}},{"type":"Feature","geometry":{"type":"Point","coordinates":[-79.25,37.1347]},"properties":{"name":"Vertical Asset","styleUrl":"#towerStyle","styleHash":"1d01e409","county":"Campbell County","lat":37.1347,"lng":-79.25,"structure_type":null,"structure_name":null,"structure_address":null,"height":0,"base_elevation":152.641815,"structure_owner_name":"ABBOTT LABORATORIES","structure_manager_name":null,"data_source":"FCC: Land Mobile - Private (GIS)"}},{"type":"Feature","geometry":{"type":"Point","coordinates":[-79.2903,37.1083]},"properties":{"name":"401 AMHERST AVE","styleUrl":"#towerStyle","styleHash":"1d01e409","county":"Campbell County","lat":37.1083,"lng":-79.2903,"structure_type":"TOWER","structure_name":null,"structure_address":"401 AMHERST AVE","height":33,"base_elevation":170.6445,"structure_owner_name":"B G F INDUSTRIES INC","structure_manager_name":null,"data_source":"FCC: Land Mobile - Private (GIS)"}},{"type":"Feature","geometry":{"type":"Point","coordinates":[-79.2453,37.1422]},"properties":{"name":"Vertical Asset","styleUrl":"#towerStyle","styleHash":"1d01e409","county":"Campbell County","lat":37.1422,"lng":-79.2453,"structure_type":null,"structure_name":null,"structure_address":null,"height":0,"base_elevation":166.601028,"structure_owner_name":"TIMKEN BEARING CO","structure_manager_name":null,"data_source":"FCC: Land Mobile - Private (GIS)"}},{"type":"Feature","geometry":{"type":"Point","coordinates":[-79.0894,37.2853]},"properties":{"name":"LONG MOUNTAIN","styleUrl":"#towerStyle","styleHash":"1d01e409","county":"Campbell County","lat":37.2853,"lng":-79.0894,"structure_type":null,"structure_name":null,"structure_address":"LONG MOUNTAIN","height":38,"base_elevation":423.025878,"structure_owner_name":"FOSTER FUELS INC","structure_manager_name":null,"data_source":"FCC: Land Mobile - Private (GIS)"}},{"type":"Feature","geometry":{"type":"Point","coordinates":[-79.1678,37.3489]},"properties":{"name":"ATOP CANDLERS MOUNTAIN","styleUrl":"#towerStyle","styleHash":"1d01e409","county":"Campbell County","lat":37.3489,"lng":-79.1678,"structure_type":null,"structure_name":null,"structure_address":"ATOP CANDLERS MOUNTAIN","height":21,"base_elevation":414.920898,"structure_owner_name":"LIBERTY UNIVERSITY","structure_manager_name":null,"data_source":"FCC: Land Mobile - Private (GIS)"}},{"type":"Feature","geometry":{"type":"Point","coordinates":[-79.2881,37.1097]},"properties":{"name":"613 MAIN ST","styleUrl":"#towerStyle","styleHash":"1d01e409","county":"Campbell County","lat":37.1097,"lng":-79.2881,"structure_type":null,"structure_name":null,"structure_address":"613 MAIN ST","height":9,"base_elevation":167.513504,"structure_owner_name":"BLANKS OIL CO INC","structure_manager_name":null,"data_source":"FCC: Land Mobile - Private (GIS)"}},{"type":"Feature","geometry":{"type":"Point","coordinates":[-79.2739,37.12]},"properties":{"name":"104 WOODLANE AVE","styleUrl":"#towerStyle","styleHash":"1d01e409","county":"Campbell County","lat":37.12,"lng":-79.2739,"structure_type":null,"structure_name":null,"structure_address":"104 WOODLANE AVE","height":46,"base_elevation":169.332382,"structure_owner_name":"Virginia Electric and Power Company","structure_manager_name":null,"data_source":"FCC: Land Mobile - Private (GIS)"}},{"type":"Feature","geometry":{"type":"Point","coordinates":[-79.4022,37.0931]},"properties":{"name":"Vertical Asset","styleUrl":"#towerStyle","styleHash":"1d01e409","county":"Campbell County","lat":37.0931,"lng":-79.4022,"structure_type":null,"structure_name":null,"structure_address":null,"height":0,"base_elevation":179.437927,"structure_owner_name":"Appalachian Power Company","structure_manager_name":null,"data_source":"FCC: Land Mobile - Private (GIS)"}},{"type":"Feature","geometry":{"type":"Point","coordinates":[-79.25,37.1347]},"properties":{"name":"HWY 29N 1/2 MI N","styleUrl":"#towerStyle","styleHash":"1d01e409","county":"Campbell County","lat":37.1347,"lng":-79.25,"structure_type":null,"structure_name":null,"structure_address":"HWY 29N 1/2 MI N","height":0,"base_elevation":152.641815,"structure_owner_name":"ABBOTT LABORATORIES","structure_manager_name":null,"data_source":"FCC: Land Mobile - Private (GIS)"}},{"type":"Feature","geometry":{"type":"Point","coordinates":[-79.1675,37.3486]},"properties":{"name":"4201 MURRAY PL","styleUrl":"#towerStyle","styleHash":"1d01e409","county":"Campbell County","lat":37.3486,"lng":-79.1675,"structure_type":"TOWER","structure_name":null,"structure_address":"4201 MURRAY PL","height":0,"base_elevation":407.391754,"structure_owner_name":"DONNLEY, R R","structure_manager_name":null,"data_source":"FCC: Land Mobile - Private (GIS)"}},{"type":"Feature","geometry":{"type":"Point","coordinates":[-78.931899,37.1103]},"properties":{"name":"CAMP HAT CREEK RT 1 BOX 87","styleUrl":"#towerStyle","styleHash":"1d01e409","county":"Campbell County","lat":37.1103,"lng":-78.931899,"structure_type":null,"structure_name":null,"structure_address":"CAMP HAT CREEK RT 1 BOX 87","height":0,"base_elevation":159.487884,"structure_owner_name":"PRESBYTERY OF THE PEAKS","structure_manager_name":null,"data_source":"FCC: Land Mobile - Private (GIS)"}},{"type":"Feature","geometry":{"type":"Point","coordinates":[-79.1678,37.3489]},"properties":{"name":"ATOP CANDLERS MOUNTAIN","styleUrl":"#towerStyle","styleHash":"1d01e409","county":"Campbell County","lat":37.3489,"lng":-79.1678,"structure_type":null,"structure_name":null,"structure_address":"ATOP CANDLERS MOUNTAIN","height":21,"base_elevation":414.920898,"structure_owner_name":"LIBERTY UNIVERSITY","structure_manager_name":null,"data_source":"FCC: Land Mobile - Private (GIS)"}},{"type":"Feature","geometry":{"type":"Point","coordinates":[-79.0864,37.2914]},"properties":{"name":"LONG MOUNTAIN","styleUrl":"#towerStyle","styleHash":"1d01e409","county":"Campbell County","lat":37.2914,"lng":-79.0864,"structure_type":"TOWER","structure_name":null,"structure_address":"LONG MOUNTAIN","height":45,"base_elevation":420.799926,"structure_owner_name":"RUSTBURG VOL FIRE DEPT INC","structure_manager_name":null,"data_source":"FCC: Land Mobile - Private (GIS)"}},{"type":"Feature","geometry":{"type":"Point","coordinates":[-79.065799,37.1572]},"properties":{"name":"US 501 1 KM SE OF GLADYS","styleUrl":"#towerStyle","styleHash":"1d01e409","county":"Campbell County","lat":37.1572,"lng":-79.065799,"structure_type":"UPOLE","structure_name":null,"structure_address":"US 501 1 KM SE OF GLADYS","height":12,"base_elevation":234.56314,"structure_owner_name":"VIRGINIA, COMMONWEALTH OF","structure_manager_name":null,"data_source":"FCC: Land Mobile - Private (GIS)"}},{"type":"Feature","geometry":{"type":"Point","coordinates":[-79.1675,37.2631]},"properties":{"name":"SR 738 1 KM N OF SR 24 NR US 29","styleUrl":"#towerStyle","styleHash":"1d01e409","county":"Campbell County","lat":37.2631,"lng":-79.1675,"structure_type":"UPOLE","structure_name":null,"structure_address":"SR 738 1 KM N OF SR 24 NR US 29","height":20,"base_elevation":304.476867,"structure_owner_name":"VIRGINIA, COMMONWEALTH OF","structure_manager_name":null,"data_source":"FCC: Land Mobile - Private (GIS)"}},{"type":"Feature","geometry":{"type":"Point","coordinates":[-79.0692,37.2678]},"properties":{"name":"SR 854 0.7 KM E OF SR 615 2.5 KM E","styleUrl":"#towerStyle","styleHash":"1d01e409","county":"Campbell County","lat":37.2678,"lng":-79.0692,"structure_type":"UPOLE","structure_name":null,"structure_address":"SR 854 0.7 KM E OF SR 615 2.5 KM E","height":20,"base_elevation":258.790161,"structure_owner_name":"VIRGINIA, COMMONWEALTH OF","structure_manager_name":null,"data_source":"FCC: Land Mobile - Private (GIS)"}},{"type":"Feature","geometry":{"type":"Point","coordinates":[-79.2186,37.3258]},"properties":{"name":"859 TIMBERLAKE RD S OF GREENVIEW DR","styleUrl":"#towerStyle","styleHash":"1d01e409","county":"Campbell County","lat":37.3258,"lng":-79.2186,"structure_type":"UPOLE","structure_name":null,"structure_address":"859 TIMBERLAKE RD S OF GREENVIEW DR","height":18,"base_elevation":293.067565,"structure_owner_name":"VIRGINIA, COMMONWEALTH OF","structure_manager_name":null,"data_source":"FCC: Land Mobile - Private (GIS)"}},{"type":"Feature","geometry":{"type":"Point","coordinates":[-79.0903,37.2856]},"properties":{"name":"1 KM NE INT OF US 501 & SR 24","styleUrl":"#towerStyle","styleHash":"1d01e409","county":"Campbell County","lat":37.2856,"lng":-79.0903,"structure_type":"TOWER","structure_name":null,"structure_address":"1 KM NE INT OF US 501 & SR 24","height":24,"base_elevation":431.78656,"structure_owner_name":"VIRGINIA, COMMONWEALTH OF","structure_manager_name":null,"data_source":"FCC: Land Mobile - Private (GIS)"}},{"type":"Feature","geometry":{"type":"Point","coordinates":[-79.0903,37.2856]},"properties":{"name":"LONG MOUNTAIN","styleUrl":"#towerStyle","styleHash":"1d01e409","county":"Campbell County","lat":37.2856,"lng":-79.0903,"structure_type":"TOWER","structure_name":null,"structure_address":"LONG MOUNTAIN","height":30,"base_elevation":431.78656,"structure_owner_name":"Virginia, Commonwealth of       Department of State Police","structure_manager_name":null,"data_source":"FCC: Land Mobile - Private (GIS)"}},{"type":"Feature","geometry":{"type":"Point","coordinates":[-79.0903,37.2856]},"properties":{"name":"LONG MTN","styleUrl":"#towerStyle","styleHash":"1d01e409","county":"Campbell County","lat":37.2856,"lng":-79.0903,"structure_type":"TOWER","structure_name":null,"structure_address":"LONG MTN","height":43,"base_elevation":431.78656,"structure_owner_name":"VIRGINIA, COMMONWEALTH OF","structure_manager_name":null,"data_source":"FCC: Land Mobile - Private (GIS)"}},{"type":"Feature","geometry":{"type":"Point","coordinates":[-79.09,37.2853]},"properties":{"name":"ON LONG MTN .8 MI NE","styleUrl":"#towerStyle","styleHash":"1d01e409","county":"Campbell County","lat":37.2853,"lng":-79.09,"structure_type":null,"structure_name":null,"structure_address":"ON LONG MTN .8 MI NE","height":0,"base_elevation":427.029235,"structure_owner_name":"BLUE RIDGE EMERGENCY MEDICAL SERVICES  INC","structure_manager_name":null,"data_source":"FCC: Land Mobile - Private (GIS)"}},{"type":"Feature","geometry":{"type":"Point","coordinates":[-79.0414,37.3917]},"properties":{"name":"BABCOCK & WILCOX CO NUCLEAR FACILITY SECURITY STATION OFF US RT 460 6","styleUrl":"#towerStyle","styleHash":"1d01e409","county":"Campbell County","lat":37.3917,"lng":-79.0414,"structure_type":null,"structure_name":null,"structure_address":"BABCOCK & WILCOX CO NUCLEAR FACILITY SECURITY STATION OFF US RT 460 6","height":0,"base_elevation":169.345779,"structure_owner_name":"CAMPBELL, COUNTY OF","structure_manager_name":null,"data_source":"FCC: Land Mobile - Private (GIS)"}},{"type":"Feature","geometry":{"type":"Point","coordinates":[-79.0872,37.2886]},"properties":{"name":"LONG MTN","styleUrl":"#towerStyle","styleHash":"1d01e409","county":"Campbell County","lat":37.2886,"lng":-79.0872,"structure_type":null,"structure_name":null,"structure_address":"LONG MTN","height":0,"base_elevation":366.238708,"structure_owner_name":"County Of Campbell","structure_manager_name":null,"data_source":"FCC: Land Mobile - Private (GIS)"}},{"type":"Feature","geometry":{"type":"Point","coordinates":[-79.0872,37.2886]},"properties":{"name":"LONG MOUNTAIN","styleUrl":"#towerStyle","styleHash":"1d01e409","county":"Campbell County","lat":37.2886,"lng":-79.0872,"structure_type":"TOWER","structure_name":null,"structure_address":"LONG MOUNTAIN","height":54,"base_elevation":366.238708,"structure_owner_name":"CAMPBELL, COUNTY OF","structure_manager_name":null,"data_source":"FCC: Land Mobile - Private (GIS)"}},{"type":"Feature","geometry":{"type":"Point","coordinates":[-79.0692,37.2681]},"properties":{"name":"RUSTBURG CU INT RTS 24 615","styleUrl":"#towerStyle","styleHash":"1d01e409","county":"Campbell County","lat":37.2681,"lng":-79.0692,"structure_type":null,"structure_name":null,"structure_address":"RUSTBURG CU INT RTS 24 615","height":0,"base_elevation":256.77304,"structure_owner_name":"VIRGINIA, COMMONWEALTH OF","structure_manager_name":null,"data_source":"FCC: Land Mobile - Private (GIS)"}},{"type":"Feature","geometry":{"type":"Point","coordinates":[-79.0903,37.2856]},"properties":{"name":"FORESTRY FIRE TWR LONG MOUNTAIN","styleUrl":"#towerStyle","styleHash":"1d01e409","county":"Campbell County","lat":37.2856,"lng":-79.0903,"structure_type":null,"structure_name":null,"structure_address":"FORESTRY FIRE TWR LONG MOUNTAIN","height":37,"base_elevation":431.78656,"structure_owner_name":"VIRGINIA, COMMONWEALTH OF","structure_manager_name":null,"data_source":"FCC: Land Mobile - Private (GIS)"}},{"type":"Feature","geometry":{"type":"Point","coordinates":[-79.0905,37.2856]},"properties":{"name":"FIRE TOWER OFF RT 24 .75 MI NE","styleUrl":"#towerStyle","styleHash":"1d01e409","county":"Campbell County","lat":37.2856,"lng":-79.0905,"structure_type":"TOWER","structure_name":null,"structure_address":"FIRE TOWER OFF RT 24 .75 MI NE","height":38,"base_elevation":427.733703,"structure_owner_name":"Virginia Department of Forestry","structure_manager_name":null,"data_source":"FCC: Land Mobile - Private (GIS)"}},{"type":"Feature","geometry":{"type":"Point","coordinates":[-79.0944,37.2708]},"properties":{"name":"FORESTRY OFC RT 838 & RT 501","styleUrl":"#towerStyle","styleHash":"1d01e409","county":"Campbell County","lat":37.2708,"lng":-79.0944,"structure_type":null,"structure_name":null,"structure_address":"FORESTRY OFC RT 838 & RT 501","height":12,"base_elevation":251.474746,"structure_owner_name":"Virginia Department of Forestry","structure_manager_name":null,"data_source":"FCC: Land Mobile - Private (GIS)"}},{"type":"Feature","geometry":{"type":"Point","coordinates":[-79.0872,37.2886]},"properties":{"name":"Vertical Asset","styleUrl":"#towerStyle","styleHash":"1d01e409","county":"Campbell County","lat":37.2886,"lng":-79.0872,"structure_type":null,"structure_name":null,"structure_address":null,"height":0,"base_elevation":366.238708,"structure_owner_name":"CAMPBELL, COUNTY OF","structure_manager_name":null,"data_source":"FCC: Land Mobile - Private (GIS)"}},{"type":"Feature","geometry":{"type":"Point","coordinates":[-79.0872,37.2886]},"properties":{"name":"LONG MOUNTAIN","styleUrl":"#towerStyle","styleHash":"1d01e409","county":"Campbell County","lat":37.2886,"lng":-79.0872,"structure_type":"TOWER","structure_name":null,"structure_address":"LONG MOUNTAIN","height":54,"base_elevation":366.238708,"structure_owner_name":"CAMPBELL, COUNTY OF","structure_manager_name":null,"data_source":"FCC: Land Mobile - Private (GIS)"}},{"type":"Feature","geometry":{"type":"Point","coordinates":[-79.0864,37.2914]},"properties":{"name":"RT 2802 OFF RT 24 AT DEAD END","styleUrl":"#towerStyle","styleHash":"1d01e409","county":"Campbell County","lat":37.2914,"lng":-79.0864,"structure_type":null,"structure_name":null,"structure_address":"RT 2802 OFF RT 24 AT DEAD END","height":0,"base_elevation":420.799926,"structure_owner_name":"CAMPBELL, COUNTY OF","structure_manager_name":null,"data_source":"FCC: Land Mobile - Private (GIS)"}},{"type":"Feature","geometry":{"type":"Point","coordinates":[-79.1956,37.3125]},"properties":{"name":"ON RT 683 1/4 MI SW OF INT RT 683 & RT 784","styleUrl":"#towerStyle","styleHash":"1d01e409","county":"Campbell County","lat":37.3125,"lng":-79.1956,"structure_type":null,"structure_name":null,"structure_address":"ON RT 683 1/4 MI SW OF INT RT 683 & RT 784","height":6,"base_elevation":256.016418,"structure_owner_name":"CAMPBELL, COUNTY OF","structure_manager_name":null,"data_source":"FCC: Land Mobile - Private (GIS)"}},{"type":"Feature","geometry":{"type":"Point","coordinates":[-79.2875,37.1083]},"properties":{"name":"510 SEVENTH ST","styleUrl":"#towerStyle","styleHash":"1d01e409","county":"Campbell County","lat":37.1083,"lng":-79.2875,"structure_type":null,"structure_name":null,"structure_address":"510 SEVENTH ST","height":15,"base_elevation":164.730957,"structure_owner_name":"ALTAVISTA, TOWN OF","structure_manager_name":null,"data_source":"FCC: Land Mobile - Private (GIS)"}},{"type":"Feature","geometry":{"type":"Point","coordinates":[-79.2903,37.1267]},"properties":{"name":"MELENDA DR WATER TWR","styleUrl":"#towerStyle","styleHash":"1d01e409","county":"Campbell County","lat":37.1267,"lng":-79.2903,"structure_type":null,"structure_name":null,"structure_address":"MELENDA DR WATER TWR","height":35,"base_elevation":250.331115,"structure_owner_name":"ALTAVISTA, TOWN OF","structure_manager_name":null,"data_source":"FCC: Land Mobile - Private (GIS)"}},{"type":"Feature","geometry":{"type":"Point","coordinates":[-79.0755,37.1683]},"properties":{"name":"INT RT 501 & RT 635","styleUrl":"#towerStyle","styleHash":"1d01e409","county":"Campbell County","lat":37.1683,"lng":-79.0755,"structure_type":null,"structure_name":null,"structure_address":"INT RT 501 & RT 635","height":0,"base_elevation":229.456985,"structure_owner_name":"CAMPBELL, COUNTY OF","structure_manager_name":null,"data_source":"FCC: Land Mobile - Private (GIS)"}},{"type":"Feature","geometry":{"type":"Point","coordinates":[-79.0864,37.2914]},"properties":{"name":"ATOP LONG MOUNTAIN","styleUrl":"#towerStyle","styleHash":"1d01e409","county":"Campbell County","lat":37.2914,"lng":-79.0864,"structure_type":null,"structure_name":null,"structure_address":"ATOP LONG MOUNTAIN","height":0,"base_elevation":420.799926,"structure_owner_name":"County Of Campbell","structure_manager_name":null,"data_source":"FCC: Land Mobile - Private (GIS)"}},{"type":"Feature","geometry":{"type":"Point","coordinates":[-78.9797,37.3503]},"properties":{"name":"CONCORD RS BLDG ST RT 460","styleUrl":"#towerStyle","styleHash":"1d01e409","county":"Campbell County","lat":37.3503,"lng":-78.9797,"structure_type":null,"structure_name":null,"structure_address":"CONCORD RS BLDG ST RT 460","height":0,"base_elevation":259.423797,"structure_owner_name":"County Of Campbell","structure_manager_name":null,"data_source":"FCC: Land Mobile - Private (GIS)"}},{"type":"Feature","geometry":{"type":"Point","coordinates":[-79.2875,37.1083]},"properties":{"name":"510 SEVENTH ST","styleUrl":"#towerStyle","styleHash":"1d01e409","county":"Campbell County","lat":37.1083,"lng":-79.2875,"structure_type":null,"structure_name":null,"structure_address":"510 SEVENTH ST","height":0,"base_elevation":164.730957,"structure_owner_name":"County Of Campbell","structure_manager_name":null,"data_source":"FCC: Land Mobile - Private (GIS)"}},{"type":"Feature","geometry":{"type":"Point","coordinates":[-79.2344,37.3433]},"properties":{"name":"TIMBER OAK CT SUITE A","styleUrl":"#towerStyle","styleHash":"1d01e409","county":"Campbell County","lat":37.3433,"lng":-79.2344,"structure_type":null,"structure_name":null,"structure_address":"TIMBER OAK CT SUITE A","height":0,"base_elevation":281.043334,"structure_owner_name":"CAMPBELL, COUNTY OF","structure_manager_name":null,"data_source":"FCC: Land Mobile - Private (GIS)"}},{"type":"Feature","geometry":{"type":"Point","coordinates":[-79.2875,37.1083]},"properties":{"name":"510 SEVENTH ST","styleUrl":"#towerStyle","styleHash":"1d01e409","county":"Campbell County","lat":37.1083,"lng":-79.2875,"structure_type":null,"structure_name":null,"structure_address":"510 SEVENTH ST","height":0,"base_elevation":164.730957,"structure_owner_name":"ALTAVISTA, TOWN OF","structure_manager_name":null,"data_source":"FCC: Land Mobile - Private (GIS)"}},{"type":"Feature","geometry":{"type":"Point","coordinates":[-79.2903,37.1267]},"properties":{"name":"MELENDA DR ADJACENT TO TOWN WATER TANK","styleUrl":"#towerStyle","styleHash":"1d01e409","county":"Campbell County","lat":37.1267,"lng":-79.2903,"structure_type":null,"structure_name":null,"structure_address":"MELENDA DR ADJACENT TO TOWN WATER TANK","height":0,"base_elevation":250.331115,"structure_owner_name":"ALTAVISTA, TOWN OF","structure_manager_name":null,"data_source":"FCC: Land Mobile - Private (GIS)"}},{"type":"Feature","geometry":{"type":"Point","coordinates":[-78.944399,37.0453]},"properties":{"name":"INTERSECTION OF BANK & MAIN ST","styleUrl":"#towerStyle","styleHash":"1d01e409","county":"Campbell County","lat":37.0453,"lng":-78.944399,"structure_type":null,"structure_name":null,"structure_address":"INTERSECTION OF BANK & MAIN ST","height":0,"base_elevation":155.723831,"structure_owner_name":"BROOKNEAL, TOWN OF","structure_manager_name":null,"data_source":"FCC: Land Mobile - Private (GIS)"}},{"type":"Feature","geometry":{"type":"Point","coordinates":[-79.0872,37.2886]},"properties":{"name":"LONG MTN","styleUrl":"#towerStyle","styleHash":"1d01e409","county":"Campbell County","lat":37.2886,"lng":-79.0872,"structure_type":null,"structure_name":null,"structure_address":"LONG MTN","height":0,"base_elevation":366.238708,"structure_owner_name":"CAMPBELL, COUNTY OF","structure_manager_name":null,"data_source":"FCC: Land Mobile - Private (GIS)"}},{"type":"Feature","geometry":{"type":"Point","coordinates":[-78.9828,37.3489]},"properties":{"name":"FIRE STATION US 460 .5 MI W INT US 24","styleUrl":"#towerStyle","styleHash":"1d01e409","county":"Campbell County","lat":37.3489,"lng":-78.9828,"structure_type":null,"structure_name":null,"structure_address":"FIRE STATION US 460 .5 MI W INT US 24","height":0,"base_elevation":256.27362,"structure_owner_name":"CONCORD VFD INC","structure_manager_name":null,"data_source":"FCC: Land Mobile - Private (GIS)"}},{"type":"Feature","geometry":{"type":"Point","coordinates":[-79.082999,37.3333]},"properties":{"name":"106 AMER CT","styleUrl":"#towerStyle","styleHash":"1d01e409","county":"Campbell County","lat":37.3333,"lng":-79.082999,"structure_type":null,"structure_name":null,"structure_address":"106 AMER CT","height":30,"base_elevation":207.179168,"structure_owner_name":"MONELSION VOLUNTEER FIRE DEPT AND RESCUE SQUAD INC","structure_manager_name":null,"data_source":"FCC: Land Mobile - Private (GIS)"}},{"type":"Feature","geometry":{"type":"Point","coordinates":[-79.2336,37.3297]},"properties":{"name":"273 CROWELL LANE","styleUrl":"#towerStyle","styleHash":"1d01e409","county":"Campbell County","lat":37.3297,"lng":-79.2336,"structure_type":"TOWER","structure_name":null,"structure_address":"273 CROWELL LANE","height":45.7,"base_elevation":296.836303,"structure_owner_name":"NEXTEL WIP LICENSE CORP.","structure_manager_name":null,"data_source":"FCC: Land Mobile - Commercial (GIS)"}},{"type":"Feature","geometry":{"type":"Point","coordinates":[-79.03,37.3733]},"properties":{"name":"I/S OF RT 460 & RT 762","styleUrl":"#towerStyle","styleHash":"1d01e409","county":"Campbell County","lat":37.3733,"lng":-79.03,"structure_type":"MAST","structure_name":null,"structure_address":"I/S OF RT 460 & RT 762","height":45.1,"base_elevation":245.612579,"structure_owner_name":"NEXTEL WIP LICENSE CORP.","structure_manager_name":null,"data_source":"FCC: Land Mobile - Commercial (GIS)"}},{"type":"Feature","geometry":{"type":"Point","coordinates":[-79.2117,37.3006]},"properties":{"name":"NS RoW @ MP 246.9","styleUrl":"#towerStyle","styleHash":"1d01e409","county":"Campbell County","lat":37.3006,"lng":-79.2117,"structure_type":"POLE","structure_name":null,"structure_address":"NS RoW @ MP 246.9","height":3.1,"base_elevation":240.268997,"structure_owner_name":"Norfolk Southern Railway Company","structure_manager_name":null,"data_source":"FCC: Land Mobile - Commercial (GIS)"}},{"type":"Feature","geometry":{"type":"Point","coordinates":[-79.09,37.287]},"properties":{"name":"LONG MOUNTAIN","styleUrl":"#towerStyle","styleHash":"1d01e409","county":"Campbell County","lat":37.287,"lng":-79.09,"structure_type":"TOWER","structure_name":null,"structure_address":"LONG MOUNTAIN","height":74.1,"base_elevation":417.371398,"structure_owner_name":"NEXTEL WIP LICENSE CORP.","structure_manager_name":null,"data_source":"FCC: Land Mobile - Commercial (GIS)"}},{"type":"Feature","geometry":{"type":"Point","coordinates":[-79.1744,37.2983]},"properties":{"name":"81 HYLAND DRIVE & RTE 29","styleUrl":"#towerStyle","styleHash":"1d01e409","county":"Campbell County","lat":37.2983,"lng":-79.1744,"structure_type":"TOWER","structure_name":null,"structure_address":"81 HYLAND DRIVE & RTE 29","height":49.4,"base_elevation":308.134796,"structure_owner_name":"NEXTEL WIP LICENSE CORP.","structure_manager_name":null,"data_source":"FCC: Land Mobile - Commercial (GIS)"}},{"type":"Feature","geometry":{"type":"Point","coordinates":[-79.2906,37.127]},"properties":{"name":"1618-D MELINDA DRIVE","styleUrl":"#towerStyle","styleHash":"1d01e409","county":"Campbell County","lat":37.127,"lng":-79.2906,"structure_type":"TOWER","structure_name":null,"structure_address":"1618-D MELINDA DRIVE","height":55.5,"base_elevation":252.225082,"structure_owner_name":"NEXTEL WIP LICENSE CORP.","structure_manager_name":null,"data_source":"FCC: Land Mobile - Commercial (GIS)"}},{"type":"Feature","geometry":{"type":"Point","coordinates":[-79.1806,37.2575]},"properties":{"name":"179 ANTESY RD","styleUrl":"#towerStyle","styleHash":"1d01e409","county":"Campbell County","lat":37.2575,"lng":-79.1806,"structure_type":"TOWER","structure_name":null,"structure_address":"179 ANTESY RD","height":77.7,"base_elevation":280.195465,"structure_owner_name":"NEXTEL WIP LICENSE CORP.","structure_manager_name":null,"data_source":"FCC: Land Mobile - Commercial (GIS)"}},{"type":"Feature","geometry":{"type":"Point","coordinates":[-79.1675,37.3489]},"properties":{"name":"CANDLER MOUNTAIN","styleUrl":"#towerStyle","styleHash":"1d01e409","county":"Campbell County","lat":37.3489,"lng":-79.1675,"structure_type":"TOWER","structure_name":null,"structure_address":"CANDLER MOUNTAIN","height":18,"base_elevation":415.033203,"structure_owner_name":"AFTON COMMUNICATIONS CORPORATION","structure_manager_name":null,"data_source":"FCC: Land Mobile - Commercial (GIS)"}},{"type":"Feature","geometry":{"type":"Point","coordinates":[-79.1328,37.2411]},"properties":{"name":"RT 686 1.8 MI E OF RT 761","styleUrl":"#towerStyle","styleHash":"1d01e409","county":"Campbell County","lat":37.2411,"lng":-79.1328,"structure_type":"TOWER","structure_name":null,"structure_address":"RT 686 1.8 MI E OF RT 761","height":15,"base_elevation":268.584197,"structure_owner_name":"NEXTEL WIP LICENSE CORP.","structure_manager_name":null,"data_source":"FCC: Land Mobile - Commercial (GIS)"}},{"type":"Feature","geometry":{"type":"Point","coordinates":[-79.1328,37.2411]},"properties":{"name":"0.2 MI S OF RT 50","styleUrl":"#towerStyle","styleHash":"1d01e409","county":"Campbell County","lat":37.2411,"lng":-79.1328,"structure_type":"SILO","structure_name":null,"structure_address":"0.2 MI S OF RT 50","height":15,"base_elevation":268.584197,"structure_owner_name":"NEXTEL WIP LICENSE CORP.","structure_manager_name":null,"data_source":"FCC: Land Mobile - Commercial (GIS)"}},{"type":"Feature","geometry":{"type":"Point","coordinates":[-79.0961,37.2331]},"properties":{"name":".2 MI S OF RT 50","styleUrl":"#towerStyle","styleHash":"1d01e409","county":"Campbell County","lat":37.2331,"lng":-79.0961,"structure_type":null,"structure_name":null,"structure_address":".2 MI S OF RT 50","height":0,"base_elevation":271.127288,"structure_owner_name":"NEXTEL WIP LICENSE CORP.","structure_manager_name":null,"data_source":"FCC: Land Mobile - Commercial (GIS)"}},{"type":"Feature","geometry":{"type":"Point","coordinates":[-79.1331,37.2408]},"properties":{"name":"RT 686 1.8 MI E OF RT 751","styleUrl":"#towerStyle","styleHash":"1d01e409","county":"Campbell County","lat":37.2408,"lng":-79.1331,"structure_type":"TOWER","structure_name":null,"structure_address":"RT 686 1.8 MI E OF RT 751","height":15,"base_elevation":268.439575,"structure_owner_name":"NEXTEL WIP LICENSE CORP.","structure_manager_name":null,"data_source":"FCC: Land Mobile - Commercial (GIS)"}},{"type":"Feature","geometry":{"type":"Point","coordinates":[-78.941399,37.0381]},"properties":{"name":"1230 RADIO RD","styleUrl":"#towerStyle","styleHash":"1d01e409","county":"Campbell County","lat":37.0381,"lng":-78.941399,"structure_type":"MAST","structure_name":null,"structure_address":"1230 RADIO RD","height":15.5,"base_elevation":115.122131,"structure_owner_name":"JKC MEDIA VENTURES, LLC","structure_manager_name":null,"data_source":"FCC: Land Mobile - Broadcast (GIS)"}},{"type":"Feature","geometry":{"type":"Point","coordinates":[-79.09,37.2861]},"properties":{"name":"LONG MOUNTAIN","styleUrl":"#towerStyle","styleHash":"1d01e409","county":"Campbell County","lat":37.2861,"lng":-79.09,"structure_type":"TOWER","structure_name":null,"structure_address":"LONG MOUNTAIN","height":15,"base_elevation":427.815948,"structure_owner_name":"VIRGINIA TECH FOUNDATION, INC.","structure_manager_name":null,"data_source":"FCC: Land Mobile - Broadcast (GIS)"}},{"type":"Feature","geometry":{"type":"Point","coordinates":[-79.2358,37.3389]},"properties":{"name":"TIMBERLAKE CELL SITE 11 OAKDALE CIRCLE","styleUrl":"#towerStyle","styleHash":"1d01e409","county":"Campbell County","lat":37.3389,"lng":-79.2358,"structure_type":"TANK","structure_name":null,"structure_address":"TIMBERLAKE CELL SITE 11 OAKDALE CIRCLE","height":43.3,"base_elevation":274.275634,"structure_owner_name":"USCOC OF VIRGINIA RSA #3, INC.","structure_manager_name":null,"data_source":"FCC: Cellular (GIS)"}},{"type":"Feature","geometry":{"type":"Point","coordinates":[-79.0433,37.3847]},"properties":{"name":"1264 CABIN FIELD ROAD","styleUrl":"#towerStyle","styleHash":"1d01e409","county":"Campbell County","lat":37.3847,"lng":-79.0433,"structure_type":"TOWER","structure_name":null,"structure_address":"1264 CABIN FIELD ROAD","height":59.4,"base_elevation":241.080261,"structure_owner_name":"USCOC OF VIRGINIA RSA #3, INC.","structure_manager_name":null,"data_source":"FCC: Cellular (GIS)"}},{"type":"Feature","geometry":{"type":"Point","coordinates":[-79.2092,37.2022]},"properties":{"name":"ROUTE 1 BOX 489","styleUrl":"#towerStyle","styleHash":"1d01e409","county":"Campbell County","lat":37.2022,"lng":-79.2092,"structure_type":"TOWER","structure_name":null,"structure_address":"ROUTE 1 BOX 489","height":79.2,"base_elevation":258.611389,"structure_owner_name":"USCOC OF VIRGINIA RSA #3, INC.","structure_manager_name":null,"data_source":"FCC: Cellular (GIS)"}},{"type":"Feature","geometry":{"type":"Point","coordinates":[-79.1806,37.2575]},"properties":{"name":"EVINGTON CELL SITE: IN THE CITY OF YELLOW BRANCH, 178 ANSTEY ROAD","styleUrl":"#towerStyle","styleHash":"1d01e409","county":"Campbell County","lat":37.2575,"lng":-79.1806,"structure_type":null,"structure_name":null,"structure_address":"EVINGTON CELL SITE: IN THE CITY OF YELLOW BRANCH, 178 ANSTEY ROAD","height":0,"base_elevation":280.195465,"structure_owner_name":"USCOC OF VIRGINIA RSA #3, INC.","structure_manager_name":null,"data_source":"FCC: Cellular (GIS)"}},{"type":"Feature","geometry":{"type":"Point","coordinates":[-79.09,37.2853]},"properties":{"name":"Rustburg Cell Site SW END OF LONG MOUNTAIN 0.7 MILES NE OF","styleUrl":"#towerStyle","styleHash":"1d01e409","county":"Campbell County","lat":37.2853,"lng":-79.09,"structure_type":null,"structure_name":null,"structure_address":"Rustburg Cell Site SW END OF LONG MOUNTAIN 0.7 MILES NE OF","height":0,"base_elevation":427.029235,"structure_owner_name":"USCOC OF VIRGINIA RSA #3, INC.","structure_manager_name":null,"data_source":"FCC: Cellular (GIS)"}},{"type":"Feature","geometry":{"type":"Point","coordinates":[-79.1675,37.3489]},"properties":{"name":"2.2 MI S","styleUrl":"#towerStyle","styleHash":"1d01e409","county":"Campbell County","lat":37.3489,"lng":-79.1675,"structure_type":"TOWER","structure_name":null,"structure_address":"2.2 MI S","height":24.4,"base_elevation":415.033203,"structure_owner_name":"USCOC OF VIRGINIA RSA #3, INC.","structure_manager_name":null,"data_source":"FCC: Cellular (GIS)"}},{"type":"Feature","geometry":{"type":"Point","coordinates":[-79.2906,37.127]},"properties":{"name":"ALTA VISTA CELL SITE 5 MILES NORTH BY NORTHWEST OF BROOKNEAL","styleUrl":"#towerStyle","styleHash":"1d01e409","county":"Campbell County","lat":37.127,"lng":-79.2906,"structure_type":null,"structure_name":null,"structure_address":"ALTA VISTA CELL SITE 5 MILES NORTH BY NORTHWEST OF BROOKNEAL","height":0,"base_elevation":252.225082,"structure_owner_name":"USCOC OF VIRGINIA RSA #3, INC.","structure_manager_name":null,"data_source":"FCC: Cellular (GIS)"}},{"type":"Feature","geometry":{"type":"Point","coordinates":[-78.9592,37.0558]},"properties":{"name":"BROOKNEAL CELL SITE 1.5 MILES NW OF BROOKNEAL","styleUrl":"#towerStyle","styleHash":"1d01e409","county":"Campbell County","lat":37.0558,"lng":-78.9592,"structure_type":null,"structure_name":null,"structure_address":"BROOKNEAL CELL SITE 1.5 MILES NW OF BROOKNEAL","height":0,"base_elevation":176.608215,"structure_owner_name":"USCOC OF VIRGINIA RSA #3, INC.","structure_manager_name":null,"data_source":"FCC: Cellular (GIS)"}},{"type":"Feature","geometry":{"type":"Point","coordinates":[-79.2333,37.3297]},"properties":{"name":"25 PROGRESS LANE","styleUrl":"#towerStyle","styleHash":"1d01e409","county":"Campbell County","lat":37.3297,"lng":-79.2333,"structure_type":"TOWER","structure_name":null,"structure_address":"25 PROGRESS LANE","height":45.7,"base_elevation":297.618469,"structure_owner_name":"Alltel Communications of Petersburg, Inc.","structure_manager_name":null,"data_source":"FCC: Cellular (GIS)"}},{"type":"Feature","geometry":{"type":"Point","coordinates":[-78.9258,37.0383]},"properties":{"name":"(Brookneal site) 6800' SE OF US 501 & SR 40","styleUrl":"#towerStyle","styleHash":"1d01e409","county":"Campbell County","lat":37.0383,"lng":-78.9258,"structure_type":"TOWER","structure_name":null,"structure_address":"(Brookneal site) 6800' SE OF US 501 & SR 40","height":80.8,"base_elevation":167.783782,"structure_owner_name":"Alltel Communications of Petersburg, Inc.","structure_manager_name":null,"data_source":"FCC: Cellular (GIS)"}},{"type":"Feature","geometry":{"type":"Point","coordinates":[-79.2906,37.127]},"properties":{"name":"1600 BLOCK OF MELINDA DRIVE IN ATAVISTA","styleUrl":"#towerStyle","styleHash":"1d01e409","county":"Campbell County","lat":37.127,"lng":-79.2906,"structure_type":null,"structure_name":null,"structure_address":"1600 BLOCK OF MELINDA DRIVE IN ATAVISTA","height":0,"base_elevation":252.225082,"structure_owner_name":"Alltel Communications of Petersburg, Inc.","structure_manager_name":null,"data_source":"FCC: Cellular (GIS)"}},{"type":"Feature","geometry":{"type":"Point","coordinates":[-79.0897,37.2864]},"properties":{"name":"LONG MOUNTAIN CELL SITE - ROUTE 2802","styleUrl":"#towerStyle","styleHash":"1d01e409","county":"Campbell County","lat":37.2864,"lng":-79.0897,"structure_type":"TOWER","structure_name":null,"structure_address":"LONG MOUNTAIN CELL SITE - ROUTE 2802","height":59.4,"base_elevation":427.660064,"structure_owner_name":"Alltel Communications of Petersburg, Inc.","structure_manager_name":null,"data_source":"FCC: Cellular (GIS)"}},{"type":"Feature","geometry":{"type":"Point","coordinates":[-78.9953,37.11]},"properties":{"name":"13982 Hwy 501","styleUrl":"#towerStyle","styleHash":"1d01e409","county":"Campbell County","lat":37.11,"lng":-78.9953,"structure_type":"MAST","structure_name":null,"structure_address":"13982 Hwy 501","height":60,"base_elevation":190.559967,"structure_owner_name":"Cellco Partnership","structure_manager_name":null,"data_source":"FCC: Cellular (GIS)"}},{"type":"Feature","geometry":{"type":"Point","coordinates":[-79.0897,37.2858]},"properties":{"name":"Off Tower Hill Road","styleUrl":"#towerStyle","styleHash":"1d01e409","county":"Campbell County","lat":37.2858,"lng":-79.0897,"structure_type":"TOWER","structure_name":null,"structure_address":"Off Tower Hill Road","height":60.3,"base_elevation":434.226318,"structure_owner_name":"VIRGINIA TECH FOUNDATION, INC.","structure_manager_name":null,"data_source":"FCC: Microwave (GIS)"}},{"type":"Feature","geometry":{"type":"Point","coordinates":[-79.2027,37.3325]},"properties":{"name":"AIRPORT RD","styleUrl":"#towerStyle","styleHash":"1d01e409","county":"Campbell County","lat":37.3325,"lng":-79.2027,"structure_type":"B","structure_name":null,"structure_address":"AIRPORT RD","height":10,"base_elevation":278.502532,"structure_owner_name":"Liberty University, Inc","structure_manager_name":null,"data_source":"FCC: Microwave (GIS)"}},{"type":"Feature","geometry":{"type":"Point","coordinates":[-79.1025,37.2782]},"properties":{"name":"COURTHOUSE LN","styleUrl":"#towerStyle","styleHash":"1d01e409","county":"Campbell County","lat":37.2782,"lng":-79.1025,"structure_type":"TOWER","structure_name":null,"structure_address":"COURTHOUSE LN","height":8.5,"base_elevation":266.40097,"structure_owner_name":"Campbell, County of","structure_manager_name":null,"data_source":"FCC: Microwave (GIS)"}},{"type":"Feature","geometry":{"type":"Point","coordinates":[-78.9259,37.0385]},"properties":{"name":"6800' SE OF US 501 & SR 40","styleUrl":"#towerStyle","styleHash":"1d01e409","county":"Campbell County","lat":37.0385,"lng":-78.9259,"structure_type":"TOWER","structure_name":null,"structure_address":"6800' SE OF US 501 & SR 40","height":80.8,"base_elevation":167.954544,"structure_owner_name":"Alltel Communications of Petersburg, Inc.","structure_manager_name":null,"data_source":"FCC: Microwave (GIS)"}},{"type":"Feature","geometry":{"type":"Point","coordinates":[-79.09,37.2865]},"properties":{"name":"1336 TOWER HILL ROAD","styleUrl":"#towerStyle","styleHash":"1d01e409","county":"Campbell County","lat":37.2865,"lng":-79.09,"structure_type":"MAST","structure_name":null,"structure_address":"1336 TOWER HILL ROAD","height":59.5,"base_elevation":424.170898,"structure_owner_name":"Alltel Communications of Petersburg, Inc.","structure_manager_name":null,"data_source":"FCC: Microwave (GIS)"}},{"type":"Feature","geometry":{"type":"Point","coordinates":[-79.0299,37.3734]},"properties":{"name":"I/S of Rt 460 & Rt 762","styleUrl":"#towerStyle","styleHash":"1d01e409","county":"Campbell County","lat":37.3734,"lng":-79.0299,"structure_type":"POLE","structure_name":null,"structure_address":"I/S of Rt 460 & Rt 762","height":45.1,"base_elevation":245.068664,"structure_owner_name":"Alltel Communications of Petersburg, Inc.","structure_manager_name":null,"data_source":"FCC: Microwave (GIS)"}},{"type":"Feature","geometry":{"type":"Point","coordinates":[-79.3516,37.1975]},"properties":{"name":"NEAR RT 626 JOHNSON MT 4.5 MI SW","styleUrl":"#towerStyle","styleHash":"1d01e409","county":"Campbell County","lat":37.1975,"lng":-79.3516,"structure_type":"TOWER","structure_name":null,"structure_address":"NEAR RT 626 JOHNSON MT 4.5 MI SW","height":176.5,"base_elevation":404.7471,"structure_owner_name":"Campbell, County of","structure_manager_name":null,"data_source":"FCC: Microwave (GIS)"}},{"type":"Feature","geometry":{"type":"Point","coordinates":[-79.2205,37.314]},"properties":{"name":"(Tower LN305); Lakeland Lake, 1359 Waterlick Road","styleUrl":"#towerStyle","styleHash":"1d01e409","county":"Campbell County","lat":37.314,"lng":-79.2205,"structure_type":"TOWER","structure_name":null,"structure_address":"(Tower LN305); Lakeland Lake, 1359 Waterlick Road","height":55.2,"base_elevation":271.652343,"structure_owner_name":"Telecom Transport Management, Inc.","structure_manager_name":null,"data_source":"FCC: Microwave (GIS)"}},{"type":"Feature","geometry":{"type":"Point","coordinates":[-79.2335,37.3297]},"properties":{"name":"25 PROGRESS LANE","styleUrl":"#towerStyle","styleHash":"1d01e409","county":"Campbell County","lat":37.3297,"lng":-79.2335,"structure_type":"TOWER","structure_name":null,"structure_address":"25 PROGRESS LANE","height":45.7,"base_elevation":296.836303,"structure_owner_name":"Telecom Transport Management, Inc.","structure_manager_name":null,"data_source":"FCC: Microwave (GIS)"}},{"type":"Feature","geometry":{"type":"Point","coordinates":[-78.8373,37.1832]},"properties":{"name":"8770 Sugar Hill Road","styleUrl":"#towerStyle","styleHash":"1d01e409","county":"Campbell County","lat":37.1832,"lng":-78.8373,"structure_type":"TOWER","structure_name":null,"structure_address":"8770 Sugar Hill Road","height":100,"base_elevation":223.279129,"structure_owner_name":"USCOC OF VIRGINIA RSA #3, INC.","structure_manager_name":null,"data_source":"FCC: Microwave (GIS)"}},{"type":"Feature","geometry":{"type":"Point","coordinates":[-79.1275,37.235]},"properties":{"name":"Vertical Asset","styleUrl":"#towerStyle","styleHash":"1d01e409","county":"Campbell County","lat":37.235,"lng":-79.1275,"structure_type":null,"structure_name":null,"structure_address":null,"height":0,"base_elevation":249.886734,"structure_owner_name":"COLUMBIA GAS OF VIRGINIA INC.","structure_manager_name":null,"data_source":"FCC: Microwave (GIS)"}},{"type":"Feature","geometry":{"type":"Point","coordinates":[-79.0899,37.2866]},"properties":{"name":"Campbell County","styleUrl":"#towerStyle","styleHash":"1d01e409","county":"Campbell County","lat":37.2866,"lng":-79.0899,"structure_type":"TOWER","structure_name":null,"structure_address":"Campbell County","height":81.6,"base_elevation":422.960113,"structure_owner_name":"Campbell, County of","structure_manager_name":null,"data_source":"FCC: Microwave (GIS)"}},{"type":"Feature","geometry":{"type":"Point","coordinates":[-78.9592,37.0558]},"properties":{"name":"1.5 MI NW","styleUrl":"#towerStyle","styleHash":"1d01e409","county":"Campbell County","lat":37.0558,"lng":-78.9592,"structure_type":"TOWER","structure_name":null,"structure_address":"1.5 MI NW","height":99.1,"base_elevation":176.608215,"structure_owner_name":"Campbell, County of","structure_manager_name":null,"data_source":"FCC: Microwave (GIS)"}},{"type":"Feature","geometry":{"type":"Point","coordinates":[-79.0903,37.286299]},"properties":{"name":"Tower Road","styleUrl":"#towerStyle","styleHash":"1d01e409","county":"Campbell County","lat":37.286299,"lng":-79.0903,"structure_type":"TOWER","structure_name":null,"structure_address":"Tower Road","height":56,"base_elevation":417.208282,"structure_owner_name":"VIRGINIA TECH FOUNDATION, INC.","structure_manager_name":null,"data_source":"FCC: Microwave (GIS)"}},{"type":"Feature","geometry":{"type":"Point","coordinates":[-79.0897,37.2858]},"properties":{"name":"Long Mountain in Campbell County, Va","styleUrl":"#towerStyle","styleHash":"1d01e409","county":"Campbell County","lat":37.2858,"lng":-79.0897,"structure_type":"TOWER","structure_name":null,"structure_address":"Long Mountain in Campbell County, Va","height":60.3,"base_elevation":434.226318,"structure_owner_name":"COMMONWEALTH OF VIRGINIA, DEPARTMENT OF STATE POLICE","structure_manager_name":null,"data_source":"FCC: Microwave (GIS)"}},{"type":"Feature","geometry":{"type":"Point","coordinates":[-79.0899,37.2866]},"properties":{"name":"Campbell County","styleUrl":"#towerStyle","styleHash":"1d01e409","county":"Campbell County","lat":37.2866,"lng":-79.0899,"structure_type":"TOWER","structure_name":null,"structure_address":"Campbell County","height":81.6,"base_elevation":422.960113,"structure_owner_name":"Conterra Ultra Broadband, LLC","structure_manager_name":null,"data_source":"FCC: Microwave (GIS)"}},{"type":"Feature","geometry":{"type":"Point","coordinates":[-79.0854,37.2759]},"properties":{"name":"1671 Village Hwy","styleUrl":"#towerStyle","styleHash":"1d01e409","county":"Campbell County","lat":37.2759,"lng":-79.0854,"structure_type":"BPIPE","structure_name":null,"structure_address":"1671 Village Hwy","height":7.6,"base_elevation":276.736114,"structure_owner_name":"Conterra Ultra Broadband, LLC","structure_manager_name":null,"data_source":"FCC: Microwave (GIS)"}},{"type":"Feature","geometry":{"type":"Point","coordinates":[-79.4036,37.0954]},"properties":{"name":"1621 Taylor Ford Rd","styleUrl":"#towerStyle","styleHash":"1d01e409","county":"Campbell County","lat":37.0954,"lng":-79.4036,"structure_type":"TOWER","structure_name":null,"structure_address":"1621 Taylor Ford Rd","height":36.5,"base_elevation":246.608398,"structure_owner_name":"Appalachian Power Company","structure_manager_name":null,"data_source":"FCC: Microwave (GIS)"}},{"type":"Feature","geometry":{"type":"Point","coordinates":[-79.103399,37.2764]},"properties":{"name":"684 Village Hwy","styleUrl":"#towerStyle","styleHash":"1d01e409","county":"Campbell County","lat":37.2764,"lng":-79.103399,"structure_type":"BPIPE","structure_name":null,"structure_address":"684 Village Hwy","height":12.2,"base_elevation":264.723876,"structure_owner_name":"Conterra Ultra Broadband, LLC","structure_manager_name":null,"data_source":"FCC: Microwave (GIS)"}},{"type":"Feature","geometry":{"type":"Point","coordinates":[-79.2837,37.1326]},"properties":{"name":"2190 Lynchmill Road","styleUrl":"#towerStyle","styleHash":"1d01e409","county":"Campbell County","lat":37.1326,"lng":-79.2837,"structure_type":"POLE","structure_name":null,"structure_address":"2190 Lynchmill Road","height":47.2,"base_elevation":193.301971,"structure_owner_name":"Conterra Ultra Broadband, LLC","structure_manager_name":null,"data_source":"FCC: Microwave (GIS)"}},{"type":"Feature","geometry":{"type":"Point","coordinates":[-79.244399,37.3348]},