{"type":"FeatureCollection","features":[{"type":"Feature","geometry":{"type":"Point","coordinates":[-77.171399,38.8797]},"properties":{"name":"161-B HILLWOOD AVE","styleUrl":"#towerStyle","styleHash":"1d01e409","county":"Falls Church city","lat":38.8797,"lng":-77.171399,"structure_type":null,"structure_name":null,"structure_address":"161-B HILLWOOD AVE","height":82.3,"base_elevation":94.483192,"structure_owner_name":"NEWCOMB BROADCASTING CORPORATION  DBA =  WFAX AM","structure_manager_name":null,"data_source":"FCC: Antenna Structure Registration (GIS)"}},{"type":"Feature","geometry":{"type":"Point","coordinates":[-77.1719,38.8808]},"properties":{"name":"Vertical Asset","styleUrl":"#towerStyle","styleHash":"1d01e409","county":"Falls Church city","lat":38.8808,"lng":-77.1719,"structure_type":null,"structure_name":null,"structure_address":null,"height":0,"base_elevation":95.073692,"structure_owner_name":"The Church at the Falls-The Falls Church","structure_manager_name":null,"data_source":"FCC: Land Mobile - Private (GIS)"}},{"type":"Feature","geometry":{"type":"Point","coordinates":[-77.1722,38.8856]},"properties":{"name":"300 Park Avenue","styleUrl":"#towerStyle","styleHash":"1d01e409","county":"Falls Church city","lat":38.8856,"lng":-77.1722,"structure_type":"POLE","structure_name":null,"structure_address":"300 Park Avenue","height":15,"base_elevation":107.614952,"structure_owner_name":"Falls church city","structure_manager_name":null,"data_source":"FCC: Land Mobile - Private (GIS)"}},{"type":"Feature","geometry":{"type":"Point","coordinates":[-77.1861,38.8922]},"properties":{"name":"1120  W BROAD ST","styleUrl":"#towerStyle","styleHash":"1d01e409","county":"Falls Church city","lat":38.8922,"lng":-77.1861,"structure_type":null,"structure_name":null,"structure_address":"1120  W BROAD ST","height":0,"base_elevation":103.46302,"structure_owner_name":"KFC NATIONAL MANAGEMENT COMPANY","structure_manager_name":null,"data_source":"FCC: Land Mobile - Private (GIS)"}},{"type":"Feature","geometry":{"type":"Point","coordinates":[-77.171399,38.8822]},"properties":{"name":"2936 GALLOWS RD","styleUrl":"#towerStyle","styleHash":"1d01e409","county":"Falls Church city","lat":38.8822,"lng":-77.171399,"structure_type":null,"structure_name":null,"structure_address":"2936 GALLOWS RD","height":0,"base_elevation":99.205337,"structure_owner_name":"KFC OF AMERICA, INC","structure_manager_name":null,"data_source":"FCC: Land Mobile - Private (GIS)"}},{"type":"Feature","geometry":{"type":"Point","coordinates":[-77.190799,38.8925]},"properties":{"name":"Vertical Asset","styleUrl":"#towerStyle","styleHash":"1d01e409","county":"Falls Church city","lat":38.8925,"lng":-77.190799,"structure_type":null,"structure_name":null,"structure_address":null,"height":0,"base_elevation":108.588592,"structure_owner_name":"FALLS CHURCH, CITY OF","structure_manager_name":null,"data_source":"FCC: Land Mobile - Private (GIS)"}},{"type":"Feature","geometry":{"type":"Point","coordinates":[-77.1881,38.8903]},"properties":{"name":"Vertical Asset","styleUrl":"#towerStyle","styleHash":"1d01e409","county":"Falls Church city","lat":38.8903,"lng":-77.1881,"structure_type":null,"structure_name":null,"structure_address":null,"height":0,"base_elevation":103.327278,"structure_owner_name":"CORALAIN GARDEN APARTMENTS","structure_manager_name":null,"data_source":"FCC: Land Mobile - Private (GIS)"}},{"type":"Feature","geometry":{"type":"Point","coordinates":[-77.1711,38.8822]},"properties":{"name":"Vertical Asset","styleUrl":"#towerStyle","styleHash":"1d01e409","county":"Falls Church city","lat":38.8822,"lng":-77.1711,"structure_type":null,"structure_name":null,"structure_address":null,"height":0,"base_elevation":99.594947,"structure_owner_name":"TACO BELL","structure_manager_name":null,"data_source":"FCC: Land Mobile - Private (GIS)"}},{"type":"Feature","geometry":{"type":"Point","coordinates":[-77.1694,38.8828]},"properties":{"name":"201 N WASHINGTON ST","styleUrl":"#towerStyle","styleHash":"1d01e409","county":"Falls Church city","lat":38.8828,"lng":-77.1694,"structure_type":"B","structure_name":null,"structure_address":"201 N WASHINGTON ST","height":20,"base_elevation":106.362701,"structure_owner_name":"USA Mobility Wireless, Inc.","structure_manager_name":null,"data_source":"FCC: Land Mobile - Private (GIS)"}},{"type":"Feature","geometry":{"type":"Point","coordinates":[-77.1722,38.8856]},"properties":{"name":"FALLS CHURCH POLICE DEPT 300 PARK AVE","styleUrl":"#towerStyle","styleHash":"1d01e409","county":"Falls Church city","lat":38.8856,"lng":-77.1722,"structure_type":null,"structure_name":null,"structure_address":"FALLS CHURCH POLICE DEPT 300 PARK AVE","height":0,"base_elevation":107.614952,"structure_owner_name":"FALLS CHURCH, CITY OF","structure_manager_name":null,"data_source":"FCC: Land Mobile - Private (GIS)"}},{"type":"Feature","geometry":{"type":"Point","coordinates":[-77.1722,38.8856]},"properties":{"name":"300 PARK AVE","styleUrl":"#towerStyle","styleHash":"1d01e409","county":"Falls Church city","lat":38.8856,"lng":-77.1722,"structure_type":null,"structure_name":null,"structure_address":"300 PARK AVE","height":0,"base_elevation":107.614952,"structure_owner_name":"Falls church city","structure_manager_name":null,"data_source":"FCC: Land Mobile - Private (GIS)"}},{"type":"Feature","geometry":{"type":"Point","coordinates":[-77.190799,38.8925]},"properties":{"name":"7100 GORDON RD","styleUrl":"#towerStyle","styleHash":"1d01e409","county":"Falls Church city","lat":38.8925,"lng":-77.190799,"structure_type":null,"structure_name":null,"structure_address":"7100 GORDON RD","height":0,"base_elevation":108.588592,"structure_owner_name":"Falls church city","structure_manager_name":null,"data_source":"FCC: Land Mobile - Private (GIS)"}},{"type":"Feature","geometry":{"type":"Point","coordinates":[-77.183,38.879199]},"properties":{"name":"900 S. WASHINGTON STREET","styleUrl":"#towerStyle","styleHash":"1d01e409","county":"Falls Church city","lat":38.879199,"lng":-77.183,"structure_type":"B","structure_name":null,"structure_address":"900 S. WASHINGTON STREET","height":13.7,"base_elevation":98.879814,"structure_owner_name":"NEXTEL COMMUNICATIONS OF THE MID-ATLANTIC, INC.","structure_manager_name":null,"data_source":"FCC: Land Mobile - Commercial (GIS)"}},{"type":"Feature","geometry":{"type":"Point","coordinates":[-77.1664,38.8858]},"properties":{"name":"405 N. WASHINGTON ST","styleUrl":"#towerStyle","styleHash":"1d01e409","county":"Falls Church city","lat":38.8858,"lng":-77.1664,"structure_type":"B","structure_name":null,"structure_address":"405 N. WASHINGTON ST","height":15.8,"base_elevation":99.022277,"structure_owner_name":"NEXTEL COMMUNICATIONS OF THE MID-ATLANTIC, INC.","structure_manager_name":null,"data_source":"FCC: Land Mobile - Commercial (GIS)"}},{"type":"Feature","geometry":{"type":"Point","coordinates":[-77.1806,38.8879]},"properties":{"name":"803 West Broad St","styleUrl":"#towerStyle","styleHash":"1d01e409","county":"Falls Church city","lat":38.8879,"lng":-77.1806,"structure_type":"BANT","structure_name":null,"structure_address":"803 West Broad St","height":27,"base_elevation":98.983001,"structure_owner_name":"CLEARWIRE SPECTRUM HOLDINGS III, LLC","structure_manager_name":null,"data_source":"FCC: Microwave (GIS)"}},{"type":"Feature","geometry":{"type":"Point","coordinates":[-77.1833,38.8793]},"properties":{"name":"900 S Washington St","styleUrl":"#towerStyle","styleHash":"1d01e409","county":"Falls Church city","lat":38.8793,"lng":-77.1833,"structure_type":"BANT","structure_name":null,"structure_address":"900 S Washington St","height":15.8,"base_elevation":100.702568,"structure_owner_name":"CLEARWIRE SPECTRUM HOLDINGS III, LLC","structure_manager_name":null,"data_source":"FCC: Microwave (GIS)"}}]}