SITE_EXTERNAL_ID,SITE_NEW_FLAG,SITE_NAME,SITE_ADDRESS,SITE_CITY,SITE_ZIP,COUNTY_CODE,COUNTY,STATE_CODE,STATE,SITE_LAT,SITE_LONG,SITE_CONTACT_NAME,SITE_CONTACT_PHONE,STATUS,SITE_TEMP_RETIRE_FLAG,# OF BOAT SLIPS,# OF CAR PARKING SPACES,# OF CB USING SITE,# OF HB USING SITE,# OF RAMPS,# OF TRAILER PARKING SPACES,BOAT MAINTENANCE/REPAIR,BOAT STORAGE,CAN WE INTERVIEW,FISH CLEANING STATIONS,FISHING ACTIVITY AFFECTED BY TIDE,FUEL DOCK,HEADBOAT ONLY,IS FEE CHARGED TO THE PUBLIC FOR USE OF SITE,IS SITE SAFE FOR 2 SAMPLERS AT NIGHT,LIGHTING AT NIGHT,LODGING (ONSITE/IMMEDIATE VICINITY),MAJOR TOURNAMENTS,PRIVATE ACCESS,RESTAURANT (ONSITE/IMMEDIATE VICINITY),RETAIL BAIT,SHORE AREA,SHORE MODE,TACKLE SHOPS
207,,CHESAPEAKE COVE MARINA,170 Greens Cove Rd.,DELTAVILLE,23043,119,MIDDLESEX,51,VA,37.3343,-76.19375,BOB REINER,8047766855,Active,,39,20,0,0,0,0,YES,YES,YES,YES,NO,YES,NO,YES,YES,YES,NO,NO,YES,NO,NO,NA,N/A,YES
217,,DELTAVILLE MARINA,274 Bucks View Ln,DELTAVILLE,23043,119,MIDDLESEX,51,VA,37.3294,-76.1977,BETTY CARDWELL,8047769633,Active,,80,80,1,0,0,0,YES,YES,YES,YES,NO,YES,NO,YES,YES,YES,NO,NO,NO,NO,NO,NA,N/A,NO
288,,GREYS POINT CAMP,3601 Greys Point Rd,TOPPING,,119,MIDDLESEX,51,VA,37.36666,-76.26683,,8047582485,Active,,100,20,0,0,1,10,NO,YES,YES,YES,YES,NO,NO,NO,YES,YES,NO,NO,NO,NO,YES,INLAND,BOTH,YES
424,,WALDEN BROTHERS MARINA,1224 Timberneck Rd,DELTAVILLE,23043,119,MIDDLESEX,51,VA,37.33635,-76.18976,CHRIS PLAKAS,8047769440,Active,,10,40,2,1,1,20,YES,YES,YES,NO,YES,YES,NO,YES,YES,YES,NO,NO,NO,NO,NO,INLAND,N/A,NO
943,,STINGRAY HARBOR,,DELTAVILLE,23403,119,MIDDLESEX,51,VA,37.3365,-76.18451,John Swartwout,8043148309,Retired,,240,200,0,0,0,0,NO,NO,YES,NO,NO,NO,NO,NO,YES,YES,NO,NO,YES,NO,NO,NA,N/A,NO
977,,MILL CREEK LANDING (VAGIF RAMP),1299 Carlton Rd,Pinetop,23176,119,MIDDLESEX,51,VA,37.35024,-76.25474,,,Active,,0,10,0,0,1,10,NO,NO,YES,NO,NO,NO,NO,NO,YES,NO,NO,NO,NO,NO,NO,INLAND,BOTH,NO
980,,DOZIER/ REGATTA POINT MARINA,137 Neptune Ln,DELTAVILLE,23043,119,MIDDLESEX,51,VA,37.33555,-76.18725,JACK DOZIER,8047768400,Retired,,150,50,0,0,0,12,YES,YES,YES,NO,NO,NO,NO,YES,YES,YES,NO,NO,NO,NO,NO,INLAND,N/A,NO
1836,,DELTAVILLE YACHTING CENTER,18355 General Puller Hwy,DELTAVILLE,23403,119,MIDDLESEX,51,VA,37.33347,-76.19112,LEW GRIMM,8047769898,Active,,50,100,0,0,0,15,YES,YES,YES,YES,YES,YES,NO,YES,YES,YES,NO,YES,YES,NO,NO,INLAND,N/A,NO
3170,,LOCKLIES MARINA,784 Locklies Creek Rd,TOPPING,23169,119,MIDDLESEX,51,VA,37.3564,-76.26118,,,Active,,20,20,3,0,0,0,NO,NO,YES,NO,NO,YES,NO,NO,NO,NO,NO,NO,NO,YES,NO,NA,N/A,NO
3383,,BETHPAGE CAMP RESORT (CAMPGROUND),679 Browns Ln,URBANNA,,119,MIDDLESEX,51,VA,37.391,-76.35216,KRISTINA CRALL,8047584349,Active,,240,25,0,0,1,15,NO,YES,YES,YES,YES,NO,NO,YES,YES,YES,YES,NO,NO,NO,YES,INLAND,BEACH/BANK,NO
33,,KINGS CREEK MARINA,2 Marina Village Cir.,CAPE CHARLES,23310,131,NORTHAMPTON,51,VA,37.16681,-76.0681,JOE HABEL,7573318640,Active,,125,70,1,0,0,0,NO,NO,YES,YES,YES,YES,NO,NO,YES,YES,YES,NO,YES,YES,YES,NA,N/A,YES
177,,SMITH BEACH PRIVATE RAMP,15532 Smith Beach Rd.,EASTVILLE,,131,NORTHAMPTON,51,VA,37.22062,-75.59106,,,Active,,0,0,0,0,1,0,NO,NO,NO,NO,YES,NO,NO,NO,NO,NO,NO,NO,NO,NO,NO,INLAND,N/A,NO
178,,MORLEY''S WHARF LANDING,2101 Morleys Wharf Rd.,WARDTOWN,,131,NORTHAMPTON,51,VA,37.32985,-75.52588,,,Active,,0,20,0,0,2,25,NO,NO,YES,NO,NO,NO,NO,NO,YES,YES,NO,NO,NO,NO,NO,INLAND,BOTH,NO
204,,CAPE CHARLES MUNICIPAL MARINA,23100 Marina Rd.,CAPE CHARLES,,131,NORTHAMPTON,51,VA,37.15895,-76.1021,SMITTY,7573312357,Active,,117,20,2,0,4,30,NO,YES,YES,NO,NO,YES,NO,NO,YES,YES,NO,NO,NO,YES,NO,NA,N/A,NO
212,,COUNTY RAMP @ OYSTER HARBOR,21123 Crumb Hill Rd.,OYSTER,,131,NORTHAMPTON,51,VA,37.17348,-75.55404,,,Active,,0,25,0,0,3,25,NO,NO,YES,NO,YES,NO,NO,NO,YES,YES,NO,NO,NO,NO,NO,BOTH,N/A,NO
302,,KIPTOPEKE STATE PARK,3201 Kiptopeke Dr.,CAPE CHARLES,,131,NORTHAMPTON,51,VA,37.10026,-75.59257,RANGER STATION,7573312267,Active,,0,85,0,0,2,90,NO,NO,YES,YES,YES,NO,NO,YES,YES,YES,YES,NO,NO,NO,NO,INLAND,BOTH,YES
311,,NATURE CONSERVANCY DOCK,21199 Sunnyside Rd.,OYSTER,,131,NORTHAMPTON,51,VA,37.17277,-75.55288,,7574423049,Retired,,0,10,0,0,0,0,NO,NO,YES,NO,NO,NO,NO,NO,YES,YES,NO,NO,NO,NO,NO,INLAND,N/A,NO
349,,BAYFORD OYSTER CO,5368 Bayford Rd.,BAYFORD,,131,NORTHAMPTON,51,VA,37.28573,-75.56091,,,Active,,2,5,0,0,1,3,NO,NO,YES,NO,YES,NO,NO,NO,NO,NO,NO,NO,NO,NO,NO,NA,N/A,NO
427,,WISE POINTBOAT RAMP,5471 Ramp Ln.,WISE POINT,,131,NORTHAMPTON,51,VA,37.767,-75.57038,,,Active,,0,21,0,0,2,40,NO,NO,YES,NO,YES,NO,NO,YES,YES,YES,NO,NO,NO,NO,NO,INLAND,N/A,NO
981,,CHERRYSTONE CAMPGROUND,1716 Townfield Dr.,CHERITON,,131,NORTHAMPTON,51,VA,37.16969,-76.6352,TACKLE SHOP,7573313740,Active,,0,30,0,1,1,30,NO,NO,YES,YES,YES,NO,NO,YES,YES,YES,YES,YES,NO,NO,YES,INLAND,MAN-MADE,YES
982,,WILLIS WHARF PUBLIC DOCK & RAMPS,4825 Willis Wharf Rd.,WILLIS WHARF,,131,NORTHAMPTON,51,VA,37.30542,-75.48372,,,Active,,40,20,0,0,2,20,NO,NO,YES,NO,YES,NO,NO,YES,YES,YES,NO,NO,NO,NO,NO,INLAND,N/A,NO
983,,RED BANK LANDING (GAME COMM RAMP),9306 Red Bank Ct.,NASSAWADOX,,131,NORTHAMPTON,51,VA,37.26748,-75.50381,,,Active,,0,12,0,0,2,10,NO,NO,YES,NO,YES,NO,NO,NO,NO,NO,NO,NO,NO,NO,NO,NA,N/A,NO
3208,,CAPE CHARLES MUNICIPAL PIER,,CAPE CHARLES,23310,131,NORTHAMPTON,51,VA,37.26697,-76.02333,,,Active,,0,20,0,0,0,0,NO,NO,YES,NO,NO,NO,NO,NO,YES,YES,NO,NO,NO,YES,NO,INLAND,BOTH,NO
12,,KRENTZ MARINE,3048 Harryhogan Rd,Callao,22435,133,NORTHUMBERLAND,51,VA,38.386,-76.32636,E MASTERS KRENTZ,8045296800,Active,,40,2,0,0,1,0,YES,YES,YES,NO,NO,YES,NO,NO,YES,YES,NO,NO,YES,NO,NO,INLAND,N/A,NO
937,,HILTON PIER,225 River Road,NEWPORT NEWS,23601,700,CITY OF NEWPORT NEWS,51,VA,37.1702,-76.27919,,7579261400,Active,,0,10,0,0,0,0,NO,NO,YES,NO,YES,NO,NO,NO,YES,NO,NO,NO,YES,NO,NO,INLAND,MAN-MADE,NO
995,,JAMES RIVER FISHING PIER,6701 River Road,JAMES RIVER BRIDG,23607,700,CITY OF NEWPORT NEWS,51,VA,37.814,-76.27368,BOBBY WHARTON,7577153071,Retired,Y,0,100,0,0,0,0,NO,NO,YES,YES,NO,NO,NO,YES,YES,YES,NO,NO,NO,YES,YES,INLAND,MAN-MADE,YES
1804,,MENCHVILLE MARINA,494B Menchville Rd,MENCHVILLE,,700,CITY OF NEWPORT NEWS,51,VA,37.4959,-76.31499,Lonell Coffen,7578749853,Active,,11,10,0,0,1,10,NO,NO,YES,NO,YES,YES,NO,NO,YES,YES,NO,NO,NO,NO,NO,INLAND,N/A,NO
81,,COBBS MARINA & RAMP,4524 Dunning Rd.,NORFOLK,,710,CITY OF NORFOLK,51,VA,36.553,-76.11303,NANCY & WARREN COBB,7575885401,Active,,95,20,0,0,0,20,YES,YES,YES,YES,NO,NO,NO,YES,YES,YES,NO,YES,NO,NO,YES,NA,N/A,YES
153,,BAYPOINT-LITTLE CREEK MARINA,4801 Pretty Lake Ave.,NORFOLK,,710,CITY OF NORFOLK,51,VA,36.5544,-76.1113,DOCKMASTER,7573623600,Active,,300,50,5,0,0,0,YES,YES,YES,YES,NO,YES,NO,YES,YES,YES,NO,NO,YES,YES,YES,NA,N/A,YES
214,,CUTTY SARK BOAT BASIN,4707 Pretty Lake Ave.,NORFOLK,,710,CITY OF NORFOLK,51,VA,36.55497,-76.11198,J CAMPBELL,7575889644,Active,,100,50,0,0,0,0,YES,NO,YES,YES,NO,NO,NO,YES,YES,YES,NO,NO,YES,YES,NO,NA,N/A,NO
254,,VINNING MARINA (TAYLOR''S LANDING MARI,,NORFOLK,,710,CITY OF NORFOLK,51,VA,36.55456,-76.11461,GORDON STILLWELL,7575878000,Active,,221,100,8,0,0,0,YES,YES,YES,YES,NO,YES,NO,YES,YES,YES,NO,YES,YES,YES,YES,NA,N/A,YES
346,,EAST BEACH MARINA,,NORFOLK,,710,CITY OF NORFOLK,51,VA,36.55501,-76.11323,,7573625000,Active,,150,50,0,0,0,0,NO,NO,YES,NO,NO,NO,NO,YES,YES,YES,NO,NO,YES,YES,NO,NA,N/A,NO
354,,LAFAYETTE RIVER BRIDGE,101 Willow Wood Dr.,NORFOLK,,710,CITY OF NORFOLK,51,VA,36.532,-76.16833,,,Retired,,0,0,0,0,0,0,NO,NO,YES,NO,NO,NO,NO,NO,NO,NO,NO,NO,NO,NO,NO,INLAND,MAN-MADE,NO
426,,WILLOUGHBY HARBOR MARINA,,NORFOLK,,710,CITY OF NORFOLK,51,VA,36.57951,-76.17702,,7575834150,Active,,270,100,0,3,0,0,NO,NO,YES,NO,NO,NO,NO,YES,YES,YES,NO,NO,YES,YES,NO,NA,N/A,NO
437,,OCEANVIEW PIER,414 W. Oceanview Ave.,NORFOLK,,710,CITY OF NORFOLK,51,VA,36.57613,-76.15663,RONNY BOONE,7575836000,Active,,0,100,0,1,0,0,NO,NO,YES,YES,YES,NO,NO,YES,YES,YES,NO,NO,NO,YES,YES,BOTH,BOTH,YES
944,,HAVEN CREEK BOAT RAMP,,NORFOLK,,710,CITY OF NORFOLK,51,VA,36.53066,-76.1705,,,Active,,0,15,0,0,1,20,NO,NO,YES,NO,YES,NO,NO,NO,NO,YES,NO,NO,NO,NO,NO,NA,N/A,NO
949,,WILLOUGHBY PUBLIC BOAT RAMP,9600 13th View St.,NORFOLK,,710,CITY OF NORFOLK,51,VA,36.57888,-76.17313,,,Active,,0,30,0,0,4,50,NO,NO,YES,NO,NO,NO,NO,NO,YES,YES,NO,NO,NO,NO,NO,NA,N/A,NO
14,,POQUOSON PUBLIC BOAT RAMP,380 Messick Rd,BACK RIVER,,735,CITY OF POQUOSON,51,VA,37.665,-76.19161,,,Active,,10,20,0,0,4,40,NO,NO,YES,YES,NO,NO,NO,NO,YES,YES,NO,NO,NO,YES,YES,NA,N/A,YES
59,,WHITEHOUSE COVE MARINA (POQUOSON MARI,115 Rens Rd,POQUOSON,,735,CITY OF POQUOSON,51,VA,37.8503,-76.22544,CRAIG BROWN,7575082602,Active,,50,60,0,0,1,20,NO,YES,YES,YES,NO,NO,NO,NO,YES,YES,NO,YES,YES,YES,YES,NA,N/A,YES
999,,OWEN''S MARINA,259 Mingee St,POQUOSON,,735,CITY OF POQUOSON,51,VA,37.8738,-76.22505,HOLT BELLAMY,7578688407,Active,,50,20,0,0,1,20,YES,YES,YES,YES,NO,YES,NO,YES,YES,NO,NO,NO,NO,YES,NO,INLAND,N/A,NO
1,,CITY PARK RAMP,126 City Park Ave.,PORTSMOUTH,,740,CITY OF PORTSMOUTH,51,VA,36.50055,-76.223,,,Active,,0,20,0,0,3,100,NO,NO,YES,NO,NO,NO,NO,NO,YES,YES,NO,NO,NO,NO,NO,INLAND,N/A,NO
246,,BENNETTS CREEK PARK & PUBLIC LANDING,Bennetts Creek Park Rd.,SUFFOLK,,800,CITY OF SUFFOLK,51,VA,36.51061,-76.29047,ED SHERMAN,7574843984,Active,,0,17,0,0,3,30,NO,NO,YES,NO,YES,NO,NO,NO,YES,YES,NO,NO,NO,NO,NO,INLAND,BOTH,NO
6,,CAPTAIN''S COVE,3342 Dock Ct.,GREENBACKVILLE,,1,ACCOMACK,51,VA,37.59337,-75.2514,BOB WILCOX,7578243465,Active,,90,80,0,0,1,20,NO,NO,YES,NO,NO,NO,NO,NO,YES,YES,NO,NO,NO,YES,NO,NA,N/A,NO
7,,ANCHOR INN,3775 S. Main St.,CHINCOTEAGUE,,1,ACCOMACK,51,VA,37.55855,-75.23016,RICHARD CONKLIN,7573366313,Active,,9,5,0,0,1,5,NO,NO,YES,NO,NO,NO,NO,YES,YES,YES,YES,NO,YES,YES,NO,NA,N/A,NO
9,,SNUG HARBOR MOTEL,7536 East Side Rd.,CHINCOTEAGUE,,1,ACCOMACK,51,VA,37.55025,-75.22422,JOHN SHIELDS,7573366176,Active,,0,20,0,0,0,0,NO,NO,YES,NO,NO,NO,NO,YES,YES,NO,YES,NO,YES,NO,YES,INLAND,N/A,YES
24,,WACHAPREAGUE MARINA AND RESTURANT( RA,17 Atlantic Ave.,WACHAPREAGUE,,1,ACCOMACK,51,VA,37.36216,-75.41285,Pete Walsh,7577874110,Active,,63,20,7,0,1,10,NO,NO,YES,YES,YES,YES,NO,YES,YES,YES,NO,NO,NO,YES,YES,NA,N/A,YES
25,,WACHAPREAGUE TOWN MARINA,41 Atlantic Ave.,WACHAPREAGUE,,1,ACCOMACK,51,VA,37.36431,-75.41223,SADIE PUCHALSKI,7577871930,Active,,40,40,3,0,2,40,NO,NO,YES,YES,YES,YES,NO,YES,YES,YES,NO,NO,NO,YES,NO,INLAND,N/A,NO
27,,PUBLIC LANDING-ASSATEAGUE CHANNEL,7682 East Side Rd.,CHINCOTEAGUE,,1,ACCOMACK,51,VA,37.55071,-75.22304,Wayne Merritt,,Active,,0,6,0,0,1,10,NO,NO,YES,NO,YES,NO,NO,YES,YES,YES,YES,NO,NO,YES,NO,NA,N/A,NO
30,,ONANCOCK PUBLIC RAMP,2 King St.,ONANCOCK,23417,1,ACCOMACK,51,VA,37.42697,-75.45308,Chuck Herron,7577877911,Active,,20,30,0,0,1,12,NO,NO,YES,NO,NO,YES,NO,NO,YES,YES,NO,NO,NO,YES,YES,NA,N/A,YES
36,,CHINCOTEAGUE MEMORIAL PARK RAMP,7414 Memorial Park Dr.,CHINCOTEAGUE,,1,ACCOMACK,51,VA,37.5499,-75.22875,,,Active,,0,50,0,0,1,12,NO,NO,YES,NO,YES,NO,NO,YES,YES,YES,YES,NO,NO,YES,NO,INLAND,MAN-MADE,NO
37,,CHINCOTEAGUE TOWN DOCK,4035 Main St.,CHINCOTEAGUE,,1,ACCOMACK,51,VA,37.56027,-75.22751,,,Active,,0,20,0,0,1,20,NO,NO,YES,NO,NO,NO,NO,NO,YES,YES,YES,NO,NO,YES,NO,INLAND,MAN-MADE,NO
39,,CURTIS MERRITT HARBOR OF REFUGE,2301 Curtis Merritt Harbor Rd.,CHINCOTEAGUE,,1,ACCOMACK,51,VA,37.54109,-75.24418,WAYNE MERRITT,7573366519,Active,,100,100,6,0,1,50,NO,NO,YES,YES,NO,YES,NO,YES,YES,YES,NO,NO,NO,NO,NO,NA,N/A,NO
41,,THE HAMMOCK''S,10199 Hammocks Rd.,SAXIS,23426,1,ACCOMACK,51,VA,37.54245,-75.4099,,,Active,,0,10,0,0,1,10,NO,NO,YES,NO,NO,NO,NO,NO,NO,NO,NO,NO,NO,NO,NO,INLAND,N/A,NO
57,,PARKER''S CREEK LANDING,27298 Fox Grove Rd.,PASTORIA,,1,ACCOMACK,51,VA,37.43687,-75.36512,,,Active,,0,10,0,0,1,5,NO,NO,YES,NO,YES,NO,NO,NO,YES,NO,NO,NO,NO,NO,NO,INLAND,MAN-MADE,NO
58,,GARGATHA LANDING,29599 Gargatha Landing Rd.,GARGATHA,23421,1,ACCOMACK,51,VA,37.46498,-75.33698,,,Active,,0,10,0,0,1,10,NO,NO,YES,NO,YES,NO,NO,NO,NO,NO,NO,NO,NO,NO,NO,INLAND,BOTH,NO
61,,KEGOTANK LANDING,18297 Kegotank Rd.,MODEST TOWN,,1,ACCOMACK,51,VA,37.4722,-75.33713,,,Active,,0,2,0,0,1,9,NO,NO,YES,NO,YES,NO,NO,NO,YES,YES,NO,NO,NO,NO,NO,INLAND,N/A,NO
68,,GREENBACKVILLE HARBOR,2001 Harbor Dr.,GREENBACKVILLE,,1,ACCOMACK,51,VA,38.4079,-75.23408,Bobby Wright,7578940637,Active,,100,50,3,0,2,20,NO,NO,YES,NO,NO,NO,NO,NO,YES,YES,NO,NO,NO,YES,YES,INLAND,N/A,YES
69,,PITTS LANDING,5007 Bell Rd.,NEW CHURCH,23415,1,ACCOMACK,51,VA,37.58477,-75.37858,,,Retired,,0,5,0,0,1,5,NO,NO,YES,NO,NO,NO,NO,NO,NO,NO,NO,NO,NO,NO,NO,INLAND,N/A,NO
115,,QUINIBY DOCK,20224 Harbor Point Rd.,QUINBY,,1,ACCOMACK,51,VA,37.32974,-75.43941,,,Active,,80,25,0,0,2,25,NO,NO,YES,NO,NO,NO,NO,NO,YES,YES,NO,NO,NO,NO,NO,INLAND,N/A,NO
290,,CHESSONNESSEX PUBLIC RAMP,21328 Southside Rd.,ONANCOCK,23417,1,ACCOMACK,51,VA,37.45889,-75.46351,,,Active,,0,5,0,0,1,5,NO,NO,YES,NO,YES,NO,NO,NO,YES,YES,NO,NO,NO,NO,NO,INLAND,BOTH,NO
296,,SAXIS HARBOR AND RAMP,9103 Starling Creek Rd.,SAXIS,23359,1,ACCOMACK,51,VA,37.55144,-75.43656,,,Active,,80,30,0,0,1,30,NO,NO,YES,NO,NO,NO,NO,NO,YES,YES,NO,NO,NO,YES,YES,NA,N/A,YES
180,,COCKRELL''S MARINA & RAILWAY,309 Railway Dr,Heathsville,22473,133,NORTHUMBERLAND,51,VA,37.53956,-76.18154,ANDY COCKRELL,8044533560,Active,,40,50,2,0,0,50,YES,YES,YES,YES,NO,YES,NO,YES,YES,YES,NO,YES,YES,YES,YES,INLAND,N/A,YES
181,,INGRAM BAY MARINA,545 Harveys Neck Rd,Heathville,22473,133,NORTHUMBERLAND,51,VA,37.48192,-76.18594,CAPTAIN BILL PIPKIN,8045807292,Active,,55,50,1,0,1,20,NO,YES,NO,YES,NO,YES,NO,YES,YES,YES,YES,YES,YES,NO,YES,NA,N/A,YES
182,,COAN RIVER MARINA,3170 Lake Rd,LOTTSBURG,22511,133,NORTHUMBERLAND,51,VA,37.58961,-76.28282,GARY GIEVERSON,8045296767,Active,,20,25,1,0,1,25,YES,YES,YES,NO,NO,YES,NO,YES,NO,NO,NO,YES,YES,NO,NO,INLAND,N/A,NO
184,,BUZZARD PT MARINA,832 Buzzard Pt Rd,REEDVILLE,22539,133,NORTHUMBERLAND,51,VA,37.50556,-76.17249,EDWARD BOWIS,8044533545,Active,,55,50,2,0,0,0,YES,YES,YES,YES,NO,YES,NO,YES,YES,NO,NO,NO,YES,YES,YES,INLAND,N/A,NO
185,,COOPER''S LANDING (VAGIF RAMP),Cooper's Landing Rd,HORSEHEAD,,133,NORTHUMBERLAND,51,VA,37.52289,-76.25158,,,Active,,0,2,0,0,1,1,NO,NO,YES,NO,NO,NO,NO,NO,NO,NO,NO,NO,NO,NO,NO,INLAND,BEACH/BANK,NO
264,,CRABBE''S CHARTER FISHING,53 Railway Dr,HEATHSVILLE,22473,133,NORTHUMBERLAND,51,VA,37.54129,-76.18014,CAPT DANNY CRABBE,8044533251,Active,,0,0,1,0,0,0,NO,NO,NO,NO,NO,NO,NO,NO,NO,NO,NO,NO,YES,NO,NO,NA,N/A,NO
465,,SMITH PT MARINA,989 Smith Pt Rd,REEDVILLE,22539,133,NORTHUMBERLAND,51,VA,37.53,-76.15,DAN HICKEY,8044534077,Active,,99,60,0,0,1,50,YES,YES,YES,YES,NO,YES,NO,YES,YES,YES,YES,YES,YES,YES,YES,INLAND,N/A,YES
477,,OLVERSON MARINA / Lodge Creek Yacht Club,1161 Melrose Rd,LOTTSBURG,22511,133,NORTHUMBERLAND,51,VA,37.59848,-76.32456,FRED OLVERSON,8045295071,Active,,100,50,0,0,2,50,NO,YES,YES,YES,NO,YES,NO,YES,YES,YES,YES,NO,YES,NO,YES,INLAND,N/A,YES
483,,LEWISETTA MARINA,410 Church Ln,Lottsburg,22511,133,NORTHUMBERLAND,51,VA,37.5977,-76.2785,HELEN SCZERBO,8045297299,Active,,28,10,1,0,1,20,YES,YES,YES,YES,NO,YES,NO,YES,YES,YES,NO,YES,YES,NO,YES,INLAND,N/A,YES
950,,SHELL LANDING,184 Shell Landing Rd,FLEETON,22539,133,NORTHUMBERLAND,51,VA,37.49449,-76.16295,Va DGIF,,Active,,0,6,0,0,2,6,NO,NO,YES,NO,NO,NO,NO,NO,NO,NO,NO,NO,NO,NO,NO,INLAND,N/A,NO
1857,,LODGE PUBLIC LANDING,199 Lodge Landing Rd,CALLAO,22435,133,NORTHUMBERLAND,51,VA,37.5959,-76.3242,VaDGIF,,Active,,0,5,0,0,1,10,NO,NO,YES,NO,NO,NO,NO,NO,NO,NO,NO,NO,NO,NO,NO,INLAND,BOTH,NO
3385,,GREAT WICOMICO FISHING PIER,3090 Jessie Dupont Hwy,WICOMOCO BLUFF,,133,NORTHUMBERLAND,51,VA,37.50708,-76.22112,,,Active,,0,10,0,0,0,0,NO,NO,YES,NO,NO,NO,NO,NO,NO,NO,NO,NO,YES,NO,NO,INLAND,MAN-MADE,NO
190,,WHELANS MARINA CAMPGROUNDS,3993 Hales Point Rd.,Farnham,22460,159,RICHMOND,51,VA,37.48,-76.38969,JOHN WHELAN,8043949500,Active,,40,100,1,0,2,100,YES,YES,YES,YES,NO,YES,NO,YES,YES,YES,YES,NO,YES,NO,YES,INLAND,BEACH/BANK,YES
192,,CARTER''S WHARF (VAGIF RAMP),1899 Carters Wharf Rd,SINGERLY,,159,RICHMOND,51,VA,38.4275,-76.55412,,,Active,,0,20,0,0,1,20,NO,NO,YES,NO,NO,NO,NO,NO,YES,NO,NO,NO,NO,NO,NO,INLAND,BEACH/BANK,NO
193,,TOTUSKEY CREEK LANDING (VAGIF RAMP),Woodyard Rd,WARSAW,22572,159,RICHMOND,51,VA,37.55426,-76.43273,,,Active,,0,2,0,0,1,6,NO,NO,YES,NO,NO,NO,NO,NO,YES,NO,NO,NO,NO,NO,NO,INLAND,BOTH,NO
195,,VA DOT RAMP,99 Farnham LAnding Rd,FARNHAM,22572,159,RICHMOND,51,VA,37.50823,-76.39532,,,Active,,0,3,0,0,1,3,NO,NO,YES,NO,YES,NO,NO,NO,NO,NO,NO,NO,NO,NO,NO,INLAND,N/A,NO
196,,SIMONSON LANDING (VAGIF RAMP),2710 Simonson Rd,Farnham,22460,159,RICHMOND,51,VA,37.48423,-76.3801,DGIF,,Active,,0,10,0,0,1,20,NO,NO,YES,NO,NO,NO,NO,NO,YES,NO,NO,NO,NO,NO,NO,INLAND,BEACH/BANK,NO
197,,NAYLORS POINT,4011  Naylors Beach Rd,WARSAW,22572,159,RICHMOND,51,VA,37.58669,-76.51762,,,Active,,0,40,0,0,1,10,NO,NO,YES,NO,NO,NO,NO,YES,YES,NO,YES,NO,YES,NO,NO,INLAND,BEACH/BANK,NO
157,,HOG ISLAND REFUGE (NOT VEPCO PROP),Rt 650,BACONS CASTLE,,181,SURRY,51,VA,37.10485,-76.41781,JOHN RANDOLPH,,Active,,0,10,0,0,0,0,NO,NO,YES,NO,NO,NO,NO,YES,NO,NO,NO,NO,NO,NO,NO,INLAND,BEACH/BANK,NO
159,,GRAYS CREEK MARINA,580 Marina Dr,SURRY,,181,SURRY,51,VA,37.1063,-76.4834,,,Retired,,0,20,0,0,1,10,NO,NO,NO,NO,NO,NO,NO,NO,NO,NO,NO,NO,YES,NO,NO,INLAND,BOTH,NO
247,,BRADY''S MARINA,3624 Godwin Blvd.,SUFFOLK,,800,CITY OF SUFFOLK,51,VA,36.47466,-76.34533,MR. BRADY,7575399656,Active,,20,20,0,0,1,20,NO,YES,YES,NO,YES,NO,NO,YES,YES,YES,NO,NO,YES,NO,NO,INLAND,N/A,NO
334,,GUARD SHORE,22401 Gaurd Shore Rd.,BLOXOM,23308,1,ACCOMACK,51,VA,37.50876,-75.40629,,,Active,,0,20,0,0,0,0,NO,NO,YES,NO,YES,NO,NO,NO,NO,NO,NO,NO,NO,NO,NO,INLAND,BEACH/BANK,NO
363,,HARBORTON RAMP,Harborton Rd,PUNGOTEAGUE,,1,ACCOMACK,51,VA,37.3998,-75.49854,,,Active,,0,20,0,0,2,75,NO,NO,YES,NO,NO,NO,NO,NO,YES,YES,NO,NO,NO,NO,NO,INLAND,N/A,NO
251,,BENNETS CREEK MARINA (HARBOR SIDE MAR,3305 Ferry Rd.,SUFFOLK,,800,CITY OF SUFFOLK,51,VA,36.51907,-76.28685,,7574848700,Active,,5,25,0,0,1,25,NO,YES,YES,NO,NO,NO,NO,YES,YES,YES,NO,NO,NO,YES,NO,NA,N/A,NO
2,,INLET STATION MARINA,,RUDEE INLET AREA,,810,CITY OF VIRGINIA BEACH,51,VA,36.49876,-75.5866,,7574222999,Active,,60,50,6,0,0,0,NO,NO,NO,NO,NO,NO,NO,NO,NO,NO,NO,NO,NO,NO,NO,NA,N/A,NO
15,,LYNNHAVEN BOATEL,,LYNNHAVEN AREA OF,,810,CITY OF VIRGINIA BEACH,51,VA,36.54326,-76.4165,BRIAN SIMONELLI,7574810700,Active,,0,100,0,0,0,0,YES,YES,YES,YES,NO,YES,NO,NO,YES,YES,YES,NO,YES,YES,NO,NA,N/A,YES
22,,FIRST LANDING STATE PARK BOAT RAMP,Hwy 343,CAPE HENRY,,810,CITY OF VIRGINIA BEACH,51,VA,36.53523,-76.1093,,,Active,,0,50,0,0,3,100,NO,NO,YES,NO,YES,NO,NO,YES,NO,YES,NO,NO,NO,NO,NO,INLAND,BEACH/BANK,NO
88,,VA BEACH FISHING CENTER,200 Winston Salem Ave.,RUDEE INLET AREA,,810,CITY OF VIRGINIA BEACH,51,VA,36.49938,-75.58391,DOCKMASTER,7574225171,Active,,50,50,15,3,0,0,NO,NO,YES,YES,YES,YES,NO,NO,YES,YES,YES,YES,NO,YES,YES,NA,N/A,YES
89,,DOCKSIDE FISHING CENTER (LYNNHAVEN CE,,VIRGINIA BEACH,,810,CITY OF VIRGINIA BEACH,51,VA,36.5439,-76.0519,KEVIN SELDON,7574814545,Active,,0,30,0,1,0,0,NO,NO,YES,NO,NO,YES,YES,YES,YES,YES,YES,NO,YES,YES,YES,NA,N/A,NO
91,,FISHERMANS WHARF MARINA,524 Winston Salem Ave.,RUDEE INLET AREA,,810,CITY OF VIRGINIA BEACH,51,VA,36.49905,-75.5861,DOCKMASTER,7574282111,Active,,90,30,1,0,0,0,NO,NO,YES,YES,NO,YES,NO,YES,YES,YES,YES,NO,YES,YES,NO,NA,N/A,NO
93,,LYNNHAVEN MUNICIPAL MARINA,,LYNNHAVEN AREA OF,,810,CITY OF VIRGINIA BEACH,51,VA,36.54325,-76.5061,GEORGE HIL/JIM STAN,7574966845,Active,,40,20,1,0,0,0,NO,NO,YES,YES,NO,NO,NO,YES,YES,YES,NO,NO,YES,YES,NO,NA,N/A,NO
149,,SEA GULL FISHING PIER,,VIRGINIA BEACH,,810,CITY OF VIRGINIA BEACH,51,VA,36.57986,-76.6771,,7574644641,Active,,0,100,0,0,0,0,NO,NO,YES,YES,NO,NO,NO,YES,YES,YES,NO,NO,YES,YES,YES,INLAND,MAN-MADE,NO
150,,LYNNHAVEN FISHING PIER,2350 Starfish Rd.,LYNNHAVEN AREA OF,,810,CITY OF VIRGINIA BEACH,51,VA,36.54747,-76.4673,BARBARA OR HOYT DUFF,7574817071,Active,,0,71,0,0,0,0,NO,NO,YES,YES,NO,NO,NO,YES,YES,YES,YES,NO,NO,YES,YES,INLAND,BOTH,YES
152,,VIRGINIA BEACH FISHING PIER,1506 Atlantic Avenue,Virginia Beach,23451,810,CITY OF VIRGINIA BEACH,51,VA,36.50605,-75.58332,BOB LACHMAN,7574282333,Active,,0,50,0,0,0,0,NO,NO,YES,YES,YES,NO,NO,YES,YES,YES,YES,NO,YES,YES,YES,OCEAN,BOTH,YES
157,,LYNNHAVEN PUBLIC LAUNCH & BEACH FACIL,3576 Piedmont Cir.,LYNNHAVEN AREA OF,,810,CITY OF VIRGINIA BEACH,51,VA,36.5442,-76.5686,Jim Landon,7574607569,Active,,0,50,0,0,4,100,NO,NO,YES,NO,YES,NO,NO,YES,YES,YES,YES,NO,NO,YES,NO,NA,N/A,NO
200,,BUBBAS MARINA,3323 Shore Dr.,LYNNHAVEN AREA OF,,810,CITY OF VIRGINIA BEACH,51,VA,36.54406,-76.05246,DEMITRI HIONIS (OWNER,7574813513,Active,,0,50,0,0,1,50,NO,NO,YES,NO,YES,YES,NO,YES,YES,YES,YES,NO,YES,YES,YES,NA,N/A,YES
265,,LONG BAY POINT MARINA,,VIRGINIA BEACH,,810,CITY OF VIRGINIA BEACH,51,VA,36.545,-76.4666,STEVE RAY/CONNY BAR,7574817517,Active,,200,50,3,0,0,0,NO,NO,YES,YES,NO,YES,NO,NO,YES,YES,YES,YES,YES,YES,YES,NA,N/A,YES
338,,1ST ST BEACH,401 Atlantic Ave.,RUDEE INLET AREA,,810,CITY OF VIRGINIA BEACH,51,VA,36.49783,-75.582,,,Retired,,0,20,0,0,0,0,NO,NO,YES,NO,YES,NO,NO,YES,NO,YES,YES,NO,NO,NO,NO,BOTH,BEACH/BANK,NO
387,,MARINA SHORES,2100 Marina Shores Dr.,GREAT NECK,,810,CITY OF VIRGINIA BEACH,51,VA,36.54334,-76.03948,RUSTY MALBON,7574811300,Active,,200,100,2,0,0,0,YES,YES,YES,YES,NO,YES,NO,YES,YES,YES,NO,YES,YES,YES,YES,NA,N/A,YES
392,,SANDBRIDGE BEACH,,SANDBRIDGE,,810,CITY OF VIRGINIA BEACH,51,VA,36.41376,-75.55354,,,Active,,0,50,0,0,0,0,NO,NO,YES,NO,NO,NO,NO,NO,NO,NO,NO,NO,NO,NO,NO,OCEAN,BEACH/BANK,NO
438,,OWLS CREEK PUBLIC RAMP,705 General Booth Blvd.,RUDEE INLET AREA,,810,CITY OF VIRGINIA BEACH,51,VA,36.49363,-75.58871,,,Active,,0,20,0,0,3,100,NO,NO,YES,NO,NO,NO,NO,NO,YES,YES,NO,NO,NO,NO,NO,NA,N/A,NO
447,,NORTH BANK RUDEE INLET,,RUDEE INLET AREA,,810,CITY OF VIRGINIA BEACH,51,VA,36.49806,-75.58213,,,Active,,0,40,0,0,0,0,NO,NO,YES,NO,NO,NO,NO,NO,NO,YES,NO,NO,NO,NO,NO,INLAND,BEACH/BANK,NO
456,,LITTLE ISLAND REC AREA & FISHING PIER,3856 Sandpiper Rd.,SANDBRIDGE,,810,CITY OF VIRGINIA BEACH,51,VA,36.41606,-75.5547,DALTON SAWYER,7574260013,Active,,0,100,0,0,0,0,NO,NO,YES,YES,YES,NO,NO,YES,YES,YES,NO,NO,NO,NO,NO,OCEAN,BOTH,NO
386,,TOM''S COVE CAMPGROUND,Toms CV,CHINCOTEAGUE,,1,ACCOMACK,51,VA,37.54545,-75.23232,KEN BURTON/MR. COLE,7573366498,Active,,50,50,0,0,1,50,NO,NO,YES,YES,NO,NO,NO,YES,YES,YES,YES,NO,YES,YES,YES,INLAND,BOTH,YES
391,,ASSATEAGUE BEACH & NEARBY ESTUARY,,ASSATEAGUE BEACH,,1,ACCOMACK,51,VA,37.53296,-75.20578,RANGER STATION,7573366577,Active,,0,500,0,0,0,0,NO,NO,YES,NO,NO,NO,NO,YES,YES,YES,NO,NO,YES,NO,NO,BOTH,BEACH/BANK,NO
422,,JOHNSONS LANDING,18782 Johnsons Landing Rd.,LEEMONT,23421,1,ACCOMACK,51,VA,37.47023,-75.42103,,,Active,,0,5,0,0,2,5,NO,NO,YES,NO,YES,NO,NO,NO,YES,YES,NO,NO,NO,NO,NO,INLAND,MAN-MADE,NO
445,,FOLLY CREEK PUBLIC BOAT RAMP,25201 Folly Creek Rd,DAUGHERTY,23301,1,ACCOMACK,51,VA,37.41621,-75.37926,,,Active,,4,15,0,0,2,10,NO,NO,YES,NO,YES,NO,NO,NO,YES,YES,NO,NO,NO,NO,NO,INLAND,N/A,NO
458,,ASSATEAGUE CHANNEL MARINA,7462 East Side St,CHINCOTEAGUE,,1,ACCOMACK,51,VA,37.55046,-75.22598,ANN SWIFT,7573365555,Active,,26,26,0,0,0,7,YES,YES,YES,YES,NO,YES,NO,YES,YES,YES,YES,NO,NO,NO,YES,NA,N/A,YES
473,,SCHOONER BAY PUBLIC RAMP,20300 Bluebill Ln.,ONANCOCK,,1,ACCOMACK,51,VA,37.45775,-75.4636,,,Active,,0,15,0,0,1,15,NO,NO,YES,NO,YES,NO,NO,NO,YES,YES,NO,NO,NO,NO,NO,INLAND,BOTH,NO
474,,INLET VIEW CAMPGROUND,2376 Curtis Merritt Harbor Rd.,CHINCOTEAGUE,,1,ACCOMACK,51,VA,37.54238,-75.2432,EDDIE TULL,7573365126,Active,,0,4,0,0,0,0,NO,NO,YES,NO,YES,NO,NO,YES,YES,NO,YES,NO,YES,NO,NO,INLAND,BOTH,YES
954,,QUEEN SOUND RAMP,Hwy 175,CHINCOTEAGUE,23337,1,ACCOMACK,51,VA,37.56085,-75.25113,,,Active,,0,10,0,0,1,6,NO,NO,YES,NO,YES,NO,NO,NO,YES,NO,NO,NO,NO,NO,NO,NA,N/A,NO
955,,CAPT BOB''S MARINA,2503 Main St.,CHINCOTEAGUE,,1,ACCOMACK,51,VA,37.54529,-75.24086,DONNA ROESKE,7573366654,Active,,65,40,1,0,2,25,NO,NO,YES,YES,NO,NO,NO,YES,YES,YES,NO,NO,YES,NO,YES,NA,N/A,YES
957,,VA LANDING PRIVATE RESORT,44732 Upshur Rd.,QUINBY,23420,1,ACCOMACK,51,VA,37.29561,-75.47008,Gretchen Stracuzzi,7574424853,Active,,4,10,0,0,1,10,NO,NO,YES,YES,YES,NO,NO,NO,YES,YES,YES,NO,YES,NO,NO,INLAND,N/A,NO
1199,,CAPTAIN ZEDS,17 Atlantic Ave,WACHAPREAGUE,23430,1,ACCOMACK,51,VA,37.3624,-75.41271,DEBBIE SHREIVES,7577893222,Active,,9,25,2,0,1,0,NO,NO,YES,YES,YES,YES,NO,NO,YES,YES,NO,NO,NO,YES,YES,NA,N/A,YES
1216,,ISLAND MARINA,6367 Waters Edge Dr.,CHINCOTEAGUE,,1,ACCOMACK,51,VA,37.55899,-75.23006,Spider Flemming,7579904242,Active,,30,15,0,0,0,0,NO,NO,YES,YES,NO,YES,NO,YES,YES,YES,YES,NO,YES,YES,NO,NA,N/A,NO
1837,,TRAILS END RESORT,6173 Nautilus Dr.,HORNTOWN,23395,1,ACCOMACK,51,VA,37.57097,-75.26981,RANDY FOX,7578243428,Active,,20,20,0,0,2,15,NO,NO,YES,YES,NO,NO,NO,NO,YES,YES,YES,NO,YES,YES,NO,INLAND,N/A,NO
1849,,TALL PINES HARBOR CAMPGROUND,8107 Tall Pines Ln,SANFORD,,1,ACCOMACK,51,VA,37.56097,-75.39127,RAY & SHERRI BARKER,7578240777,Active,,1,100,0,0,1,15,YES,YES,YES,NO,NO,NO,NO,YES,YES,YES,YES,NO,NO,NO,YES,INLAND,BOTH,YES
1852,,SAXIS PUBLIC PIER,19373 Saxis Rd.,SAXIS,23359,1,ACCOMACK,51,VA,37.55236,-75.43791,MARTHA JANE LINTON,7578245885,Active,,0,20,0,0,0,0,NO,NO,YES,NO,YES,NO,NO,NO,YES,YES,NO,NO,NO,NO,NO,INLAND,MAN-MADE,NO
3084,,ANNS COVE RAMP,15001 New Rd.,GUILFORD,23308,1,ACCOMACK,51,VA,37.5019,-75.40444,,,Active,,0,10,0,0,1,10,NO,NO,YES,NO,YES,NO,NO,NO,NO,NO,NO,NO,NO,NO,NO,INLAND,N/A,NO
959,,HOSKIN''S CREEK LANDING & DOCK (VAGIF),Dock Street,TAPPAHANNOCK,22560,57,ESSEX,51,VA,37.55216,-76.51433,,,Active,,0,20,0,0,1,10,NO,NO,YES,NO,NO,NO,NO,NO,YES,YES,NO,NO,NO,YES,NO,INLAND,MAN-MADE,NO
960,,GARRETT''S MARINA,339 Catchpenny Ln,BOWLER''S WHARF,22560,57,ESSEX,51,VA,37.48643,-76.44681,LEWIS MUSE,8044432751,Active,,300,50,0,0,1,40,YES,YES,YES,YES,YES,YES,NO,YES,YES,YES,NO,YES,YES,NO,YES,INLAND,N/A,YES
961,,JUNE PARKER MARINA,531 Church Ln,TAPPAHANNOCK,22560,57,ESSEX,51,VA,37.56068,-76.51726,TRY PARKER,8044432131,Active,,25,100,0,0,1,50,YES,YES,YES,NO,NO,YES,NO,YES,YES,YES,NO,YES,YES,NO,YES,INLAND,N/A,YES
55,,GLOUCESTER POINT MARINA,7998 Marina Way,GLOUCESTER POINT,,73,GLOUCESTER,51,VA,37.15905,-76.29232,VICKY WEST,8042882238,Active,,34,15,0,0,1,5,NO,NO,YES,YES,NO,NO,NO,YES,YES,YES,NO,NO,NO,NO,NO,INLAND,N/A,NO
308,,CARLISLE WILDLIFE MGMT AREA,Landing Rd,HOG ISL NWR,,181,SURRY,51,VA,37.835,-76.40572,,,Active,,0,20,0,0,1,10,NO,NO,YES,NO,NO,NO,NO,NO,YES,NO,NO,NO,NO,NO,NO,INLAND,BOTH,NO
70,,DEEP POINT PUBLIC LANDING  (VGIF),Deep Point Ln,HARCUM,,73,GLOUCESTER,51,VA,37.32162,-76.29748,,,Active,,0,5,0,0,1,8,NO,NO,YES,NO,NO,NO,NO,NO,YES,NO,NO,NO,NO,NO,NO,INLAND,BOTH,NO
75,,CROWN POINTE MARINA,Cooks Landing Rd,hayes ,23072,73,GLOUCESTER,51,VA,37.16115,-76.25346,ROBERT LINN,8046426177,Active,,100,30,0,0,1,15,YES,YES,YES,YES,NO,YES,NO,YES,YES,YES,NO,NO,YES,NO,NO,INLAND,N/A,YES
13,,PORT KINSALE MARINA,406 Allen Point Rd,KINSALE,22488,193,WESTMORELAND,51,VA,38.1866,-76.33492,Dori Nairn,8044722044,Active,,60,15,0,0,1,15,YES,YES,YES,NO,YES,YES,NO,YES,YES,YES,YES,NO,YES,YES,YES,INLAND,N/A,NO
208,,HAMPTON HALL BRIDGE (BANK FISHING),14911 Cople Hwy,HYACINTH,,193,WESTMORELAND,51,VA,38.047,-76.3529,,,Active,,0,0,0,0,0,0,NO,NO,YES,NO,NO,NO,NO,NO,NO,NO,NO,NO,NO,NO,NO,INLAND,BEACH/BANK,NO
224,,STEPP''S VIEW MARINA,,OAK GROVE,,193,WESTMORELAND,51,VA,38.12288,-76.58768,MRS. STEPP,8042249265,Active,,150,30,0,0,1,40,YES,YES,YES,YES,NO,YES,NO,YES,YES,YES,NO,NO,YES,NO,NO,INLAND,N/A,NO
226,,Coles Point Marina,Black Beards Pond Rd,COLES POINT,22469,193,WESTMORELAND,51,VA,38.8554,-76.36928,TERESA SAUNDERS,8044724011,Active,,210,2,0,0,1,30,NO,YES,YES,YES,NO,YES,NO,NO,YES,YES,YES,NO,NO,YES,YES,NA,N/A,YES
229,,SANDY POINT MARINA,1276 Skipjack Rd,TUCKER HILL,,193,WESTMORELAND,51,VA,38.2809,-76.33046,DAVID BRYANT,8044723237,Active,,35,5,0,0,1,10,YES,YES,YES,NO,YES,YES,NO,YES,YES,YES,NO,NO,YES,NO,NO,INLAND,N/A,NO
230,,WHITE POINT MARINA,175 Marina Dr,KINSALE,,193,WESTMORELAND,51,VA,38.249,-76.33467,ROB REDFEARN,8044722977,Active,,50,20,0,0,0,0,YES,YES,YES,NO,YES,YES,NO,YES,YES,YES,NO,NO,YES,NO,NO,INLAND,N/A,NO
236,,WESTMORELAND STATE PARK,145 Cliff Rd,Montross,22520,193,WESTMORELAND,51,VA,38.10431,-76.52748,SCOTT FLICKINGER,8044930216,Active,,0,50,0,0,1,40,NO,NO,YES,YES,NO,YES,NO,YES,YES,NO,YES,NO,NO,YES,YES,INLAND,BEACH/BANK,NO
238,,THE GLEBE PRIVATE LANDING,219 Osprey Dr,GLEBE HARBOR,,193,WESTMORELAND,51,VA,38.7857,-76.39216,,,Retired,,0,0,0,0,1,0,NO,NO,YES,YES,NO,NO,NO,NO,YES,NO,NO,NO,YES,NO,NO,INLAND,N/A,NO
259,,HORNER''S BEACH PRIVATE RAMP,Horner Rd,OAK GROVE,,193,WESTMORELAND,51,VA,38.1218,-76.58935,,,Active,,0,5,0,0,1,5,NO,NO,YES,NO,NO,NO,NO,YES,YES,NO,NO,NO,NO,NO,NO,INLAND,BEACH/BANK,NO
469,,COLONIAL BEACH MUNICIPAL PIER,Beach ter,COLONIAL BEACH,22443,193,WESTMORELAND,51,VA,38.15035,-76.57668,,,Active,,0,50,0,0,0,0,NO,NO,YES,NO,NO,NO,NO,NO,YES,YES,YES,NO,NO,YES,NO,INLAND,BEACH/BANK,NO
470,,LEEDSTOWN CAMPGROUND,2195 Leedstown Road,LEEDSTOWN,22443,193,WESTMORELAND,51,VA,38.6628,-77.0311,,,Active,,0,15,0,0,1,10,NO,NO,YES,YES,NO,YES,NO,YES,YES,YES,NO,NO,NO,NO,NO,INLAND,BOTH,NO
476,,MONROE BAY CAMPGROUND,1510 Monroe Bay Cir,COLONIAL BEACH,22443,193,WESTMORELAND,51,VA,38.14354,-76.58036,L L CURLEY JR,8042247418,Active,,0,20,0,0,1,30,NO,YES,YES,YES,NO,NO,NO,YES,YES,YES,YES,NO,NO,YES,YES,INLAND,BEACH/BANK,YES
984,,MONROE BAY LANDING (VAGIF RAMP),Moinroe Bay Ave,COLONIAL BEACH,22443,193,WESTMORELAND,51,VA,38.13935,-76.57668,MIKO HANNA,,Active,,0,40,0,0,1,20,NO,NO,YES,NO,NO,NO,NO,YES,YES,YES,NO,NO,NO,YES,NO,INLAND,BEACH/BANK,NO
3382,,CURRIOMAN LANDING,Currioman Rd,CURRIOMAN BAY,22520,193,WESTMORELAND,51,VA,38.9223,-76.45682,,,Active,,0,10,0,0,1,10,NO,NO,YES,NO,NO,NO,NO,NO,NO,NO,NO,NO,NO,NO,NO,INLAND,BEACH/BANK,NO
3436,,ROBBERECHTS SEAFOOD,440 Mcquires Wharf Rd,MONTROSS,22520,193,WESTMORELAND,51,VA,38.6144,-76.43229,GEORGE,8044723556,Active,,0,15,0,0,1,15,NO,NO,YES,NO,YES,NO,NO,YES,YES,YES,NO,NO,NO,NO,NO,INLAND,N/A,NO
16,,WORMLEY CREEK PUBLIC RAMP,Old Wormley Rd,HORNSBYVILLE,,199,YORK,51,VA,37.12309,-76.28245,,,Active,,0,10,0,0,1,5,NO,NO,YES,NO,NO,NO,NO,NO,YES,NO,NO,NO,NO,NO,NO,INLAND,MAN-MADE,NO
206,,BACK CREEK PARK PUBLIC RAMP & PIER,3066 Goodwin Neck Rd,yorktown,23692,199,YORK,51,VA,37.12353,-76.2628,York County,,Active,,0,10,0,0,2,80,NO,NO,YES,NO,NO,NO,NO,NO,YES,YES,NO,NO,NO,NO,NO,INLAND,MAN-MADE,NO
305,,MILLS MARINA,1742 Back Creek Rd,SEAFORD,,199,YORK,51,VA,37.12185,-76.25514,JOHN WYDOUR,7578984411,Active,,60,5,0,0,1,5,YES,NO,YES,NO,NO,NO,NO,YES,YES,YES,NO,NO,YES,NO,YES,INLAND,N/A,YES
348,,WORMLEY CREEK MARINA,1221 Waterview Rd,HORNSBYVILLE,,199,YORK,51,VA,37.12833,-76.28016,BRETT CHERRY,7578988062,Active,,100,20,0,0,0,0,NO,NO,NO,YES,NO,YES,NO,YES,NO,NO,NO,NO,YES,NO,NO,NA,N/A,NO
358,,YORKTOWN PIER,water St,YORKTOWN,,199,YORK,51,VA,37.14167,-76.30374,,,Active,,0,100,0,0,0,0,NO,NO,YES,NO,NO,NO,NO,NO,YES,NO,YES,NO,NO,YES,NO,INLAND,MAN-MADE,NO
455,,YORKTOWN BEACH,Water St,YORKTOWN,,199,YORK,51,VA,37.14161,-76.30374,,,Active,,0,50,0,0,0,0,NO,NO,YES,NO,NO,NO,NO,NO,YES,NO,YES,NO,NO,YES,NO,INLAND,BOTH,NO
986,,ROGERS A SMITH PUBLIC LANDING,705 Tide Mill Rd,TABB,,199,YORK,51,VA,37.8055,-76.25771,,,Active,,0,25,0,0,2,25,NO,NO,YES,NO,NO,NO,NO,NO,YES,YES,NO,NO,NO,NO,NO,INLAND,MAN-MADE,NO
987,,DARE MARINA,821 Railway Rd,DARE,,199,YORK,51,VA,37.1094,-76.25353,MIKE HANNAH,7578983000,Active,,30,20,1,0,1,10,YES,YES,YES,YES,NO,YES,NO,YES,YES,YES,NO,YES,YES,NO,NO,NA,N/A,NO
989,,COLONIAL NAT PARK BCH PICNIC AREA,Conte Degrass St,YORKTOWN,,199,YORK,51,VA,37.13932,-76.30088,,,Active,,0,50,0,0,0,0,NO,NO,YES,NO,NO,NO,NO,NO,YES,NO,YES,NO,NO,YES,NO,INLAND,MAN-MADE,NO
439,,GLOUCESTER POINT LANDING,Greate Rd,GLOUCESTER POINT,23062,73,GLOUCESTER,51,VA,37.14727,-76.30255,,,Active,,0,10,0,0,2,5,NO,NO,YES,NO,NO,NO,NO,NO,YES,YES,NO,NO,NO,NO,NO,INLAND,N/A,NO
451,,GLOUCESTER POINT BCH & COUNTY PIER,Greate rd,GLOUCESTER POINT,,73,GLOUCESTER,51,VA,37.14782,-76.30185,,,Active,,0,64,0,0,0,0,NO,NO,YES,NO,YES,NO,NO,NO,YES,YES,NO,NO,NO,NO,NO,INLAND,BOTH,NO
964,,TANYARD LANDING (VAGIF RAMP),Tanyard Landing Rd,SIGNPINE,,73,GLOUCESTER,51,VA,37.27276,-76.40071,DGIF,,Active,,0,5,0,0,1,3,NO,NO,YES,NO,NO,NO,NO,NO,NO,NO,NO,NO,NO,NO,NO,INLAND,N/A,NO
3384,,WARE HOUSE LANDING,Ware House Rd,GLOUCESTER,23061,73,GLOUCESTER,51,VA,37.24202,-76.29395,DGIF,,Active,,0,15,0,0,1,10,NO,NO,YES,NO,NO,NO,NO,NO,NO,NO,NO,NO,NO,NO,NO,INLAND,N/A,NO
79,,TYLER''S BEACH LANDING (VAGIF RAMP),15026 Tylers Beach Rd,RUSHMERE,,93,ISLE OF WIGHT,51,VA,37.5008,-76.39916,,,Active,,10,10,0,0,1,10,NO,NO,YES,NO,NO,NO,NO,NO,YES,YES,NO,NO,NO,NO,NO,INLAND,BEACH/BANK,NO
332,,RAGGED ISLAND NWR BEACH,12473 Carrolton Blvd.,JAMES RIVER,,93,ISLE OF WIGHT,51,VA,36.57921,-76.30854,DGIF,,Active,,0,30,0,0,0,0,NO,NO,YES,NO,NO,NO,NO,NO,YES,NO,NO,NO,NO,NO,NO,INLAND,BEACH/BANK,NO
1002,,JONES CREEK RAMP & PIER,21001 Boundary Ln,RESCUE,,93,ISLE OF WIGHT,51,VA,36.5852,-76.33723,,,Active,,0,20,0,0,2,10,NO,NO,YES,NO,NO,NO,NO,NO,YES,YES,NO,NO,NO,NO,NO,INLAND,MAN-MADE,NO
1778,,CLONTZ PARK PIER, 230 Clontz Way Rd,SMITHFIELD,,93,ISLE OF WIGHT,51,VA,36.5937,-76.37756,,7573569939,Active,,0,10,0,0,0,0,NO,NO,YES,NO,NO,NO,NO,NO,YES,NO,NO,NO,NO,NO,NO,INLAND,MAN-MADE,NO
1826,,NIKE PARK,13036 Nik ePark Rd,CARROLTON,,93,ISLE OF WIGHT,51,VA,36.57652,-76.3378,,,Retired,,0,50,0,0,0,0,NO,NO,YES,NO,NO,NO,NO,NO,YES,NO,NO,NO,NO,NO,NO,INLAND,MAN-MADE,NO
3,,PULL OFF BETWEEN COLLEGE CREEK BEACH,,JAMESTOWN,,95,JAMES CITY,51,VA,37.13179,-76.41931,Colonial Pkwy.,,Active,,0,10,0,0,0,0,NO,NO,YES,NO,YES,NO,NO,NO,NO,NO,NO,NO,NO,NO,NO,INLAND,BEACH/BANK,NO
389,,COLLEGE CRK RIPRAP(BOTH SIDES OF BRG,,JAMESTOWN,,95,JAMES CITY,51,VA,37.13535,-76.4169,,,Retired,,0,20,0,0,0,0,NO,NO,YES,NO,YES,NO,NO,NO,NO,NO,NO,NO,NO,NO,NO,INLAND,MAN-MADE,NO
942,,COLLEGE CREEK BEACH PULLOFF,1272 Colonial Pky.,JAMESTOWN,,95,JAMES CITY,51,VA,37.13429,-76.41733,,,Active,,0,20,0,0,0,0,NO,NO,YES,NO,YES,NO,NO,NO,NO,NO,NO,NO,NO,NO,NO,INLAND,BEACH/BANK,NO
965,,YORK RIVER STATE PARK (CROAKER LANDIN,Croaker Landing Rd.,NORGE,,95,JAMES CITY,51,VA,37.25627,-76.4351,D MCADOO,7575649057,Active,,0,20,0,0,2,50,NO,NO,YES,NO,YES,NO,NO,YES,YES,YES,NO,NO,NO,NO,NO,INLAND,MAN-MADE,NO
966,,JAMESTOWN YACHT BASIN,2168 Jamestown Rd.,JAMESTOWN,,95,JAMES CITY,51,VA,37.13618,-76.46695,LISA SHEV,7575647714,Active,,50,30,5,0,1,25,YES,YES,YES,YES,YES,YES,NO,YES,YES,YES,NO,NO,NO,NO,YES,INLAND,N/A,NO
967,,MILL CREEK BRIDGE AREA,Colonial Pkwy.,JAMESTOWN,,95,JAMES CITY,51,VA,37.12846,-76.44574,,,Active,,0,12,0,0,0,0,NO,NO,YES,NO,YES,NO,NO,NO,NO,NO,NO,NO,NO,NO,NO,INLAND,BEACH/BANK,NO
95,,DAHLGREN MARINE WORKS,Potomac Rd,DAHLGREN,22485,99,KING GEORGE,51,VA,38.19355,-77.2983,DON PAUL,8046632741,Active,,30,20,0,0,1,20,YES,YES,YES,NO,NO,YES,NO,YES,YES,NO,NO,NO,NO,NO,YES,INLAND,MAN-MADE,YES
98,,FAIRVIEW BEACH CAMPGROUND & RV PARK,Pavilion Dr,FAIRVIEW BEACH,,99,KING GEORGE,51,VA,38.19834,-77.14842,,,Active,,0,20,0,0,0,0,NO,NO,NO,NO,NO,NO,NO,NO,NO,NO,NO,NO,NO,YES,NO,NA,N/A,NO
99,,FAIRVIEW BEACH YACHT CLUB,Riverview Rd,FAIRVIEW BEACH,22485,99,KING GEORGE,51,VA,38.19886,-77.14123,CHUCK BOWIE,7037755971,Active,,20,40,0,0,1,40,YES,YES,YES,NO,NO,YES,NO,YES,YES,YES,NO,NO,NO,YES,NO,NA,N/A,NO
973,,WEST POINT LANDING (VAGIF RAMP),Glass Island Rd,WEST POINT,23181,101,KING WILLIAM,51,VA,37.32474,-76.47366,Police Chief,8048433846,Active,,0,10,0,0,1,25,NO,NO,YES,NO,NO,NO,NO,NO,YES,NO,NO,NO,NO,NO,NO,NA,N/A,NO
104,,GREENVALE CREEK MARINA,Fairweather Ln,MOLLUSK,22503,103,LANCASTER,51,VA,37.42912,-76.32693,joe groves,8044620646,Active,,54,20,0,0,1,12,YES,YES,YES,YES,NO,YES,NO,NO,YES,NO,YES,YES,YES,NO,YES,INLAND,N/A,YES
1481,,GREAT NECK ROAD BRIDGE (SOUTH END),,GREAT NECK,,810,CITY OF VIRGINIA BEACH,51,VA,36.53871,-76.4087,,,Retired,,0,5,0,0,0,0,NO,NO,YES,NO,YES,NO,NO,NO,YES,YES,NO,NO,NO,NO,NO,INLAND,MAN-MADE,NO
1832,,SOUTHSIDE MARINA & ROCKS,,RUDEE INLET AREA,,810,CITY OF VIRGINIA BEACH,51,VA,36.49713,-75.58326,,,Retired,,15,20,1,1,0,0,NO,NO,YES,NO,YES,YES,NO,NO,YES,YES,NO,NO,YES,NO,NO,INLAND,N/A,NO
3145,,CHICKS BEACH @ CBBT,4700 Ocean View Ave,CHICKS BEACH,,810,CITY OF VIRGINIA BEACH,51,VA,36.55117,-76.7876,,,Active,,0,20,0,0,0,0,NO,NO,YES,NO,YES,NO,NO,NO,NO,NO,YES,NO,NO,YES,NO,INLAND,BEACH/BANK,NO
105,,CONRAD''S SEAFOOD INC,,MOLLUSK,,103,LANCASTER,51,VA,37.42651,-76.32666,Ron Edwards,8044627400,Retired,,0,5,0,0,1,5,NO,NO,NO,NO,YES,NO,NO,NO,NO,NO,NO,NO,YES,NO,NO,INLAND,N/A,NO
106,,GREENVALE CREEK COUNTY LANDING,Thomas Landing Rd,MOLLUSK,,103,LANCASTER,51,VA,37.4338,-76.32677,,,Active,,0,5,0,0,1,5,NO,NO,YES,NO,NO,NO,NO,NO,YES,NO,NO,NO,NO,NO,NO,INLAND,N/A,NO
990,,INDIAN FIELD CREEK (BANK & SANDBAR),Colonial Parkway,YORKTOWN,23691,199,YORK,51,VA,37.16104,-76.33369,,,Active,,0,15,0,0,0,0,NO,NO,YES,NO,NO,NO,NO,NO,YES,NO,NO,NO,NO,NO,NO,INLAND,BEACH/BANK,NO
127,,CHESAPEAKE BOAT BASIN,1686 Waverly Avenue,KILMARNOCK,,103,LANCASTER,51,VA,37.42,-76.21118,CLAY HOLCOMB,8044353110,Active,,72,5,0,0,1,5,YES,YES,YES,YES,YES,YES,NO,NO,YES,YES,NO,YES,YES,NO,YES,INLAND,N/A,YES
128,,LANCASTER SHORES PRIVATE RAMP,99 shore view dr,MORATTICO,22503,103,LANCASTER,51,VA,37.48402,-76.3629,,,Active,,0,5,0,0,1,5,NO,NO,YES,NO,NO,NO,NO,NO,YES,NO,NO,NO,NO,NO,NO,INLAND,N/A,NO
3120,,BELLE ISLAND STATE PARK,Belle Isle Rd,LITWALTON,22503,103,LANCASTER,51,VA,37.46468,-76.35087,TIM SCHRADER,8044625030,Active,,0,40,0,0,1,40,NO,NO,YES,NO,YES,NO,NO,NO,NO,NO,YES,NO,NO,NO,NO,INLAND,N/A,NO
137,,HAVEN BEACH,Haven Beach Rd,DIGGS,23045,115,MATHEWS,51,VA,37.25486,-76.15138,,,Active,,0,15,0,0,0,0,NO,NO,YES,NO,NO,NO,NO,NO,YES,NO,NO,NO,NO,NO,NO,INLAND,BEACH/BANK,NO
141,,MATHEWS YACHT CLUB,390 Yacht Club Rd,HUDGINS,23076,115,MATHEWS,51,VA,37.27821,-76.18583,JOANNE ROSE,8047253165,Active,,45,35,0,0,1,5,NO,NO,YES,YES,NO,YES,NO,NO,YES,YES,NO,YES,YES,YES,NO,NA,N/A,NO
143,,WINTER HARBOR HAVEN,167 Dock Ct,PORT HAYWOOD,,115,MATHEWS,51,VA,37.2257,-76.15837,JOHNNY,,Active,,25,30,0,0,1,30,NO,NO,YES,YES,YES,NO,NO,YES,YES,NO,NO,NO,NO,NO,NO,INLAND,BOTH,NO
144,,NEW POINT CAMPGROUNDS,846 Sand Bank Rd,NEW POINT,,115,MATHEWS,51,VA,37.20427,-76.16486,Brian Cirelli,8047255120,Active,,94,40,0,0,2,40,NO,YES,YES,YES,YES,YES,NO,YES,YES,NO,YES,NO,NO,NO,YES,INLAND,BOTH,NO
248,,HORN HARBOR MARINA,308 Railway Rd,Port Haywood,23138,115,MATHEWS,51,VA,37.22193,-76.1818,Norm Turner,8047253223,Active,,100,40,0,0,1,40,YES,YES,YES,YES,NO,YES,NO,YES,YES,YES,NO,NO,NO,NO,NO,NA,N/A,NO
286,,MOBJACK BAY MARINA,454 Marina Rd,NORTH,23128,115,MATHEWS,51,VA,37.25617,-76.24006,J.W. BOONE,8047257559,Active,,100,10,0,0,1,4,YES,YES,YES,YES,NO,YES,NO,NO,YES,YES,NO,NO,YES,NO,YES,NA,N/A,YES
303,,GWYNNS ISLAND (VAGIF RAMP),370 Old Ferry Rd,Hudgins,23076,115,MATHEWS,51,VA,37.29561,-76.18627,,,Active,,0,10,0,0,1,20,NO,NO,YES,NO,NO,NO,NO,YES,YES,NO,NO,NO,NO,YES,NO,NA,N/A,NO
974,,QUEEN''S CREEK MARINA,Walnut Acres Ln,HUDGINS,,115,MATHEWS,51,VA,37.29075,-76.20118,MIKE AND ANITA ULIASZ,8042408670,Active,,50,20,0,0,0,10,NO,YES,YES,NO,NO,NO,NO,NO,YES,YES,NO,NO,YES,NO,NO,INLAND,N/A,NO
975,,TOWN POINT (VAGIF RAMP),600 Town Point Landign Rd,MATTHEWS,23109,115,MATHEWS,51,VA,37.24933,-76.20235,,,Active,,0,20,0,0,1,20,NO,NO,YES,NO,NO,NO,NO,NO,YES,NO,NO,NO,NO,NO,NO,INLAND,MAN-MADE,NO
1833,,MORNING STAR MARINA (GWYNN''S ISLAND B,249 Mill Point Rd,Hudgins,23076,115,MATHEWS,51,VA,37.29242,-76.1842,TINA,8047259343,Active,,0,75,0,0,0,0,YES,YES,NO,YES,NO,YES,NO,YES,NO,YES,NO,YES,YES,NO,NO,NA,N/A,YES
43,,NORVIEW MARINA,18691 General Puller Hwy,DELTAVILLE,23043,119,MIDDLESEX,51,VA,37.33476,-76.1885,MR RESPESS,8047766463,Active,,284,75,2,0,1,100,YES,YES,YES,YES,YES,YES,NO,YES,YES,YES,NO,YES,YES,NO,YES,INLAND,N/A,YES
45,,SUNSET POINT MARINA (BURRELLS),792 Burells Marina Rd,URBANNA,23175,119,MIDDLESEX,51,VA,37.39233,-76.35473,Johny Talley,8047585016,Active,,35,25,2,0,1,20,NO,YES,YES,YES,YES,NO,NO,YES,YES,YES,YES,NO,YES,NO,YES,INLAND,N/A,YES
155,,NORTON''S MARINE,97 Marina Dr,DELTAVILLE,23043,119,MIDDLESEX,51,VA,37.33571,-76.19162,Mike Lynch,8047769211,Active,,40,40,0,0,0,10,YES,YES,YES,NO,NO,YES,NO,YES,YES,YES,NO,NO,YES,NO,NO,INLAND,N/A,NO
161,,OAKE''S LANDING (VAGIF RAMP),Oakes Landing Rd.,SALUDA,23149,119,MIDDLESEX,51,VA,37.37353,-76.34904,,,Active,,0,4,0,0,1,4,NO,NO,YES,NO,YES,NO,NO,NO,YES,NO,NO,NO,NO,NO,NO,INLAND,BOTH,NO
162,,J&M MARINA,161 Dockside Dr,DELTAVILLE,23043,119,MIDDLESEX,51,VA,37.33432,-76.19202,JOHN CROWN,8047769860,Active,,0,6,0,0,1,0,YES,YES,YES,NO,NO,YES,NO,YES,YES,NO,YES,NO,YES,NO,NO,INLAND,N/A,NO
163,,MILLSTONE LANDING (VAGIF RAMP),Millstone Landing Rd,WATERVIEW,,119,MIDDLESEX,51,VA,37.43591,-76.37316,,,Active,,0,10,0,0,1,10,NO,NO,YES,NO,YES,NO,NO,NO,YES,YES,NO,NO,NO,NO,NO,INLAND,BOTH,NO
169,,BUSH PARK CAMPGROUNDS,724 Bushy Park Rd,Wake,23176,119,MIDDLESEX,51,VA,37.33901,-76.236,MEL & GAIL NEWCOMB,8047766750,Active,,60,0,0,0,2,40,NO,YES,YES,YES,YES,NO,NO,YES,YES,YES,YES,YES,YES,YES,NO,INLAND,BEACH/BANK,YES
991,,FELGATE''S CREEK (BOTH BANKS),Colonial Parkway,YORKTOWN,23691,199,YORK,51,VA,37.16434,-76.35047,,,Active,,0,15,0,0,0,0,NO,NO,YES,NO,NO,NO,NO,NO,YES,NO,NO,NO,NO,NO,NO,INLAND,BEACH/BANK,NO
349,,GREAT BRIDGE LOCKS RAMP,Locks Rd.,CHESAPEAKE,,550,CITY OF CHESAPEAKE,51,VA,36.43525,-76.14818,,,Active,,0,25,0,0,1,30,NO,NO,YES,NO,NO,NO,NO,NO,YES,YES,NO,NO,NO,NO,NO,INLAND,MAN-MADE,NO
357,,ELIZABETH RIVER BOAT LNDG & PUB. DOC,,CHESAPEAKE,,550,CITY OF CHESAPEAKE,51,VA,36.48558,-76.17125,,,Active,,0,20,0,0,2,25,NO,NO,YES,NO,NO,NO,NO,NO,NO,YES,NO,NO,NO,NO,NO,INLAND,MAN-MADE,NO
65,,BELL ISLE MARINA,2 Bell Island Dr.,HAMPTON,23664,650,CITY OF HAMPTON,51,VA,37.5857,-76.1765,MARTY BELL,7578500466,Active,,40,20,0,0,0,0,NO,YES,YES,YES,NO,NO,NO,YES,YES,YES,NO,NO,YES,NO,NO,NA,N/A,NO
120,,BUCKROE BEACH FISHING PIER,330 South Resort Blvd.,HAMPTON,23664,650,CITY OF HAMPTON,51,VA,37.2189,-76.1768,Dan Mailloy,7277271486,Active,,0,55,0,0,0,0,NO,NO,YES,YES,YES,NO,NO,YES,YES,YES,NO,YES,NO,YES,YES,INLAND,MAN-MADE,YES
216,,DANDY HAVEN MARINA,374 Dandy Haven Rd.,HAMPTON,23664,650,CITY OF HAMPTON,51,VA,37.549,-76.17798,MRS. GURKIN,7578511573,Active,,73,20,0,0,0,0,YES,YES,YES,YES,NO,YES,NO,YES,YES,YES,NO,NO,YES,NO,NO,NA,N/A,NO
274,,FORT MONROE FISHING PIERS,130 Fenwick Rd.,HAMPTON,,650,CITY OF HAMPTON,51,VA,36.00073,-76.18447,,,Active,,0,25,0,0,0,0,NO,NO,YES,YES,NO,NO,NO,NO,YES,YES,NO,NO,NO,NO,NO,INLAND,MAN-MADE,NO
352,,GOSNOLD''S HOPE PARK PUBLIC RAMP,,HAMPTON,,650,CITY OF HAMPTON,51,VA,37.3542,-76.19659,,,Active,,0,20,0,0,2,15,NO,NO,YES,NO,YES,NO,NO,NO,NO,NO,NO,NO,NO,NO,NO,NA,N/A,NO
429,,BLUEWATER YACHTING CENTER,,HAMPTON,,650,CITY OF HAMPTON,51,VA,37.9615,-76.20632,Doug Lawson,7577158321,Active,,170,70,0,0,0,0,NO,NO,YES,YES,NO,YES,NO,YES,YES,YES,NO,YES,YES,YES,YES,NA,N/A,YES
472,,SUNSET CREEK BOAT RAMP,71 Marina Rd.,HAMPTON,,650,CITY OF HAMPTON,51,VA,37.972,-76.20771,,,Active,,0,15,0,0,2,35,NO,NO,YES,NO,NO,NO,NO,NO,YES,YES,NO,NO,NO,YES,NO,NA,N/A,NO
939,,OLD POINT COMFORT MARINA AT FT MONROE,207 McNair Rd.,HAMPTON,23651,650,CITY OF HAMPTON,51,VA,37.043,-76.18701,Jerry B.,7577884308,Active,,314,25,0,0,1,50,NO,NO,YES,NO,NO,YES,NO,YES,YES,YES,NO,NO,NO,YES,YES,NA,N/A,YES
940,,FORT MONROE BEACH,,HAMPTON,,650,CITY OF HAMPTON,51,VA,37.1168,-76.16894,,,Retired,,0,0,0,0,0,0,NO,NO,NO,NO,NO,NO,NO,NO,NO,NO,NO,NO,NO,NO,NO,INLAND,BEACH/BANK,NO
993,,SUNSET BOATING CENTER,800 S. Armistead Ave.,HAMPTON,23669,650,CITY OF HAMPTON,51,VA,37.1007,-76.2078,Tyler Richardson,7577223325,Active,,30,30,2,1,0,0,YES,YES,YES,YES,NO,YES,NO,YES,YES,YES,NO,NO,NO,YES,YES,NA,N/A,YES
994,,FOX HILL LANDING,365 Dandy Pt. Rd.,HAMPTON,23664,650,CITY OF HAMPTON,51,VA,37.5859,-76.17645,,,Active,,12,5,0,0,4,87,NO,NO,YES,NO,NO,NO,NO,NO,YES,YES,NO,YES,NO,NO,YES,NA,N/A,YES
1200,,SALT PONDS MARINA,11 Ivory Gull Cres.,HAMPTON,23664,650,CITY OF HAMPTON,51,VA,37.3406,-76.17226,CINDY HAWKINS,7578504300,Active,,254,80,1,0,0,0,NO,NO,YES,YES,NO,YES,NO,YES,YES,YES,NO,NO,YES,YES,NO,NA,N/A,NO
1486,,HAMPTON MUNICPAL DOCKS,710 Settlers Landing Rd.,HAMPTON,23669,650,CITY OF HAMPTON,51,VA,37.1467,-76.20558,Kate Lawrence,7577271267,Active,,35,25,0,1,0,0,NO,NO,YES,NO,NO,NO,YES,NO,YES,YES,YES,NO,YES,YES,NO,NA,N/A,NO
3059,,MARINA COVE BOAT BASIN,600 Harris Creek Rd.,HAMPTON,23661,650,CITY OF HAMPTON,51,VA,37.5587,-76.18808,Erling Engelsen,7578971400,Retired,,60,35,0,0,0,0,YES,YES,YES,NO,NO,NO,NO,YES,NO,YES,NO,NO,YES,NO,NO,NA,N/A,NO
3144,,AMORY''S SEAFOOD DOCK/ HOGGE''S CHARTER,101 S. King St.,HAMPTON,23665,650,CITY OF HAMPTON,51,VA,37.1416,-76.20603,Meade Amory,7577221915,Active,,0,0,1,0,0,0,NO,NO,YES,NO,NO,NO,NO,NO,YES,YES,NO,NO,YES,NO,NO,NA,N/A,NO
245,,DENBIGH BLVD RAMP & PIER,4 Denbigh Blvd.,NEWPORT NEWS,,700,CITY OF NEWPORT NEWS,51,VA,37.7415,-76.34102,,7579261400,Active,,0,12,0,0,1,38,NO,NO,YES,NO,YES,NO,NO,NO,YES,YES,NO,NO,NO,NO,NO,INLAND,MAN-MADE,NO
271,,NEWPORT NEWS PUBLIC RAMP,Riverpark Rd,NEWPORT NEWS,23607,700,CITY OF NEWPORT NEWS,51,VA,37.1008,-76.27337,,7579261400,Active,,0,40,0,0,4,87,NO,NO,YES,NO,NO,NO,NO,NO,YES,YES,NO,NO,NO,YES,NO,NA,N/A,NO
295,,LEEWARD MARINA,7499 River Rd,NEWPORT NEWS,23607,700,CITY OF NEWPORT NEWS,51,VA,37.763,-76.27174,STEVE HENSLEY,7572472359,Active,,194,15,0,0,0,0,NO,NO,YES,YES,NO,YES,NO,NO,YES,YES,NO,NO,YES,NO,NO,NA,N/A,NO
3978,,Deep Creek Landing Marina,200 Old Marina Lane,Newport News,23602,700,CITY OF NEWPORT NEWS,51,VA,37.0589,-76.31246,Mary Evans,7578779555,Active,,82,45,0,0,0,0,YES,YES,YES,YES,NO,YES,NO,NO,YES,YES,NO,YES,YES,NO,NO,NA,N/A,YES
3979,,King-Lincoln Park and Wavescreen Piers,600 Jefferson Avenue,Newport News,,700,CITY OF NEWPORT NEWS,51,VA,36.57886,-76.24647,,,Retired,,0,20,0,0,0,0,NO,NO,YES,NO,YES,NO,NO,NO,NO,YES,NO,NO,NO,NO,NO,INLAND,MAN-MADE,NO
3980,,Anderson Park Pier,"16th Street, Oak Avenue",Newport News,23607,700,CITY OF NEWPORT NEWS,51,VA,36.58959,-76.23775,,,Retired,,0,20,0,0,0,0,NO,NO,YES,NO,YES,NO,NO,NO,NO,YES,NO,NO,NO,NO,NO,INLAND,MAN-MADE,NO
3981,,Peterson's Public Boat Ramp,,Newport News,,700,CITY OF NEWPORT NEWS,51,VA,36.5901,-76.23503,,,Retired,,0,20,0,0,2,30,NO,NO,NO,NO,YES,NO,NO,NO,NO,NO,NO,NO,NO,NO,NO,NA,N/A,NO
3982,,Top Rack Marina,5532 Bainbridge Blvd.,Chesapeake,,550,CITY OF CHESAPEAKE,51,VA,36.44377,-76.17763,,,Active,,20,20,0,0,0,0,YES,YES,YES,NO,NO,YES,NO,NO,YES,YES,NO,NO,YES,YES,YES,NA,N/A,YES
3983,,York River Yacht Haven,8109 Yacht Haven Road,Gloucester Point,23062,73,GLOUCESTER,51,VA,37.1543,-76.28822,Martin Lucas,8046422156,Active,,306,50,0,0,0,0,YES,NO,YES,NO,NO,YES,NO,NO,YES,YES,NO,NO,YES,YES,NO,NA,N/A,NO
3984,,Kingsmill Resort Marina,1010 Kingsmill Rd.,Williamsburg,23185,95,JAMES CITY,51,VA,37.13394,-76.39785,David Martin,7572533919,Active,,100,100,0,0,0,0,NO,NO,YES,YES,NO,YES,NO,NO,YES,YES,YES,NO,YES,YES,YES,INLAND,MAN-MADE,YES
3985,,Joy's Marina,424 East Queen Street,Hampton,23669,650,CITY OF HAMPTON,51,VA,37.1473,-76.20319,,,Retired,,40,15,0,0,0,0,NO,NO,YES,NO,NO,YES,NO,NO,YES,YES,YES,NO,YES,NO,NO,NA,N/A,NO
4095,,Fishing Bay Harbor Marina,519 Deagles Road,Deltaville,23043,119,MIDDLESEX,51,VA,37.32476,-76.20476,Chris Davis,8047766800,Active,,131,100,0,0,0,0,NO,YES,NO,YES,NO,YES,NO,YES,NO,NO,NO,NO,NO,NO,NO,NA,N/A,NO