{"type":"FeatureCollection","features":[{"type":"Feature","geometry":{"type":"Point","coordinates":[-76.7586,36.8156]},"properties":{"name":"ON US HWY 460, .5 MI. NW OF INT. OF HWY 460 & CR 258.","styleUrl":"#towerStyle","styleHash":"1d01e409","county":"Isle of Wight County","lat":36.8156,"lng":-76.7586,"structure_type":null,"structure_name":null,"structure_address":"ON US HWY 460, .5 MI. NW OF INT. OF HWY 460 & CR 258.","height":97.2,"base_elevation":25.367994,"structure_owner_name":"NORFOLK SOUTHERN CORP.","structure_manager_name":null,"data_source":"FCC: Antenna Structure Registration (GIS)"}},{"type":"Feature","geometry":{"type":"Point","coordinates":[-76.590399,36.9791]},"properties":{"name":"GREENBRIAR LANE","styleUrl":"#towerStyle","styleHash":"1d01e409","county":"Isle of Wight County","lat":36.9791,"lng":-76.590399,"structure_type":null,"structure_name":null,"structure_address":"GREENBRIAR LANE","height":76.2,"base_elevation":7.505094,"structure_owner_name":"Pinnacle Towers LLC","structure_manager_name":null,"data_source":"FCC: Antenna Structure Registration (GIS)"}},{"type":"Feature","geometry":{"type":"Point","coordinates":[-76.5831,36.8967]},"properties":{"name":"20043 Spring Lake Drive","styleUrl":"#towerStyle","styleHash":"1d01e409","county":"Isle of Wight County","lat":36.8967,"lng":-76.5831,"structure_type":null,"structure_name":null,"structure_address":"20043 Spring Lake Drive","height":67.1,"base_elevation":16.271791,"structure_owner_name":"CROWN ATLANTIC COMPANY, LLC","structure_manager_name":null,"data_source":"FCC: Antenna Structure Registration (GIS)"}},{"type":"Feature","geometry":{"type":"Point","coordinates":[-76.5574,36.9579]},"properties":{"name":"13068 Nike Park RD,  Carrollton, VA, 23314-3906","styleUrl":"#towerStyle","styleHash":"1d01e409","county":"Isle of Wight County","lat":36.9579,"lng":-76.5574,"structure_type":null,"structure_name":null,"structure_address":"13068 Nike Park RD,  Carrollton, VA, 23314-3906","height":91.1,"base_elevation":6.719246,"structure_owner_name":"US Coast Guard Navigation Center","structure_manager_name":null,"data_source":"FCC: Antenna Structure Registration (GIS)"}},{"type":"Feature","geometry":{"type":"Point","coordinates":[-76.533099,36.9439]},"properties":{"name":"TWR 4 - SR 662 0.3 MILES NE OF HWY 17","styleUrl":"#towerStyle","styleHash":"1d01e409","county":"Isle of Wight County","lat":36.9439,"lng":-76.533099,"structure_type":null,"structure_name":null,"structure_address":"TWR 4 - SR 662 0.3 MILES NE OF HWY 17","height":68,"base_elevation":6.805828,"structure_owner_name":"Word Broadcasting Network, Inc.","structure_manager_name":null,"data_source":"FCC: Antenna Structure Registration (GIS)"}},{"type":"Feature","geometry":{"type":"Point","coordinates":[-76.5322,36.9433]},"properties":{"name":"TWR 3 - SR 662 0.3 MILES NE OF HWY 17","styleUrl":"#towerStyle","styleHash":"1d01e409","county":"Isle of Wight County","lat":36.9433,"lng":-76.5322,"structure_type":null,"structure_name":null,"structure_address":"TWR 3 - SR 662 0.3 MILES NE OF HWY 17","height":68,"base_elevation":6.545733,"structure_owner_name":"Word Broadcasting Network, Inc.","structure_manager_name":null,"data_source":"FCC: Antenna Structure Registration (GIS)"}},{"type":"Feature","geometry":{"type":"Point","coordinates":[-76.5317,36.9428]},"properties":{"name":"TWR 2 - SR 662 0.3 MILES NE OF HWY 17","styleUrl":"#towerStyle","styleHash":"1d01e409","county":"Isle of Wight County","lat":36.9428,"lng":-76.5317,"structure_type":null,"structure_name":null,"structure_address":"TWR 2 - SR 662 0.3 MILES NE OF HWY 17","height":68,"base_elevation":6.673603,"structure_owner_name":"Word Broadcasting Network, Inc.","structure_manager_name":null,"data_source":"FCC: Antenna Structure Registration (GIS)"}},{"type":"Feature","geometry":{"type":"Point","coordinates":[-76.5308,36.9422]},"properties":{"name":"TWR 1 - SR 662 0.3 MILES NE OF HWY 17","styleUrl":"#towerStyle","styleHash":"1d01e409","county":"Isle of Wight County","lat":36.9422,"lng":-76.5308,"structure_type":null,"structure_name":null,"structure_address":"TWR 1 - SR 662 0.3 MILES NE OF HWY 17","height":68,"base_elevation":6.681957,"structure_owner_name":"Word Broadcasting Network, Inc.","structure_manager_name":null,"data_source":"FCC: Antenna Structure Registration (GIS)"}},{"type":"Feature","geometry":{"type":"Point","coordinates":[-76.6928,36.8164]},"properties":{"name":"WEST SIDE OF SHILOH DRIVE","styleUrl":"#towerStyle","styleHash":"1d01e409","county":"Isle of Wight County","lat":36.8164,"lng":-76.6928,"structure_type":null,"structure_name":null,"structure_address":"WEST SIDE OF SHILOH DRIVE","height":100.6,"base_elevation":15.871533,"structure_owner_name":"SIGNAL TOWERS LLC","structure_manager_name":null,"data_source":"FCC: Antenna Structure Registration (GIS)"}},{"type":"Feature","geometry":{"type":"Point","coordinates":[-76.7549,36.8026]},"properties":{"name":"24409 WALTERS HIGHWAY","styleUrl":"#towerStyle","styleHash":"1d01e409","county":"Isle of Wight County","lat":36.8026,"lng":-76.7549,"structure_type":null,"structure_name":null,"structure_address":"24409 WALTERS HIGHWAY","height":305.6,"base_elevation":25.760551,"structure_owner_name":"Tidewater Communications, LLC","structure_manager_name":null,"data_source":"FCC: Antenna Structure Registration (GIS)"}},{"type":"Feature","geometry":{"type":"Point","coordinates":[-76.6028,37.0081]},"properties":{"name":"1 Monette Parkway","styleUrl":"#towerStyle","styleHash":"1d01e409","county":"Isle of Wight County","lat":37.0081,"lng":-76.6028,"structure_type":null,"structure_name":null,"structure_address":"1 Monette Parkway","height":59.4,"base_elevation":7.630481,"structure_owner_name":"ATG Investments, LLP","structure_manager_name":null,"data_source":"FCC: Antenna Structure Registration (GIS)"}},{"type":"Feature","geometry":{"type":"Point","coordinates":[-76.6714,37.098299]},"properties":{"name":"TWR 4  1 MI N INT OF SR 676 AND SR 628","styleUrl":"#towerStyle","styleHash":"1d01e409","county":"Isle of Wight County","lat":37.098299,"lng":-76.6714,"structure_type":null,"structure_name":null,"structure_address":"TWR 4  1 MI N INT OF SR 676 AND SR 628","height":93.1,"base_elevation":7.417854,"structure_owner_name":"WKGM INC","structure_manager_name":null,"data_source":"FCC: Antenna Structure Registration (GIS)"}},{"type":"Feature","geometry":{"type":"Point","coordinates":[-76.6297,36.9547]},"properties":{"name":"13379 GREAT SPRING RD","styleUrl":"#towerStyle","styleHash":"1d01e409","county":"Isle of Wight County","lat":36.9547,"lng":-76.6297,"structure_type":null,"structure_name":null,"structure_address":"13379 GREAT SPRING RD","height":150.3,"base_elevation":10.032674,"structure_owner_name":"WKGM INC","structure_manager_name":null,"data_source":"FCC: Antenna Structure Registration (GIS)"}},{"type":"Feature","geometry":{"type":"Point","coordinates":[-76.5531,36.945699]},"properties":{"name":".5 MI E","styleUrl":"#towerStyle","styleHash":"1d01e409","county":"Isle of Wight County","lat":36.945699,"lng":-76.5531,"structure_type":null,"structure_name":null,"structure_address":".5 MI E","height":83.8,"base_elevation":5.799854,"structure_owner_name":"SBA Structures, Inc.","structure_manager_name":null,"data_source":"FCC: Antenna Structure Registration (GIS)"}},{"type":"Feature","geometry":{"type":"Point","coordinates":[-76.5967,36.936699]},"properties":{"name":"3000' WSW OF SR 258 & 10","styleUrl":"#towerStyle","styleHash":"1d01e409","county":"Isle of Wight County","lat":36.936699,"lng":-76.5967,"structure_type":null,"structure_name":null,"structure_address":"3000' WSW OF SR 258 & 10","height":103.6,"base_elevation":12.07086,"structure_owner_name":"Alltel Communications of Petersburg, Inc.","structure_manager_name":null,"data_source":"FCC: Antenna Structure Registration (GIS)"}},{"type":"Feature","geometry":{"type":"Point","coordinates":[-76.5938,36.9507]},"properties":{"name":"14005 BENNS CHURCH BLVD","styleUrl":"#towerStyle","styleHash":"1d01e409","county":"Isle of Wight County","lat":36.9507,"lng":-76.5938,"structure_type":null,"structure_name":null,"structure_address":"14005 BENNS CHURCH BLVD","height":56.3,"base_elevation":8.4244,"structure_owner_name":"CROWN CASTLE GT COMPANY LLC","structure_manager_name":null,"data_source":"FCC: Antenna Structure Registration (GIS)"}},{"type":"Feature","geometry":{"type":"Point","coordinates":[-76.7264,36.8025]},"properties":{"name":"11480 WINDSOR BLVD","styleUrl":"#towerStyle","styleHash":"1d01e409","county":"Isle of Wight County","lat":36.8025,"lng":-76.7264,"structure_type":null,"structure_name":null,"structure_address":"11480 WINDSOR BLVD","height":76.2,"base_elevation":18.749961,"structure_owner_name":"RUSBULDT, R WAYNE:RUSBULDT, RUTH A","structure_manager_name":null,"data_source":"FCC: Antenna Structure Registration (GIS)"}},{"type":"Feature","geometry":{"type":"Point","coordinates":[-76.884899,36.6958]},"properties":{"name":"2365 Carrsville Hwy","styleUrl":"#towerStyle","styleHash":"1d01e409","county":"Isle of Wight County","lat":36.6958,"lng":-76.884899,"structure_type":null,"structure_name":null,"structure_address":"2365 Carrsville Hwy","height":18.2,"base_elevation":8.996747,"structure_owner_name":"CROSSROADS FUEL SERVICE INC","structure_manager_name":null,"data_source":"FCC: Antenna Structure Registration (GIS)"}},{"type":"Feature","geometry":{"type":"Point","coordinates":[-76.8383,36.7119]},"properties":{"name":"5100 Block Carrsville Hwy (Hwy. 58)","styleUrl":"#towerStyle","styleHash":"1d01e409","county":"Isle of Wight County","lat":36.7119,"lng":-76.8383,"structure_type":null,"structure_name":null,"structure_address":"5100 Block Carrsville Hwy (Hwy. 58)","height":43.3,"base_elevation":17.74933,"structure_owner_name":"CROWN COMMUNICATION LLC","structure_manager_name":null,"data_source":"FCC: Antenna Structure Registration (GIS)"}},{"type":"Feature","geometry":{"type":"Point","coordinates":[-76.8929,36.6911]},"properties":{"name":"CARVER ROAD","styleUrl":"#towerStyle","styleHash":"1d01e409","county":"Isle of Wight County","lat":36.6911,"lng":-76.8929,"structure_type":null,"structure_name":null,"structure_address":"CARVER ROAD","height":49.4,"base_elevation":9.475867,"structure_owner_name":"CROWN COMMUNICATION LLC","structure_manager_name":null,"data_source":"FCC: Antenna Structure Registration (GIS)"}},{"type":"Feature","geometry":{"type":"Point","coordinates":[-76.908,36.6807]},"properties":{"name":"RR & UNION CAMP CORP TRAFFIC B","styleUrl":"#towerStyle","styleHash":"1d01e409","county":"Isle of Wight County","lat":36.6807,"lng":-76.908,"structure_type":null,"structure_name":null,"structure_address":"RR & UNION CAMP CORP TRAFFIC B","height":12,"base_elevation":9.634722,"structure_owner_name":"CSX Transportation Inc.","structure_manager_name":null,"data_source":"FCC: Antenna Structure Registration (GIS)"}},{"type":"Feature","geometry":{"type":"Point","coordinates":[-76.5453,36.9686]},"properties":{"name":"Old Macklesfield Road","styleUrl":"#towerStyle","styleHash":"1d01e409","county":"Isle of Wight County","lat":36.9686,"lng":-76.5453,"structure_type":null,"structure_name":null,"structure_address":"Old Macklesfield Road","height":60.5,"base_elevation":6.015241,"structure_owner_name":"Florida Tower Partners, LLC","structure_manager_name":null,"data_source":"FCC: Antenna Structure Registration (GIS)"}},{"type":"Feature","geometry":{"type":"Point","coordinates":[-76.7503,36.9178]},"properties":{"name":"IN CITY","styleUrl":"#towerStyle","styleHash":"1d01e409","county":"Isle of Wight County","lat":36.9178,"lng":-76.7503,"structure_type":null,"structure_name":null,"structure_address":"IN CITY","height":91.4,"base_elevation":25.814987,"structure_owner_name":"AREAWIDE COMMUNICATIONS INC.","structure_manager_name":null,"data_source":"FCC: Antenna Structure Registration (GIS)"}},{"type":"Feature","geometry":{"type":"Point","coordinates":[-76.8069,36.7858]},"properties":{"name":"26531 Walters Hwy      ( 028205 )","styleUrl":"#towerStyle","styleHash":"1d01e409","county":"Isle of Wight County","lat":36.7858,"lng":-76.8069,"structure_type":null,"structure_name":null,"structure_address":"26531 Walters Hwy      ( 028205 )","height":76.5,"base_elevation":15.165778,"structure_owner_name":"American Towers, LLC.","structure_manager_name":null,"data_source":"FCC: Antenna Structure Registration (GIS)"}},{"type":"Feature","geometry":{"type":"Point","coordinates":[-76.8555,36.753199]},"properties":{"name":"4163 COUNTY LANE WINDSOR (010098)","styleUrl":"#towerStyle","styleHash":"1d01e409","county":"Isle of Wight County","lat":36.753199,"lng":-76.8555,"structure_type":null,"structure_name":null,"structure_address":"4163 COUNTY LANE WINDSOR (010098)","height":91.4,"base_elevation":23.480091,"structure_owner_name":"American Towers, LLC.","structure_manager_name":null,"data_source":"FCC: Antenna Structure Registration (GIS)"}},{"type":"Feature","geometry":{"type":"Point","coordinates":[-76.6075,36.8881]},"properties":{"name":"SUFFOLK  SR","styleUrl":"#towerStyle","styleHash":"1d01e409","county":"Isle of Wight County","lat":36.8881,"lng":-76.6075,"structure_type":null,"structure_name":null,"structure_address":"SUFFOLK  SR","height":68.3,"base_elevation":22.321212,"structure_owner_name":"American Towers, LLC.","structure_manager_name":null,"data_source":"FCC: Antenna Structure Registration (GIS)"}},{"type":"Feature","geometry":{"type":"Point","coordinates":[-76.8174,36.8582]},"properties":{"name":"RT 460","styleUrl":"#towerStyle","styleHash":"1d01e409","county":"Isle of Wight County","lat":36.8582,"lng":-76.8174,"structure_type":null,"structure_name":null,"structure_address":"RT 460","height":86.8,"base_elevation":17.338352,"structure_owner_name":"CROWN CASTLE GT COMPANY LLC","structure_manager_name":null,"data_source":"FCC: Antenna Structure Registration (GIS)"}},{"type":"Feature","geometry":{"type":"Point","coordinates":[-76.689,37.058899]},"properties":{"name":"TWR 6  1.3 KM WEST OF ROUTE # 10","styleUrl":"#towerStyle","styleHash":"1d01e409","county":"Isle of Wight County","lat":37.058899,"lng":-76.689,"structure_type":null,"structure_name":null,"structure_address":"TWR 6  1.3 KM WEST OF ROUTE # 10","height":83.5,"base_elevation":23.148517,"structure_owner_name":"SINCLAIR TELECABLE, INC.","structure_manager_name":null,"data_source":"FCC: Antenna Structure Registration (GIS)"}},{"type":"Feature","geometry":{"type":"Point","coordinates":[-76.689899,37.0592]},"properties":{"name":"TWR 5  1.3 KM WEST OF ROUTE # 10","styleUrl":"#towerStyle","styleHash":"1d01e409","county":"Isle of Wight County","lat":37.0592,"lng":-76.689899,"structure_type":null,"structure_name":null,"structure_address":"TWR 5  1.3 KM WEST OF ROUTE # 10","height":84.4,"base_elevation":21.174077,"structure_owner_name":"SINCLAIR TELECABLE, INC.","structure_manager_name":null,"data_source":"FCC: Antenna Structure Registration (GIS)"}},{"type":"Feature","geometry":{"type":"Point","coordinates":[-76.6908,37.059399]},"properties":{"name":"TWR 4  1.3 KM  WEST OF ROUTE # 10","styleUrl":"#towerStyle","styleHash":"1d01e409","county":"Isle of Wight County","lat":37.059399,"lng":-76.6908,"structure_type":null,"structure_name":null,"structure_address":"TWR 4  1.3 KM  WEST OF ROUTE # 10","height":84.1,"base_elevation":20.576061,"structure_owner_name":"SINCLAIR TELECABLE, INC.","structure_manager_name":null,"data_source":"FCC: Antenna Structure Registration (GIS)"}},{"type":"Feature","geometry":{"type":"Point","coordinates":[-76.6887,37.0606]},"properties":{"name":"TWR 3  1.3 KM WEST OF ROUTE # 10","styleUrl":"#towerStyle","styleHash":"1d01e409","county":"Isle of Wight County","lat":37.0606,"lng":-76.6887,"structure_type":null,"structure_name":null,"structure_address":"TWR 3  1.3 KM WEST OF ROUTE # 10","height":83.8,"base_elevation":20.933559,"structure_owner_name":"SINCLAIR TELECABLE, INC.","structure_manager_name":null,"data_source":"FCC: Antenna Structure Registration (GIS)"}},{"type":"Feature","geometry":{"type":"Point","coordinates":[-76.689599,37.0609]},"properties":{"name":"TWR 2  1.3 KM WEST OF ROUTE # 10","styleUrl":"#towerStyle","styleHash":"1d01e409","county":"Isle of Wight County","lat":37.0609,"lng":-76.689599,"structure_type":null,"structure_name":null,"structure_address":"TWR 2  1.3 KM WEST OF ROUTE # 10","height":84.2,"base_elevation":20.617778,"structure_owner_name":"SINCLAIR TELECABLE, INC.","structure_manager_name":null,"data_source":"FCC: Antenna Structure Registration (GIS)"}},{"type":"Feature","geometry":{"type":"Point","coordinates":[-76.6906,37.0612]},"properties":{"name":"TWR 1  1.3 KM WEST OF ROUTE # 10","styleUrl":"#towerStyle","styleHash":"1d01e409","county":"Isle of Wight County","lat":37.0612,"lng":-76.6906,"structure_type":null,"structure_name":null,"structure_address":"TWR 1  1.3 KM WEST OF ROUTE # 10","height":83.8,"base_elevation":20.152105,"structure_owner_name":"SINCLAIR TELECABLE, INC.","structure_manager_name":null,"data_source":"FCC: Antenna Structure Registration (GIS)"}},{"type":"Feature","geometry":{"type":"Point","coordinates":[-76.7497,36.8149]},"properties":{"name":"52 W. Windsor Blvd.","styleUrl":"#towerStyle","styleHash":"1d01e409","county":"Isle of Wight County","lat":36.8149,"lng":-76.7497,"structure_type":null,"structure_name":null,"structure_address":"52 W. Windsor Blvd.","height":76.2,"base_elevation":22.664361,"structure_owner_name":"Community Electric Cooperative","structure_manager_name":null,"data_source":"FCC: Antenna Structure Registration (GIS)"}},{"type":"Feature","geometry":{"type":"Point","coordinates":[-76.7036,36.9089]},"properties":{"name":"13036 Poor House Road (015360)","styleUrl":"#towerStyle","styleHash":"1d01e409","county":"Isle of Wight County","lat":36.9089,"lng":-76.7036,"structure_type":null,"structure_name":null,"structure_address":"13036 Poor House Road (015360)","height":122.5,"base_elevation":23.849569,"structure_owner_name":"American Towers, LLC.","structure_manager_name":null,"data_source":"FCC: Antenna Structure Registration (GIS)"}},{"type":"Feature","geometry":{"type":"Point","coordinates":[-76.7614,36.8264]},"properties":{"name":"12300 DOMINION WAY","styleUrl":"#towerStyle","styleHash":"1d01e409","county":"Isle of Wight County","lat":36.8264,"lng":-76.7614,"structure_type":"BANT","structure_name":null,"structure_address":"12300 DOMINION WAY","height":13.7,"base_elevation":25.004236,"structure_owner_name":"COST PLUS WORLD MARKET","structure_manager_name":null,"data_source":"FCC: Land Mobile - Private (GIS)"}},{"type":"Feature","geometry":{"type":"Point","coordinates":[-76.910799,36.6783]},"properties":{"name":"34040 UNION CAMP DRIVE","styleUrl":"#towerStyle","styleHash":"1d01e409","county":"Isle of Wight County","lat":36.6783,"lng":-76.910799,"structure_type":"BANT","structure_name":null,"structure_address":"34040 UNION CAMP DRIVE","height":97.5,"base_elevation":8.934469,"structure_owner_name":"METAL TECH OF MURFREESBORO","structure_manager_name":null,"data_source":"FCC: Land Mobile - Private (GIS)"}},{"type":"Feature","geometry":{"type":"Point","coordinates":[-76.9019,36.6722]},"properties":{"name":"Vertical Asset","styleUrl":"#towerStyle","styleHash":"1d01e409","county":"Isle of Wight County","lat":36.6722,"lng":-76.9019,"structure_type":null,"structure_name":null,"structure_address":null,"height":0,"base_elevation":5.729029,"structure_owner_name":"International Paper Wood Products","structure_manager_name":null,"data_source":"FCC: Land Mobile - Private (GIS)"}},{"type":"Feature","geometry":{"type":"Point","coordinates":[-76.9019,36.6722]},"properties":{"name":"476 Carrsville Hwy","styleUrl":"#towerStyle","styleHash":"1d01e409","county":"Isle of Wight County","lat":36.6722,"lng":-76.9019,"structure_type":"BANT","structure_name":null,"structure_address":"476 Carrsville Hwy","height":45.5,"base_elevation":5.729029,"structure_owner_name":"International Paper Wood Products","structure_manager_name":null,"data_source":"FCC: Land Mobile - Private (GIS)"}},{"type":"Feature","geometry":{"type":"Point","coordinates":[-76.9167,36.6847]},"properties":{"name":"33320 North Lynn Rd","styleUrl":"#towerStyle","styleHash":"1d01e409","county":"Isle of Wight County","lat":36.6847,"lng":-76.9167,"structure_type":"B","structure_name":null,"structure_address":"33320 North Lynn Rd","height":27,"base_elevation":4.261516,"structure_owner_name":"ATC Panels Inc","structure_manager_name":null,"data_source":"FCC: Land Mobile - Private (GIS)"}},{"type":"Feature","geometry":{"type":"Point","coordinates":[-76.8553,36.7531]},"properties":{"name":"4163 COUNTY LANE WINDSOR","styleUrl":"#towerStyle","styleHash":"1d01e409","county":"Isle of Wight County","lat":36.7531,"lng":-76.8553,"structure_type":"TOWER","structure_name":null,"structure_address":"4163 COUNTY LANE WINDSOR","height":92,"base_elevation":23.743978,"structure_owner_name":"ISLE OF WIGHT, COUNTY OF","structure_manager_name":null,"data_source":"FCC: Land Mobile - Private (GIS)"}},{"type":"Feature","geometry":{"type":"Point","coordinates":[-76.7036,36.9089]},"properties":{"name":"LONGVIEW DRIVE","styleUrl":"#towerStyle","styleHash":"1d01e409","county":"Isle of Wight County","lat":36.9089,"lng":-76.7036,"structure_type":"TOWER","structure_name":null,"structure_address":"LONGVIEW DRIVE","height":128,"base_elevation":23.849569,"structure_owner_name":"ISLE OF WIGHT, COUNTY OF","structure_manager_name":null,"data_source":"FCC: Land Mobile - Private (GIS)"}},{"type":"Feature","geometry":{"type":"Point","coordinates":[-76.6028,37.0081]},"properties":{"name":"1 MONETTE PARKWAY","styleUrl":"#towerStyle","styleHash":"1d01e409","county":"Isle of Wight County","lat":37.0081,"lng":-76.6028,"structure_type":"TOWER","structure_name":null,"structure_address":"1 MONETTE PARKWAY","height":60.7,"base_elevation":7.630481,"structure_owner_name":"ISLE OF WIGHT, COUNTY OF","structure_manager_name":null,"data_source":"FCC: Land Mobile - Private (GIS)"}},{"type":"Feature","geometry":{"type":"Point","coordinates":[-76.8983,36.6708]},"properties":{"name":"Vertical Asset","styleUrl":"#towerStyle","styleHash":"1d01e409","county":"Isle of Wight County","lat":36.6708,"lng":-76.8983,"structure_type":null,"structure_name":null,"structure_address":null,"height":0,"base_elevation":6.044156,"structure_owner_name":"INTERNATIONAL PAPER","structure_manager_name":null,"data_source":"FCC: Land Mobile - Private (GIS)"}},{"type":"Feature","geometry":{"type":"Point","coordinates":[-76.9019,36.6722]},"properties":{"name":"HWY 58 BLDG PRODUCTS OFC","styleUrl":"#towerStyle","styleHash":"1d01e409","county":"Isle of Wight County","lat":36.6722,"lng":-76.9019,"structure_type":"B","structure_name":null,"structure_address":"HWY 58 BLDG PRODUCTS OFC","height":15,"base_elevation":5.729029,"structure_owner_name":"INTERNATIONAL PAPER","structure_manager_name":null,"data_source":"FCC: Land Mobile - Private (GIS)"}},{"type":"Feature","geometry":{"type":"Point","coordinates":[-76.9125,36.678899]},"properties":{"name":"COUNCIL RD","styleUrl":"#towerStyle","styleHash":"1d01e409","county":"Isle of Wight County","lat":36.678899,"lng":-76.9125,"structure_type":"BMAST","structure_name":null,"structure_address":"COUNCIL RD","height":88,"base_elevation":7.355614,"structure_owner_name":"INTERNATIONAL PAPER","structure_manager_name":null,"data_source":"FCC: Land Mobile - Private (GIS)"}},{"type":"Feature","geometry":{"type":"Point","coordinates":[-76.9078,36.6806]},"properties":{"name":"RR & UNION CAMP CORP TRAFFIC B","styleUrl":"#towerStyle","styleHash":"1d01e409","county":"Isle of Wight County","lat":36.6806,"lng":-76.9078,"structure_type":"POLE","structure_name":null,"structure_address":"RR & UNION CAMP CORP TRAFFIC B","height":13.7,"base_elevation":9.495141,"structure_owner_name":"INTERNATIONAL PAPER","structure_manager_name":null,"data_source":"FCC: Land Mobile - Private (GIS)"}},{"type":"Feature","geometry":{"type":"Point","coordinates":[-76.9025,36.6869]},"properties":{"name":"33124 Lees Mill Rd","styleUrl":"#towerStyle","styleHash":"1d01e409","county":"Isle of Wight County","lat":36.6869,"lng":-76.9025,"structure_type":"BANT","structure_name":null,"structure_address":"33124 Lees Mill Rd","height":9.1,"base_elevation":8.569898,"structure_owner_name":"Franklin Transportation Corporation","structure_manager_name":null,"data_source":"FCC: Land Mobile - Private (GIS)"}},{"type":"Feature","geometry":{"type":"Point","coordinates":[-76.8336,36.8336]},"properties":{"name":"Vertical Asset","styleUrl":"#towerStyle","styleHash":"1d01e409","county":"Isle of Wight County","lat":36.8336,"lng":-76.8336,"structure_type":null,"structure_name":null,"structure_address":null,"height":0,"base_elevation":22.31393,"structure_owner_name":"FCI 900, Inc.","structure_manager_name":null,"data_source":"FCC: Land Mobile - Private (GIS)"}},{"type":"Feature","geometry":{"type":"Point","coordinates":[-76.7089,36.9094]},"properties":{"name":"17106 MONUMENT CIRCLE, STE A","styleUrl":"#towerStyle","styleHash":"1d01e409","county":"Isle of Wight County","lat":36.9094,"lng":-76.7089,"structure_type":"PIPE","structure_name":null,"structure_address":"17106 MONUMENT CIRCLE, STE A","height":6,"base_elevation":19.05577,"structure_owner_name":"Virginia Department of Forestry","structure_manager_name":null,"data_source":"FCC: Land Mobile - Private (GIS)"}},{"type":"Feature","geometry":{"type":"Point","coordinates":[-76.630499,36.9922]},"properties":{"name":"Vertical Asset","styleUrl":"#towerStyle","styleHash":"1d01e409","county":"Isle of Wight County","lat":36.9922,"lng":-76.630499,"structure_type":null,"structure_name":null,"structure_address":null,"height":0,"base_elevation":11.05272,"structure_owner_name":"Smithfield Packing Co. Inc.","structure_manager_name":null,"data_source":"FCC: Land Mobile - Private (GIS)"}},{"type":"Feature","geometry":{"type":"Point","coordinates":[-76.630499,36.9922]},"properties":{"name":"Hwy 10","styleUrl":"#towerStyle","styleHash":"1d01e409","county":"Isle of Wight County","lat":36.9922,"lng":-76.630499,"structure_type":"BPIPE","structure_name":null,"structure_address":"Hwy 10","height":18,"base_elevation":11.05272,"structure_owner_name":"Smithfield Packing Co. Inc.","structure_manager_name":null,"data_source":"FCC: Land Mobile - Private (GIS)"}},{"type":"Feature","geometry":{"type":"Point","coordinates":[-76.611099,36.9236]},"properties":{"name":"Vertical Asset","styleUrl":"#towerStyle","styleHash":"1d01e409","county":"Isle of Wight County","lat":36.9236,"lng":-76.611099,"structure_type":null,"structure_name":null,"structure_address":null,"height":0,"base_elevation":15.601118,"structure_owner_name":"LINTHICUM, TIM A","structure_manager_name":null,"data_source":"FCC: Land Mobile - Private (GIS)"}},{"type":"Feature","geometry":{"type":"Point","coordinates":[-76.7033,36.9086]},"properties":{"name":"LONGVIEW DRIVE (015360)","styleUrl":"#towerStyle","styleHash":"1d01e409","county":"Isle of Wight County","lat":36.9086,"lng":-76.7033,"structure_type":"TOWER","structure_name":null,"structure_address":"LONGVIEW DRIVE (015360)","height":128,"base_elevation":24.059011,"structure_owner_name":"ISLE OF WIGHT, COUNTY OF","structure_manager_name":null,"data_source":"FCC: Land Mobile - Private (GIS)"}},{"type":"Feature","geometry":{"type":"Point","coordinates":[-76.9167,36.6847]},"properties":{"name":"33322 N. Lynn Rd","styleUrl":"#towerStyle","styleHash":"1d01e409","county":"Isle of Wight County","lat":36.6847,"lng":-76.9167,"structure_type":"BPIPE","structure_name":null,"structure_address":"33322 N. Lynn Rd","height":27,"base_elevation":4.261516,"structure_owner_name":"Nevamar Company, LLC","structure_manager_name":null,"data_source":"FCC: Land Mobile - Private (GIS)"}},{"type":"Feature","geometry":{"type":"Point","coordinates":[-76.6669,37]},"properties":{"name":"Vertical Asset","styleUrl":"#towerStyle","styleHash":"1d01e409","county":"Isle of Wight County","lat":37,"lng":-76.6669,"structure_type":null,"structure_name":null,"structure_address":null,"height":0,"base_elevation":17.332403,"structure_owner_name":"Yum Restaurant Service Group, Inc.","structure_manager_name":null,"data_source":"FCC: Land Mobile - Private (GIS)"}},{"type":"Feature","geometry":{"type":"Point","coordinates":[-76.628299,36.9956]},"properties":{"name":"601 N CHURCH ST","styleUrl":"#towerStyle","styleHash":"1d01e409","county":"Isle of Wight County","lat":36.9956,"lng":-76.628299,"structure_type":"BANT","structure_name":null,"structure_address":"601 N CHURCH ST","height":12.2,"base_elevation":12.390889,"structure_owner_name":"GWALTNEY OF SMITHFIELD LTD","structure_manager_name":null,"data_source":"FCC: Land Mobile - Private (GIS)"}},{"type":"Feature","geometry":{"type":"Point","coordinates":[-76.8917,36.6778]},"properties":{"name":"RR crossing at SR-260 and MP F35.80","styleUrl":"#towerStyle","styleHash":"1d01e409","county":"Isle of Wight County","lat":36.6778,"lng":-76.8917,"structure_type":"BANT","structure_name":null,"structure_address":"RR crossing at SR-260 and MP F35.80","height":3.1,"base_elevation":8.784217,"structure_owner_name":"Norfolk Southern Railway Company","structure_manager_name":null,"data_source":"FCC: Land Mobile - Private (GIS)"}},{"type":"Feature","geometry":{"type":"Point","coordinates":[-76.8603,36.6742]},"properties":{"name":"RT-615 RR crossing at MP FD34.01","styleUrl":"#towerStyle","styleHash":"1d01e409","county":"Isle of Wight County","lat":36.6742,"lng":-76.8603,"structure_type":"BANT","structure_name":null,"structure_address":"RT-615 RR crossing at MP FD34.01","height":3.1,"base_elevation":23.760742,"structure_owner_name":"Norfolk Southern Railway Company","structure_manager_name":null,"data_source":"FCC: Land Mobile - Private (GIS)"}},{"type":"Feature","geometry":{"type":"Point","coordinates":[-76.7583,36.8158]},"properties":{"name":"Vertical Asset","styleUrl":"#towerStyle","styleHash":"1d01e409","county":"Isle of Wight County","lat":36.8158,"lng":-76.7583,"structure_type":null,"structure_name":null,"structure_address":null,"height":0,"base_elevation":25.209867,"structure_owner_name":"Norfolk Southern Railway Company","structure_manager_name":null,"data_source":"FCC: Land Mobile - Private (GIS)"}},{"type":"Feature","geometry":{"type":"Point","coordinates":[-76.7586,36.8156]},"properties":{"name":"ON US HWY 460 .5 MI NW INT HWY 460 & CR 258","styleUrl":"#towerStyle","styleHash":"1d01e409","county":"Isle of Wight County","lat":36.8156,"lng":-76.7586,"structure_type":"TOWER","structure_name":null,"structure_address":"ON US HWY 460 .5 MI NW INT HWY 460 & CR 258","height":97.5,"base_elevation":25.367994,"structure_owner_name":"Norfolk Southern Railway Company","structure_manager_name":null,"data_source":"FCC: Land Mobile - Private (GIS)"}},{"type":"Feature","geometry":{"type":"Point","coordinates":[-76.5905,36.9789]},"properties":{"name":"136.2GREENBRIER LANE","styleUrl":"#towerStyle","styleHash":"1d01e409","county":"Isle of Wight County","lat":36.9789,"lng":-76.5905,"structure_type":"TOWER","structure_name":null,"structure_address":"136.2GREENBRIER LANE","height":136.2,"base_elevation":7.592806,"structure_owner_name":"GATELY COMMUNICATIONS INC","structure_manager_name":null,"data_source":"FCC: Land Mobile - Private (GIS)"}},{"type":"Feature","geometry":{"type":"Point","coordinates":[-76.8353,36.8678]},"properties":{"name":"Detector  RR MP N 40.5","styleUrl":"#towerStyle","styleHash":"1d01e409","county":"Isle of Wight County","lat":36.8678,"lng":-76.8353,"structure_type":"B","structure_name":null,"structure_address":"Detector  RR MP N 40.5","height":4,"base_elevation":4.759175,"structure_owner_name":"Norfolk Southern Railway Company","structure_manager_name":null,"data_source":"FCC: Land Mobile - Private (GIS)"}},{"type":"Feature","geometry":{"type":"Point","coordinates":[-76.7583,36.8156]},"properties":{"name":".63 MI AT 322.4 DEGREES FROM US 258 & ST RT 603","styleUrl":"#towerStyle","styleHash":"1d01e409","county":"Isle of Wight County","lat":36.8156,"lng":-76.7583,"structure_type":"TOWER","structure_name":null,"structure_address":".63 MI AT 322.4 DEGREES FROM US 258 & ST RT 603","height":97.5,"base_elevation":25.162515,"structure_owner_name":"Norfolk Southern Railway Company","structure_manager_name":null,"data_source":"FCC: Land Mobile - Private (GIS)"}},{"type":"Feature","geometry":{"type":"Point","coordinates":[-76.6603,36.995299]},"properties":{"name":"N CHURCH ST","styleUrl":"#towerStyle","styleHash":"1d01e409","county":"Isle of Wight County","lat":36.995299,"lng":-76.6603,"structure_type":"B","structure_name":null,"structure_address":"N CHURCH ST","height":9,"base_elevation":17.174734,"structure_owner_name":"GWALTNEY OF SMITHFIELD LTD","structure_manager_name":null,"data_source":"FCC: Land Mobile - Private (GIS)"}},{"type":"Feature","geometry":{"type":"Point","coordinates":[-76.8319,36.8178]},"properties":{"name":"BIRDNECK LAKES","styleUrl":"#towerStyle","styleHash":"1d01e409","county":"Isle of Wight County","lat":36.8178,"lng":-76.8319,"structure_type":null,"structure_name":null,"structure_address":"BIRDNECK LAKES","height":0,"base_elevation":14.250093,"structure_owner_name":"The City of Virginia Beach","structure_manager_name":null,"data_source":"FCC: Land Mobile - Private (GIS)"}},{"type":"Feature","geometry":{"type":"Point","coordinates":[-76.638,36.8594]},"properties":{"name":"CAPE STORY BY THE SEA","styleUrl":"#towerStyle","styleHash":"1d01e409","county":"Isle of Wight County","lat":36.8594,"lng":-76.638,"structure_type":null,"structure_name":null,"structure_address":"CAPE STORY BY THE SEA","height":0,"base_elevation":19.455587,"structure_owner_name":"The City of Virginia Beach","structure_manager_name":null,"data_source":"FCC: Land Mobile - Private (GIS)"}},{"type":"Feature","geometry":{"type":"Point","coordinates":[-76.6372,36.8586]},"properties":{"name":"CAPE HENRY SHORES ST","styleUrl":"#towerStyle","styleHash":"1d01e409","county":"Isle of Wight County","lat":36.8586,"lng":-76.6372,"structure_type":null,"structure_name":null,"structure_address":"CAPE HENRY SHORES ST","height":0,"base_elevation":18.321893,"structure_owner_name":"The City of Virginia Beach","structure_manager_name":null,"data_source":"FCC: Land Mobile - Private (GIS)"}},{"type":"Feature","geometry":{"type":"Point","coordinates":[-76.8319,36.8178]},"properties":{"name":"998 KELA CRESENT","styleUrl":"#towerStyle","styleHash":"1d01e409","county":"Isle of Wight County","lat":36.8178,"lng":-76.8319,"structure_type":null,"structure_name":null,"structure_address":"998 KELA CRESENT","height":0,"base_elevation":14.250093,"structure_owner_name":"The City of Virginia Beach","structure_manager_name":null,"data_source":"FCC: Land Mobile - Private (GIS)"}},{"type":"Feature","geometry":{"type":"Point","coordinates":[-76.7494,36.8147]},"properties":{"name":"52 W WINDSOR BLVD","styleUrl":"#towerStyle","styleHash":"1d01e409","county":"Isle of Wight County","lat":36.8147,"lng":-76.7494,"structure_type":"TOWER","structure_name":null,"structure_address":"52 W WINDSOR BLVD","height":82.3,"base_elevation":24.017169,"structure_owner_name":"COMMUNITY ELECTRIC COOPERATIVE","structure_manager_name":null,"data_source":"FCC: Land Mobile - Private (GIS)"}},{"type":"Feature","geometry":{"type":"Point","coordinates":[-76.6778,36.9444]},"properties":{"name":"865 MAIN ST","styleUrl":"#towerStyle","styleHash":"1d01e409","county":"Isle of Wight County","lat":36.9444,"lng":-76.6778,"structure_type":null,"structure_name":null,"structure_address":"865 MAIN ST","height":0,"base_elevation":17.771671,"structure_owner_name":"FARMERS SERVICE COMPANY","structure_manager_name":null,"data_source":"FCC: Land Mobile - Private (GIS)"}},{"type":"Feature","geometry":{"type":"Point","coordinates":[-76.8847,36.6958]},"properties":{"name":"Vertical Asset","styleUrl":"#towerStyle","styleHash":"1d01e409","county":"Isle of Wight County","lat":36.6958,"lng":-76.8847,"structure_type":null,"structure_name":null,"structure_address":null,"height":0,"base_elevation":8.976882,"structure_owner_name":"CROSSROADS FUEL SERVICE INC","structure_manager_name":null,"data_source":"FCC: Land Mobile - Private (GIS)"}},{"type":"Feature","geometry":{"type":"Point","coordinates":[-76.8847,36.6958]},"properties":{"name":"RT 58 AND RT 258","styleUrl":"#towerStyle","styleHash":"1d01e409","county":"Isle of Wight County","lat":36.6958,"lng":-76.8847,"structure_type":"POLE","structure_name":null,"structure_address":"RT 58 AND RT 258","height":19.8,"base_elevation":8.976882,"structure_owner_name":"CROSSROADS FUEL SERVICE INC","structure_manager_name":null,"data_source":"FCC: Land Mobile - Private (GIS)"}},{"type":"Feature","geometry":{"type":"Point","coordinates":[-76.7583,36.8156]},"properties":{"name":"Vertical Asset","styleUrl":"#towerStyle","styleHash":"1d01e409","county":"Isle of Wight County","lat":36.8156,"lng":-76.7583,"structure_type":null,"structure_name":null,"structure_address":null,"height":0,"base_elevation":25.162515,"structure_owner_name":"Norfolk Southern Railway Company","structure_manager_name":null,"data_source":"FCC: Land Mobile - Private (GIS)"}},{"type":"Feature","geometry":{"type":"Point","coordinates":[-76.7586,36.8156]},"properties":{"name":"ON US HWY 460, .5 MI. NW OF INT. OF HWY 460 & CR 258.","styleUrl":"#towerStyle","styleHash":"1d01e409","county":"Isle of Wight County","lat":36.8156,"lng":-76.7586,"structure_type":"TOWER","structure_name":null,"structure_address":"ON US HWY 460, .5 MI. NW OF INT. OF HWY 460 & CR 258.","height":97.5,"base_elevation":25.367994,"structure_owner_name":"Norfolk Southern Railway Company","structure_manager_name":null,"data_source":"FCC: Land Mobile - Private (GIS)"}},{"type":"Feature","geometry":{"type":"Point","coordinates":[-76.75,36.9175]},"properties":{"name":"3 MI N OF RT 258 ON RT 637","styleUrl":"#towerStyle","styleHash":"1d01e409","county":"Isle of Wight County","lat":36.9175,"lng":-76.75,"structure_type":"TOWER","structure_name":null,"structure_address":"3 MI N OF RT 258 ON RT 637","height":98,"base_elevation":25.937242,"structure_owner_name":"AREAWIDE COMMUNICATIONS INC","structure_manager_name":null,"data_source":"FCC: Land Mobile - Private (GIS)"}},{"type":"Feature","geometry":{"type":"Point","coordinates":[-76.9078,36.6806]},"properties":{"name":"CSXT R O W & UNION CAMP CORP TRAFFIC BLDG","styleUrl":"#towerStyle","styleHash":"1d01e409","county":"Isle of Wight County","lat":36.6806,"lng":-76.9078,"structure_type":"POLE","structure_name":null,"structure_address":"CSXT R O W & UNION CAMP CORP TRAFFIC BLDG","height":14,"base_elevation":9.495141,"structure_owner_name":"CSX Transportation Inc.","structure_manager_name":null,"data_source":"FCC: Land Mobile - Private (GIS)"}},{"type":"Feature","geometry":{"type":"Point","coordinates":[-76.5219,36.9597]},"properties":{"name":"13162 CARROLLTON BLVD","styleUrl":"#towerStyle","styleHash":"1d01e409","county":"Isle of Wight County","lat":36.9597,"lng":-76.5219,"structure_type":"B","structure_name":null,"structure_address":"13162 CARROLLTON BLVD","height":12,"base_elevation":1.210635,"structure_owner_name":"DASHIELL ENT INC","structure_manager_name":null,"data_source":"FCC: Land Mobile - Private (GIS)"}},{"type":"Feature","geometry":{"type":"Point","coordinates":[-76.59,36.9794]},"properties":{"name":"OFF BATTERY PARK RD","styleUrl":"#towerStyle","styleHash":"1d01e409","county":"Isle of Wight County","lat":36.9794,"lng":-76.59,"structure_type":null,"structure_name":null,"structure_address":"OFF BATTERY PARK RD","height":130,"base_elevation":7.420763,"structure_owner_name":"S W RAWLS INC","structure_manager_name":null,"data_source":"FCC: Land Mobile - Private (GIS)"}},{"type":"Feature","geometry":{"type":"Point","coordinates":[-76.6308,36.9822]},"properties":{"name":"Vertical Asset","styleUrl":"#towerStyle","styleHash":"1d01e409","county":"Isle of Wight County","lat":36.9822,"lng":-76.6308,"structure_type":null,"structure_name":null,"structure_address":null,"height":0,"base_elevation":8.883672,"structure_owner_name":"DINK INC DBA LONG JOHN SILVERS","structure_manager_name":null,"data_source":"FCC: Land Mobile - Private (GIS)"}},{"type":"Feature","geometry":{"type":"Point","coordinates":[-76.59,36.9794]},"properties":{"name":"1800 NE OF RT 704 & 699","styleUrl":"#towerStyle","styleHash":"1d01e409","county":"Isle of Wight County","lat":36.9794,"lng":-76.59,"structure_type":null,"structure_name":null,"structure_address":"1800 NE OF RT 704 & 699","height":0,"base_elevation":7.420763,"structure_owner_name":"AAA ELECTRICAL CONTRACTORS INC","structure_manager_name":null,"data_source":"FCC: Land Mobile - Private (GIS)"}},{"type":"Feature","geometry":{"type":"Point","coordinates":[-76.59,36.9794]},"properties":{"name":"1600 NW OF RT 699 & 704","styleUrl":"#towerStyle","styleHash":"1d01e409","county":"Isle of Wight County","lat":36.9794,"lng":-76.59,"structure_type":null,"structure_name":null,"structure_address":"1600 NW OF RT 699 & 704","height":135,"base_elevation":7.420763,"structure_owner_name":"A D POTTS & ASSOCIATES INC","structure_manager_name":null,"data_source":"FCC: Land Mobile - Private (GIS)"}},{"type":"Feature","geometry":{"type":"Point","coordinates":[-76.59,36.9794]},"properties":{"name":"1800 NE INT RTS 704 & 699","styleUrl":"#towerStyle","styleHash":"1d01e409","county":"Isle of Wight County","lat":36.9794,"lng":-76.59,"structure_type":null,"structure_name":null,"structure_address":"1800 NE INT RTS 704 & 699","height":0,"base_elevation":7.420763,"structure_owner_name":"NEWPORT NEWS AMUSEMENT CO INC","structure_manager_name":null,"data_source":"FCC: Land Mobile - Private (GIS)"}},{"type":"Feature","geometry":{"type":"Point","coordinates":[-76.6617,36.9731]},"properties":{"name":"SR 709 1 KM W OF US RT 258","styleUrl":"#towerStyle","styleHash":"1d01e409","county":"Isle of Wight County","lat":36.9731,"lng":-76.6617,"structure_type":"UPOLE","structure_name":null,"structure_address":"SR 709 1 KM W OF US RT 258","height":15,"base_elevation":21.441509,"structure_owner_name":"VIRGINIA, COMMONWEALTH OF","structure_manager_name":null,"data_source":"FCC: Land Mobile - Private (GIS)"}},{"type":"Feature","geometry":{"type":"Point","coordinates":[-76.6336,36.9814]},"properties":{"name":"Vertical Asset","styleUrl":"#towerStyle","styleHash":"1d01e409","county":"Isle of Wight County","lat":36.9814,"lng":-76.6336,"structure_type":null,"structure_name":null,"structure_address":null,"height":0,"base_elevation":10.128419,"structure_owner_name":"SMITHFIELD, TOWN OF","structure_manager_name":null,"data_source":"FCC: Land Mobile - Private (GIS)"}},{"type":"Feature","geometry":{"type":"Point","coordinates":[-76.7547,36.8025]},"properties":{"name":"24409 WALTERS HWY US 258 1 KM S","styleUrl":"#towerStyle","styleHash":"1d01e409","county":"Isle of Wight County","lat":36.8025,"lng":-76.7547,"structure_type":"TOWER","structure_name":null,"structure_address":"24409 WALTERS HWY US 258 1 KM S","height":307,"base_elevation":25.746135,"structure_owner_name":"VIRGINIA, COMMONWEALTH OF","structure_manager_name":null,"data_source":"FCC: Land Mobile - Private (GIS)"}},{"type":"Feature","geometry":{"type":"Point","coordinates":[-76.8606,36.7667]},"properties":{"name":"NANSEMOND CU INT RTS 258 & 619","styleUrl":"#towerStyle","styleHash":"1d01e409","county":"Isle of Wight County","lat":36.7667,"lng":-76.8606,"structure_type":"TOWER","structure_name":null,"structure_address":"NANSEMOND CU INT RTS 258 & 619","height":30,"base_elevation":14.654227,"structure_owner_name":"VIRGINIA, COMMONWEALTH OF","structure_manager_name":null,"data_source":"FCC: Land Mobile - Private (GIS)"}},{"type":"Feature","geometry":{"type":"Point","coordinates":[-76.740799,36.805]},"properties":{"name":"8 E WINDSOR BLVD","styleUrl":"#towerStyle","styleHash":"1d01e409","county":"Isle of Wight County","lat":36.805,"lng":-76.740799,"structure_type":"TANK","structure_name":null,"structure_address":"8 E WINDSOR BLVD","height":40,"base_elevation":24.032579,"structure_owner_name":"WINDSOR, TOWN OF","structure_manager_name":null,"data_source":"FCC: Land Mobile - Private (GIS)"}},{"type":"Feature","geometry":{"type":"Point","coordinates":[-76.6364,36.9978]},"properties":{"name":"NW RTS 666 & 1144 INT","styleUrl":"#towerStyle","styleHash":"1d01e409","county":"Isle of Wight County","lat":36.9978,"lng":-76.6364,"structure_type":"TOWER","structure_name":null,"structure_address":"NW RTS 666 & 1144 INT","height":61,"base_elevation":8.657974,"structure_owner_name":"SMITHFIELD, TOWN OF","structure_manager_name":null,"data_source":"FCC: Land Mobile - Private (GIS)"}},{"type":"Feature","geometry":{"type":"Point","coordinates":[-76.7464,36.7969]},"properties":{"name":"SR 610 1 KM S OF US RT 460","styleUrl":"#towerStyle","styleHash":"1d01e409","county":"Isle of Wight County","lat":36.7969,"lng":-76.7464,"structure_type":"UPOLE","structure_name":null,"structure_address":"SR 610 1 KM S OF US RT 460","height":20,"base_elevation":23.989973,"structure_owner_name":"VIRGINIA, COMMONWEALTH OF","structure_manager_name":null,"data_source":"FCC: Land Mobile - Private (GIS)"}},{"type":"Feature","geometry":{"type":"Point","coordinates":[-76.5364,36.9528]},"properties":{"name":"SR 669 .5 KM W OF US RT 17","styleUrl":"#towerStyle","styleHash":"1d01e409","county":"Isle of Wight County","lat":36.9528,"lng":-76.5364,"structure_type":"UPOLE","structure_name":null,"structure_address":"SR 669 .5 KM W OF US RT 17","height":18,"base_elevation":5.784235,"structure_owner_name":"VIRGINIA, COMMONWEALTH OF","structure_manager_name":null,"data_source":"FCC: Land Mobile - Private (GIS)"}},{"type":"Feature","geometry":{"type":"Point","coordinates":[-76.6364,36.9978]},"properties":{"name":"NW RT 166 & 1144 INT","styleUrl":"#towerStyle","styleHash":"1d01e409","county":"Isle of Wight County","lat":36.9978,"lng":-76.6364,"structure_type":"TOWER","structure_name":null,"structure_address":"NW RT 166 & 1144 INT","height":61,"base_elevation":8.657974,"structure_owner_name":"SMITHFIELD, TOWN OF","structure_manager_name":null,"data_source":"FCC: Land Mobile - Private (GIS)"}},{"type":"Feature","geometry":{"type":"Point","coordinates":[-76.6125,36.9767]},"properties":{"name":"CHURCH ST WATER TWR","styleUrl":"#towerStyle","styleHash":"1d01e409","county":"Isle of Wight County","lat":36.9767,"lng":-76.6125,"structure_type":"TANK","structure_name":null,"structure_address":"CHURCH ST WATER TWR","height":41,"base_elevation":12.188282,"structure_owner_name":"SMITHFIELD, TOWN OF","structure_manager_name":null,"data_source":"FCC: Land Mobile - Private (GIS)"}},{"type":"Feature","geometry":{"type":"Point","coordinates":[-76.6364,36.9978]},"properties":{"name":"NW RTS 666 & 1144 INT","styleUrl":"#towerStyle","styleHash":"1d01e409","county":"Isle of Wight County","lat":36.9978,"lng":-76.6364,"structure_type":"TOWER","structure_name":null,"structure_address":"NW RTS 666 & 1144 INT","height":61,"base_elevation":8.657974,"structure_owner_name":"SMITHFIELD, TOWN OF","structure_manager_name":null,"data_source":"FCC: Land Mobile - Private (GIS)"}},{"type":"Feature","geometry":{"type":"Point","coordinates":[-76.7417,36.8056]},"properties":{"name":"17 E WINDSOR BLVD","styleUrl":"#towerStyle","styleHash":"1d01e409","county":"Isle of Wight County","lat":36.8056,"lng":-76.7417,"structure_type":null,"structure_name":null,"structure_address":"17 E WINDSOR BLVD","height":24,"base_elevation":24.485927,"structure_owner_name":"WINDSOR VOLUNTEER RESCUE SQUAD INC","structure_manager_name":null,"data_source":"FCC: Land Mobile - Private (GIS)"}},{"type":"Feature","geometry":{"type":"Point","coordinates":[-76.7242,36.8867]},"properties":{"name":"500 YDS E OF CTY COURTHOUSE","styleUrl":"#towerStyle","styleHash":"1d01e409","county":"Isle of Wight County","lat":36.8867,"lng":-76.7242,"structure_type":null,"structure_name":null,"structure_address":"500 YDS E OF CTY COURTHOUSE","height":122,"base_elevation":24.983526,"structure_owner_name":"ISLE OF WIGHT, COUNTY OF","structure_manager_name":null,"data_source":"FCC: Land Mobile - Private (GIS)"}},{"type":"Feature","geometry":{"type":"Point","coordinates":[-76.7033,36.9094]},"properties":{"name":"500 YDS E OF CTY COURT HOUSE","styleUrl":"#towerStyle","styleHash":"1d01e409","county":"Isle of Wight County","lat":36.9094,"lng":-76.7033,"structure_type":null,"structure_name":null,"structure_address":"500 YDS E OF CTY COURT HOUSE","height":122,"base_elevation":24.09748,"structure_owner_name":"ISLE OF WIGHT, COUNTY OF","structure_manager_name":null,"data_source":"FCC: Land Mobile - Private (GIS)"}},{"type":"Feature","geometry":{"type":"Point","coordinates":[-76.7242,36.8867]},"properties":{"name":"500 YDS E OF COUNTY COURTHOUSE","styleUrl":"#towerStyle","styleHash":"1d01e409","county":"Isle of Wight County","lat":36.8867,"lng":-76.7242,"structure_type":null,"structure_name":null,"structure_address":"500 YDS E OF COUNTY COURTHOUSE","height":0,"base_elevation":24.983526,"structure_owner_name":"ISLE OF WIGHT, COUNTY OF","structure_manager_name":null,"data_source":"FCC: Land Mobile - Private (GIS)"}},{"type":"Feature","geometry":{"type":"Point","coordinates":[-76.6336,36.9814]},"properties":{"name":"TOWN HALL","styleUrl":"#towerStyle","styleHash":"1d01e409","county":"Isle of Wight County","lat":36.9814,"lng":-76.6336,"structure_type":null,"structure_name":null,"structure_address":"TOWN HALL","height":0,"base_elevation":10.128419,"structure_owner_name":"SMITHFIELD, TOWN OF","structure_manager_name":null,"data_source":"FCC: Land Mobile - Private (GIS)"}},{"type":"Feature","geometry":{"type":"Point","coordinates":[-76.6336,36.9814]},"properties":{"name":"Vertical Asset","styleUrl":"#towerStyle","styleHash":"1d01e409","county":"Isle of Wight County","lat":36.9814,"lng":-76.6336,"structure_type":null,"structure_name":null,"structure_address":null,"height":0,"base_elevation":10.128419,"structure_owner_name":"SMITHFIELD, TOWN OF","structure_manager_name":null,"data_source":"FCC: Land Mobile - Private (GIS)"}},{"type":"Feature","geometry":{"type":"Point","coordinates":[-76.6356,36.9925]},"properties":{"name":"W END OF JAMESTOWN AVE","styleUrl":"#towerStyle","styleHash":"1d01e409","county":"Isle of Wight County","lat":36.9925,"lng":-76.6356,"structure_type":null,"structure_name":null,"structure_address":"W END OF JAMESTOWN AVE","height":5,"base_elevation":7.959486,"structure_owner_name":"SMITHFIELD, TOWN OF","structure_manager_name":null,"data_source":"FCC: Land Mobile - Private (GIS)"}},{"type":"Feature","geometry":{"type":"Point","coordinates":[-76.6072,36.9636]},"properties":{"name":"W SIDE S CHURCH ST","styleUrl":"#towerStyle","styleHash":"1d01e409","county":"Isle of Wight County","lat":36.9636,"lng":-76.6072,"structure_type":null,"structure_name":null,"structure_address":"W SIDE S CHURCH ST","height":5,"base_elevation":14.16784,"structure_owner_name":"SMITHFIELD, TOWN OF","structure_manager_name":null,"data_source":"FCC: Land Mobile - Private (GIS)"}},{"type":"Feature","geometry":{"type":"Point","coordinates":[-76.6083,36.9706]},"properties":{"name":"BETWEEN WILSON & S CHURCH ST","styleUrl":"#towerStyle","styleHash":"1d01e409","county":"Isle of Wight County","lat":36.9706,"lng":-76.6083,"structure_type":null,"structure_name":null,"structure_address":"BETWEEN WILSON & S CHURCH ST","height":5,"base_elevation":11.901743,"structure_owner_name":"SMITHFIELD, TOWN OF","structure_manager_name":null,"data_source":"FCC: Land Mobile - Private (GIS)"}},{"type":"Feature","geometry":{"type":"Point","coordinates":[-76.592199,36.9594]},"properties":{"name":"E SIDE OF BUCKINGHAM WAY 1","styleUrl":"#towerStyle","styleHash":"1d01e409","county":"Isle of Wight County","lat":36.9594,"lng":-76.592199,"structure_type":null,"structure_name":null,"structure_address":"E SIDE OF BUCKINGHAM WAY 1","height":5,"base_elevation":2.813809,"structure_owner_name":"SMITHFIELD, TOWN OF","structure_manager_name":null,"data_source":"FCC: Land Mobile - Private (GIS)"}},{"type":"Feature","geometry":{"type":"Point","coordinates":[-76.6044,36.9572]},"properties":{"name":"N SIDE OF CYPRESS RUND R","styleUrl":"#towerStyle","styleHash":"1d01e409","county":"Isle of Wight County","lat":36.9572,"lng":-76.6044,"structure_type":null,"structure_name":null,"structure_address":"N SIDE OF CYPRESS RUND R","height":5,"base_elevation":14.15484,"structure_owner_name":"SMITHFIELD, TOWN OF","structure_manager_name":null,"data_source":"FCC: Land Mobile - Private (GIS)"}},{"type":"Feature","geometry":{"type":"Point","coordinates":[-76.5869,36.990799]},"properties":{"name":"N SIDE ON WATER POINTE LN","styleUrl":"#towerStyle","styleHash":"1d01e409","county":"Isle of Wight County","lat":36.990799,"lng":-76.5869,"structure_type":null,"structure_name":null,"structure_address":"N SIDE ON WATER POINTE LN","height":5,"base_elevation":2.042661,"structure_owner_name":"SMITHFIELD, TOWN OF","structure_manager_name":null,"data_source":"FCC: Land Mobile - Private (GIS)"}},{"type":"Feature","geometry":{"type":"Point","coordinates":[-76.5847,36.9939]},"properties":{"name":"E SIDE OF COMMODORE PT","styleUrl":"#towerStyle","styleHash":"1d01e409","county":"Isle of Wight County","lat":36.9939,"lng":-76.5847,"structure_type":null,"structure_name":null,"structure_address":"E SIDE OF COMMODORE PT","height":5,"base_elevation":6.183641,"structure_owner_name":"SMITHFIELD, TOWN OF","structure_manager_name":null,"data_source":"FCC: Land Mobile - Private (GIS)"}},{"type":"Feature","geometry":{"type":"Point","coordinates":[-76.583899,36.9889]},"properties":{"name":"N OF GATLING PT PKY","styleUrl":"#towerStyle","styleHash":"1d01e409","county":"Isle of Wight County","lat":36.9889,"lng":-76.583899,"structure_type":null,"structure_name":null,"structure_address":"N OF GATLING PT PKY","height":5,"base_elevation":7.127911,"structure_owner_name":"SMITHFIELD, TOWN OF","structure_manager_name":null,"data_source":"FCC: Land Mobile - Private (GIS)"}},{"type":"Feature","geometry":{"type":"Point","coordinates":[-76.5833,36.9883]},"properties":{"name":"E SIDE GATLING PT PKY","styleUrl":"#towerStyle","styleHash":"1d01e409","county":"Isle of Wight County","lat":36.9883,"lng":-76.5833,"structure_type":null,"structure_name":null,"structure_address":"E SIDE GATLING PT PKY","height":5,"base_elevation":6.897157,"structure_owner_name":"SMITHFIELD, TOWN OF","structure_manager_name":null,"data_source":"FCC: Land Mobile - Private (GIS)"}},{"type":"Feature","geometry":{"type":"Point","coordinates":[-76.583899,36.9608]},"properties":{"name":"END OF SMITHFIELD BLVD S SIDE","styleUrl":"#towerStyle","styleHash":"1d01e409","county":"Isle of Wight County","lat":36.9608,"lng":-76.583899,"structure_type":null,"structure_name":null,"structure_address":"END OF SMITHFIELD BLVD S SIDE","height":5,"base_elevation":2.549999,"structure_owner_name":"SMITHFIELD, TOWN OF","structure_manager_name":null,"data_source":"FCC: Land Mobile - Private (GIS)"}},{"type":"Feature","geometry":{"type":"Point","coordinates":[-76.59,36.9658]},"properties":{"name":"BEYOND LEDFORD LN N OF SMITHFIELD BLVD","styleUrl":"#towerStyle","styleHash":"1d01e409","county":"Isle of Wight County","lat":36.9658,"lng":-76.59,"structure_type":null,"structure_name":null,"structure_address":"BEYOND LEDFORD LN N OF SMITHFIELD BLVD","height":5,"base_elevation":7.135072,"structure_owner_name":"SMITHFIELD, TOWN OF","structure_manager_name":null,"data_source":"FCC: Land Mobile - Private (GIS)"}},{"type":"Feature","geometry":{"type":"Point","coordinates":[-76.5969,36.9647]},"properties":{"name":"S OF S SMITHFIELD BLVD","styleUrl":"#towerStyle","styleHash":"1d01e409","county":"Isle of Wight County","lat":36.9647,"lng":-76.5969,"structure_type":null,"structure_name":null,"structure_address":"S OF S SMITHFIELD BLVD","height":5,"base_elevation":6.892622,"structure_owner_name":"SMITHFIELD, TOWN OF","structure_manager_name":null,"data_source":"FCC: Land Mobile - Private (GIS)"}},{"type":"Feature","geometry":{"type":"Point","coordinates":[-76.6075,36.9747]},"properties":{"name":"E JOHN ROLFE DR N BATTERY PRK","styleUrl":"#towerStyle","styleHash":"1d01e409","county":"Isle of Wight County","lat":36.9747,"lng":-76.6075,"structure_type":null,"structure_name":null,"structure_address":"E JOHN ROLFE DR N BATTERY PRK","height":5,"base_elevation":8.687281,"structure_owner_name":"SMITHFIELD, TOWN OF","structure_manager_name":null,"data_source":"FCC: Land Mobile - Private (GIS)"}},{"type":"Feature","geometry":{"type":"Point","coordinates":[-76.6053,36.9894]},"properties":{"name":"N SIDE CRESCENT DR","styleUrl":"#towerStyle","styleHash":"1d01e409","county":"Isle of Wight County","lat":36.9894,"lng":-76.6053,"structure_type":null,"structure_name":null,"structure_address":"N SIDE CRESCENT DR","height":5,"base_elevation":2.667002,"structure_owner_name":"SMITHFIELD, TOWN OF","structure_manager_name":null,"data_source":"FCC: Land Mobile - Private (GIS)"}},{"type":"Feature","geometry":{"type":"Point","coordinates":[-76.6408,36.9853]},"properties":{"name":"E OF CARY ST BEFORE OVERPASS","styleUrl":"#towerStyle","styleHash":"1d01e409","county":"Isle of Wight County","lat":36.9853,"lng":-76.6408,"structure_type":null,"structure_name":null,"structure_address":"E OF CARY ST BEFORE OVERPASS","height":5,"base_elevation":9.574425,"structure_owner_name":"SMITHFIELD, TOWN OF","structure_manager_name":null,"data_source":"FCC: Land Mobile - Private (GIS)"}},{"type":"Feature","geometry":{"type":"Point","coordinates":[-76.6358,36.9903]},"properties":{"name":"END OF PAGAN AVE S SIDE","styleUrl":"#towerStyle","styleHash":"1d01e409","county":"Isle of Wight County","lat":36.9903,"lng":-76.6358,"structure_type":null,"structure_name":null,"structure_address":"END OF PAGAN AVE S SIDE","height":5,"base_elevation":5.876186,"structure_owner_name":"SMITHFIELD, TOWN OF","structure_manager_name":null,"data_source":"FCC: Land Mobile - Private (GIS)"}},{"type":"Feature","geometry":{"type":"Point","coordinates":[-76.647499,36.9786]},"properties":{"name":"END OF WEST ST EAST SIDE","styleUrl":"#towerStyle","styleHash":"1d01e409","county":"Isle of Wight County","lat":36.9786,"lng":-76.647499,"structure_type":null,"structure_name":null,"structure_address":"END OF WEST ST EAST SIDE","height":5,"base_elevation":9.814792,"structure_owner_name":"SMITHFIELD, TOWN OF","structure_manager_name":null,"data_source":"FCC: Land Mobile - Private (GIS)"}},{"type":"Feature","geometry":{"type":"Point","coordinates":[-76.6367,36.9775]},"properties":{"name":"N SIDE OF CEDAR ST","styleUrl":"#towerStyle","styleHash":"1d01e409","county":"Isle of Wight County","lat":36.9775,"lng":-76.6367,"structure_type":null,"structure_name":null,"structure_address":"N SIDE OF CEDAR ST","height":5,"base_elevation":8.007091,"structure_owner_name":"SMITHFIELD, TOWN OF","structure_manager_name":null,"data_source":"FCC: Land Mobile - Private (GIS)"}},{"type":"Feature","geometry":{"type":"Point","coordinates":[-76.903,36.6983]},"properties":{"name":"Vertical Asset","styleUrl":"#towerStyle","styleHash":"1d01e409","county":"Isle of Wight County","lat":36.6983,"lng":-76.903,"structure_type":null,"structure_name":null,"structure_address":null,"height":0,"base_elevation":9.823087,"structure_owner_name":"FRANKLIN, CITY OF","structure_manager_name":null,"data_source":"FCC: Land Mobile - Private (GIS)"}},{"type":"Feature","geometry":{"type":"Point","coordinates":[-76.6364,36.990799]},"properties":{"name":"T1120","styleUrl":"#towerStyle","styleHash":"1d01e409","county":"Isle of Wight County","lat":36.990799,"lng":-76.6364,"structure_type":null,"structure_name":null,"structure_address":"T1120","height":0,"base_elevation":3.117013,"structure_owner_name":"SMITHFIELD, TOWN OF","structure_manager_name":null,"data_source":"FCC: Land Mobile - Private (GIS)"}},{"type":"Feature","geometry":{"type":"Point","coordinates":[-76.611099,36.9878]},"properties":{"name":"T1141","styleUrl":"#towerStyle","styleHash":"1d01e409","county":"Isle of Wight County","lat":36.9878,"lng":-76.611099,"structure_type":null,"structure_name":null,"structure_address":"T1141","height":0,"base_elevation":10.420615,"structure_owner_name":"SMITHFIELD, TOWN OF","structure_manager_name":null,"data_source":"FCC: Land Mobile - Private (GIS)"}},{"type":"Feature","geometry":{"type":"Point","coordinates":[-76.618099,36.9875]},"properties":{"name":"END OF JORDON RD","styleUrl":"#towerStyle","styleHash":"1d01e409","county":"Isle of Wight County","lat":36.9875,"lng":-76.618099,"structure_type":null,"structure_name":null,"structure_address":"END OF JORDON RD","height":0,"base_elevation":1.512409,"structure_owner_name":"SMITHFIELD, TOWN OF","structure_manager_name":null,"data_source":"FCC: Land Mobile - Private (GIS)"}},{"type":"Feature","geometry":{"type":"Point","coordinates":[-76.6067,36.9864]},"properties":{"name":"INTERSECTION OF MOONFIELD & MOON DR","styleUrl":"#towerStyle","styleHash":"1d01e409","county":"Isle of Wight County","lat":36.9864,"lng":-76.6067,"structure_type":null,"structure_name":null,"structure_address":"INTERSECTION OF MOONFIELD & MOON DR","height":0,"base_elevation":8.933409,"structure_owner_name":"SMITHFIELD, TOWN OF","structure_manager_name":null,"data_source":"FCC: Land Mobile - Private (GIS)"}},{"type":"Feature","geometry":{"type":"Point","coordinates":[-76.6442,36.9853]},"properties":{"name":"626 CARY ST PLANT","styleUrl":"#towerStyle","styleHash":"1d01e409","county":"Isle of Wight County","lat":36.9853,"lng":-76.6442,"structure_type":null,"structure_name":null,"structure_address":"626 CARY ST PLANT","height":0,"base_elevation":8.30158,"structure_owner_name":"SMITHFIELD, TOWN OF","structure_manager_name":null,"data_source":"FCC: Land Mobile - Private (GIS)"}},{"type":"Feature","geometry":{"type":"Point","coordinates":[-76.6047,36.9833]},"properties":{"name":"END OF BARCROFT","styleUrl":"#towerStyle","styleHash":"1d01e409","county":"Isle of Wight County","lat":36.9833,"lng":-76.6047,"structure_type":null,"structure_name":null,"structure_address":"END OF BARCROFT","height":0,"base_elevation":1.758323,"structure_owner_name":"SMITHFIELD, TOWN OF","structure_manager_name":null,"data_source":"FCC: Land Mobile - Private (GIS)"}},{"type":"Feature","geometry":{"type":"Point","coordinates":[-76.6294,36.9825]},"properties":{"name":"MAIN ST & COMMERCE","styleUrl":"#towerStyle","styleHash":"1d01e409","county":"Isle of Wight County","lat":36.9825,"lng":-76.6294,"structure_type":null,"structure_name":null,"structure_address":"MAIN ST & COMMERCE","height":0,"base_elevation":1.544105,"structure_owner_name":"SMITHFIELD, TOWN OF","structure_manager_name":null,"data_source":"FCC: Land Mobile - Private (GIS)"}},{"type":"Feature","geometry":{"type":"Point","coordinates":[-76.6189,36.9817]},"properties":{"name":"CYPRESS CREEK S CHURCH ST","styleUrl":"#towerStyle","styleHash":"1d01e409","county":"Isle of Wight County","lat":36.9817,"lng":-76.6189,"structure_type":null,"structure_name":null,"structure_address":"CYPRESS CREEK S CHURCH ST","height":0,"base_elevation":1.155379,"structure_owner_name":"SMITHFIELD, TOWN OF","structure_manager_name":null,"data_source":"FCC: Land Mobile - Private (GIS)"}},{"type":"Feature","geometry":{"type":"Point","coordinates":[-76.6336,36.9814]},"properties":{"name":"TOWNHALL 310 INSTITUTE","styleUrl":"#towerStyle","styleHash":"1d01e409","county":"Isle of Wight County","lat":36.9814,"lng":-76.6336,"structure_type":null,"structure_name":null,"structure_address":"TOWNHALL 310 INSTITUTE","height":0,"base_elevation":10.128419,"structure_owner_name":"SMITHFIELD, TOWN OF","structure_manager_name":null,"data_source":"FCC: Land Mobile - Private (GIS)"}},{"type":"Feature","geometry":{"type":"Point","coordinates":[-76.6319,36.9797]},"properties":{"name":"DRUMMOND LN","styleUrl":"#towerStyle","styleHash":"1d01e409","county":"Isle of Wight County","lat":36.9797,"lng":-76.6319,"structure_type":null,"structure_name":null,"structure_address":"DRUMMOND LN","height":0,"base_elevation":5.750487,"structure_owner_name":"SMITHFIELD, TOWN OF","structure_manager_name":null,"data_source":"FCC: Land Mobile - Private (GIS)"}},{"type":"Feature","geometry":{"type":"Point","coordinates":[-76.647499,36.9789]},"properties":{"name":"WEST ST & JERSEY PARK","styleUrl":"#towerStyle","styleHash":"1d01e409","county":"Isle of Wight County","lat":36.9789,"lng":-76.647499,"structure_type":null,"structure_name":null,"structure_address":"WEST ST & JERSEY PARK","height":0,"base_elevation":9.372152,"structure_owner_name":"SMITHFIELD, TOWN OF","structure_manager_name":null,"data_source":"FCC: Land Mobile - Private (GIS)"}},{"type":"Feature","geometry":{"type":"Point","coordinates":[-76.615,36.975599]},"properties":{"name":"WILSON RD & TANK T1129","styleUrl":"#towerStyle","styleHash":"1d01e409","county":"Isle of Wight County","lat":36.975599,"lng":-76.615,"structure_type":null,"structure_name":null,"structure_address":"WILSON RD & TANK T1129","height":0,"base_elevation":7.103659,"structure_owner_name":"SMITHFIELD, TOWN OF","structure_manager_name":null,"data_source":"FCC: Land Mobile - Private (GIS)"}},{"type":"Feature","geometry":{"type":"Point","coordinates":[-76.6403,36.975]},"properties":{"name":"LAKESIDE AT GREATSIDE RD","styleUrl":"#towerStyle","styleHash":"1d01e409","county":"Isle of Wight County","lat":36.975,"lng":-76.6403,"structure_type":null,"structure_name":null,"structure_address":"LAKESIDE AT GREATSIDE RD","height":0,"base_elevation":3.324926,"structure_owner_name":"SMITHFIELD, TOWN OF","structure_manager_name":null,"data_source":"FCC: Land Mobile - Private (GIS)"}},{"type":"Feature","geometry":{"type":"Point","coordinates":[-76.6083,36.9722]},"properties":{"name":"COLONIAL ON SMITHFIELD","styleUrl":"#towerStyle","styleHash":"1d01e409","county":"Isle of Wight County","lat":36.9722,"lng":-76.6083,"structure_type":null,"structure_name":null,"structure_address":"COLONIAL ON SMITHFIELD","height":0,"base_elevation":10.387519,"structure_owner_name":"SMITHFIELD, TOWN OF","structure_manager_name":null,"data_source":"FCC: Land Mobile - Private (GIS)"}},{"type":"Feature","geometry":{"type":"Point","coordinates":[-76.613599,36.9717]},"properties":{"name":"CRESENT DR","styleUrl":"#towerStyle","styleHash":"1d01e409","county":"Isle of Wight County","lat":36.9717,"lng":-76.613599,"structure_type":null,"structure_name":null,"structure_address":"CRESENT DR","height":0,"base_elevation":12.157176,"structure_owner_name":"SMITHFIELD, TOWN OF","structure_manager_name":null,"data_source":"FCC: Land Mobile - Private (GIS)"}},{"type":"Feature","geometry":{"type":"Point","coordinates":[-76.7242,36.8867]},"properties":{"name":"500 YDS E COUNTY COURTHOUSE","styleUrl":"#towerStyle","styleHash":"1d01e409","county":"Isle of Wight County","lat":36.8867,"lng":-76.7242,"structure_type":null,"structure_name":null,"structure_address":"500 YDS E COUNTY COURTHOUSE","height":0,"base_elevation":24.983526,"structure_owner_name":"ISLE OF WIGHT, COUNTY OF","structure_manager_name":null,"data_source":"FCC: Land Mobile - Private (GIS)"}},{"type":"Feature","geometry":{"type":"Point","coordinates":[-76.5219,36.9608]},"properties":{"name":"Vertical Asset","styleUrl":"#towerStyle","styleHash":"1d01e409","county":"Isle of Wight County","lat":36.9608,"lng":-76.5219,"structure_type":null,"structure_name":null,"structure_address":null,"height":0,"base_elevation":1.194637,"structure_owner_name":"CARROLLTON VOLUNTEER FIRE DEPARTMENT","structure_manager_name":null,"data_source":"FCC: Land Mobile - Private (GIS)"}},{"type":"Feature","geometry":{"type":"Point","coordinates":[-76.7578,36.8161]},"properties":{"name":"WINDSOR TRK1 EB & TRK2 WB AEI's near RR MP N 035.06","styleUrl":"#towerStyle","styleHash":"1d01e409","county":"Isle of Wight County","lat":36.8161,"lng":-76.7578,"structure_type":"POLE","structure_name":null,"structure_address":"WINDSOR TRK1 EB & TRK2 WB AEI's near RR MP N 035.06","height":3,"base_elevation":25.458145,"structure_owner_name":"Norfolk Southern Railway Company","structure_manager_name":null,"data_source":"FCC: Land Mobile - Commercial (GIS)"}},{"type":"Feature","geometry":{"type":"Point","coordinates":[-76.59,36.9794]},"properties":{"name":"OFF BATTERY PARK RD","styleUrl":"#towerStyle","styleHash":"1d01e409","county":"Isle of Wight County","lat":36.9794,"lng":-76.59,"structure_type":null,"structure_name":null,"structure_address":"OFF BATTERY PARK RD","height":130,"base_elevation":7.420763,"structure_owner_name":"Nextel Communications of the Mid-Atlantic, Inc.","structure_manager_name":null,"data_source":"FCC: Land Mobile - Commercial (GIS)"}},{"type":"Feature","geometry":{"type":"Point","coordinates":[-76.754199,36.8044]},"properties":{"name":"US 258","styleUrl":"#towerStyle","styleHash":"1d01e409","county":"Isle of Wight County","lat":36.8044,"lng":-76.754199,"structure_type":null,"structure_name":null,"structure_address":"US 258","height":0,"base_elevation":25.629905,"structure_owner_name":"NEXTEL COMMUNICATIONS OF THE MID-ATLANTIC, INC.","structure_manager_name":null,"data_source":"FCC: Land Mobile - Commercial (GIS)"}},{"type":"Feature","geometry":{"type":"Point","coordinates":[-76.754199,36.8044]},"properties":{"name":"US RT 258 6.1 MI S OF US RT 258 AND 46","styleUrl":"#towerStyle","styleHash":"1d01e409","county":"Isle of Wight County","lat":36.8044,"lng":-76.754199,"structure_type":null,"structure_name":null,"structure_address":"US RT 258 6.1 MI S OF US RT 258 AND 46","height":0,"base_elevation":25.629905,"structure_owner_name":"NEXTEL COMMUNICATIONS OF THE MID-ATLANTIC, INC.","structure_manager_name":null,"data_source":"FCC: Land Mobile - Commercial (GIS)"}},{"type":"Feature","geometry":{"type":"Point","coordinates":[-76.6706,37.0975]},"properties":{"name":"3.2 KM N. OF RUSHMERE","styleUrl":"#towerStyle","styleHash":"1d01e409","county":"Isle of Wight County","lat":37.0975,"lng":-76.6706,"structure_type":null,"structure_name":null,"structure_address":"3.2 KM N. OF RUSHMERE","height":8,"base_elevation":6.992113,"structure_owner_name":"WKGM, INC.","structure_manager_name":null,"data_source":"FCC: Land Mobile - Broadcast (GIS)"}},{"type":"Feature","geometry":{"type":"Point","coordinates":[-76.6733,37.0381]},"properties":{"name":"1500' NW OF ROUTE 673 ON ACCESS ROAD","styleUrl":"#towerStyle","styleHash":"1d01e409","county":"Isle of Wight County","lat":37.0381,"lng":-76.6733,"structure_type":"TOWER","structure_name":null,"structure_address":"1500' NW OF ROUTE 673 ON ACCESS ROAD","height":60.1,"base_elevation":14.764294,"structure_owner_name":"Cellco Partnership","structure_manager_name":null,"data_source":"FCC: Cellular (GIS)"}},{"type":"Feature","geometry":{"type":"Point","coordinates":[-76.593599,36.9506]},"properties":{"name":"14005 BENNS CHURCH BLVD","styleUrl":"#towerStyle","styleHash":"1d01e409","county":"Isle of Wight County","lat":36.9506,"lng":-76.593599,"structure_type":"TOWER","structure_name":null,"structure_address":"14005 BENNS CHURCH BLVD","height":60.3,"base_elevation":7.948646,"structure_owner_name":"Cellco Partnership","structure_manager_name":null,"data_source":"FCC: Cellular (GIS)"}},{"type":"Feature","geometry":{"type":"Point","coordinates":[-76.8172,36.8581]},"properties":{"name":"RT 460","styleUrl":"#towerStyle","styleHash":"1d01e409","county":"Isle of Wight County","lat":36.8581,"lng":-76.8172,"structure_type":"TOWER","structure_name":null,"structure_address":"RT 460","height":92.9,"base_elevation":18.568649,"structure_owner_name":"Cellco Partnership","structure_manager_name":null,"data_source":"FCC: Cellular (GIS)"}},{"type":"Feature","geometry":{"type":"Point","coordinates":[-76.5964,36.9364]},"properties":{"name":"CRITTENDON CELL SITE: 3,000 WEST SOUTHWEST OF STATE ROUTES 258 & 10","styleUrl":"#towerStyle","styleHash":"1d01e409","county":"Isle of Wight County","lat":36.9364,"lng":-76.5964,"structure_type":null,"structure_name":null,"structure_address":"CRITTENDON CELL SITE: 3,000 WEST SOUTHWEST OF STATE ROUTES 258 & 10","height":0,"base_elevation":13.195644,"structure_owner_name":"Alltel Communications of Petersburg, Inc.","structure_manager_name":null,"data_source":"FCC: Cellular (GIS)"}},{"type":"Feature","geometry":{"type":"Point","coordinates":[-76.721,36.8548]},"properties":{"name":"Vertical Asset","styleUrl":"#towerStyle","styleHash":"1d01e409","county":"Isle of Wight County","lat":36.8548,"lng":-76.721,"structure_type":null,"structure_name":null,"structure_address":null,"height":0,"base_elevation":24.485538,"structure_owner_name":"ISLE OF WIGHT COUNTY PUBLIC UTILITIES","structure_manager_name":null,"data_source":"FCC: Microwave (GIS)"}},{"type":"Feature","geometry":{"type":"Point","coordinates":[-76.7039,36.9089]},"properties":{"name":"Longview Drive (015360)","styleUrl":"#towerStyle","styleHash":"1d01e409","county":"Isle of Wight County","lat":36.9089,"lng":-76.7039,"structure_type":"TOWER","structure_name":null,"structure_address":"Longview Drive (015360)","height":128,"base_elevation":23.455818,"structure_owner_name":"Hampton Roads Planning District Commission","structure_manager_name":null,"data_source":"FCC: Microwave (GIS)"}},{"type":"Feature","geometry":{"type":"Point","coordinates":[-76.7039,36.9089]},"properties":{"name":"Longview Drive (015360)","styleUrl":"#towerStyle","styleHash":"1d01e409","county":"Isle of Wight County","lat":36.9089,"lng":-76.7039,"structure_type":"TOWER","structure_name":null,"structure_address":"Longview Drive (015360)","height":128,"base_elevation":23.455818,"structure_owner_name":"Isle of Wight, County of","structure_manager_name":null,"data_source":"FCC: Microwave (GIS)"}},{"type":"Feature","geometry":{"type":"Point","coordinates":[-76.7135,36.9058]},"properties":{"name":"17130 MONUMENT CIRCLE","styleUrl":"#towerStyle","styleHash":"1d01e409","county":"Isle of Wight County","lat":36.9058,"lng":-76.7135,"structure_type":"TOWER","structure_name":null,"structure_address":"17130 MONUMENT CIRCLE","height":9.1,"base_elevation":15.25037,"structure_owner_name":"Isle of Wight, County of","structure_manager_name":null,"data_source":"FCC: Microwave (GIS)"}},{"type":"Feature","geometry":{"type":"Point","coordinates":[-76.8555,36.7533]},"properties":{"name":"4163 COUNTY LANE WINDSOR (010098)","styleUrl":"#towerStyle","styleHash":"1d01e409","county":"Isle of Wight County","lat":36.7533,"lng":-76.8555,"structure_type":"TOWER","structure_name":null,"structure_address":"4163 COUNTY LANE WINDSOR (010098)","height":92,"base_elevation":23.343507,"structure_owner_name":"Isle of Wight, County of","structure_manager_name":null,"data_source":"FCC: Microwave (GIS)"}},{"type":"Feature","geometry":{"type":"Point","coordinates":[-76.5906,36.9791]},"properties":{"name":"136.2GREENBRIER LANE","styleUrl":"#towerStyle","styleHash":"1d01e409","county":"Isle of Wight County","lat":36.9791,"lng":-76.5906,"structure_type":"TOWER","structure_name":null,"structure_address":"136.2GREENBRIER LANE","height":136.2,"base_elevation":7.480528,"structure_owner_name":"Isle of Wight, County of","structure_manager_name":null,"data_source":"FCC: Microwave (GIS)"}},{"type":"Feature","geometry":{"type":"Point","coordinates":[-76.7497,36.8149]},"properties":{"name":"52 W. Windsor Blvd.","styleUrl":"#towerStyle","styleHash":"1d01e409","county":"Isle of Wight County","lat":36.8149,"lng":-76.7497,"structure_type":"TOWER","structure_name":null,"structure_address":"52 W. Windsor Blvd.","height":82.3,"base_elevation":22.664361,"structure_owner_name":"Community Electric Cooperative","structure_manager_name":null,"data_source":"FCC: Microwave (GIS)"}},{"type":"Feature","geometry":{"type":"Point","coordinates":[-76.7497,36.8149]},"properties":{"name":"52 W. Windsor Blvd.","styleUrl":"#towerStyle","styleHash":"1d01e409","county":"Isle of Wight County","lat":36.8149,"lng":-76.7497,"structure_type":"TOWER","structure_name":null,"structure_address":"52 W. Windsor Blvd.","height":82.3,"base_elevation":22.664361,"structure_owner_name":"Community Electric Cooperative","structure_manager_name":null,"data_source":"FCC: Microwave (GIS)"}},{"type":"Feature","geometry":{"type":"Point","coordinates":[-76.7001,37.0238]},"properties":{"name":"Vertical Asset","styleUrl":"#towerStyle","styleHash":"1d01e409","county":"Isle of Wight County","lat":37.0238,"lng":-76.7001,"structure_type":null,"structure_name":null,"structure_address":null,"height":0,"base_elevation":24.060386,"structure_owner_name":"Aqua Utilities, Inc.","structure_manager_name":null,"data_source":"FCC: Microwave (GIS)"}},{"type":"Feature","geometry":{"type":"Point","coordinates":[-76.8116,36.862399]},"properties":{"name":"Vertical Asset","styleUrl":"#towerStyle","styleHash":"1d01e409","county":"Isle of Wight County","lat":36.862399,"lng":-76.8116,"structure_type":null,"structure_name":null,"structure_address":null,"height":0,"base_elevation":21.184879,"structure_owner_name":"VIRGINIA ELECTRIC AND POWER COMPANY","structure_manager_name":null,"data_source":"FCC: Microwave (GIS)"}},{"type":"Feature","geometry":{"type":"Point","coordinates":[-76.7497,36.8149]},"properties":{"name":"52 W WINDSOR BLVD","styleUrl":"#towerStyle","styleHash":"1d01e409","county":"Isle of Wight County","lat":36.8149,"lng":-76.7497,"structure_type":null,"structure_name":null,"structure_address":"52 W WINDSOR BLVD","height":60,"base_elevation":22.664361,"structure_owner_name":"COMMUNITY ELECTRIC COOPERATIVE","structure_manager_name":null,"data_source":"FCC: Microwave (GIS)"}},{"type":"Feature","geometry":{"type":"Point","coordinates":[-76.5938,36.9507]},"properties":{"name":"14005 BENNS CHURCH BLVD","styleUrl":"#towerStyle","styleHash":"1d01e409","county":"Isle of Wight County","lat":36.9507,"lng":-76.5938,"structure_type":"TOWER","structure_name":null,"structure_address":"14005 BENNS CHURCH BLVD","height":60.3,"base_elevation":8.4244,"structure_owner_name":"Cellco Partnership","structure_manager_name":null,"data_source":"FCC: Microwave (GIS)"}},{"type":"Feature","geometry":{"type":"Point","coordinates":[-76.8175,36.8582]},"properties":{"name":"ROUTE 460 1 MI SE OF","styleUrl":"#towerStyle","styleHash":"1d01e409","county":"Isle of Wight County","lat":36.8582,"lng":-76.8175,"structure_type":"TOWER","structure_name":null,"structure_address":"ROUTE 460 1 MI SE OF","height":90.8,"base_elevation":17.836917,"structure_owner_name":"Cellco Partnership","structure_manager_name":null,"data_source":"FCC: Microwave (GIS)"}},{"type":"Feature","geometry":{"type":"Point","coordinates":[-76.6297,36.9549]},"properties":{"name":"STATE ROUTE 655","styleUrl":"#towerStyle","styleHash":"1d01e409","county":"Isle of Wight County","lat":36.9549,"lng":-76.6297,"structure_type":null,"structure_name":null,"structure_address":"STATE ROUTE 655","height":149.4,"base_elevation":10.234107,"structure_owner_name":"WKGM, INC.","structure_manager_name":null,"data_source":"FCC: Microwave (GIS)"}},{"type":"Feature","geometry":{"type":"Point","coordinates":[-76.7585,36.8158]},"properties":{"name":".63 M AT 322.4 DEGREES FROM INTER OF US RT 258 & ST RT 603","styleUrl":"#towerStyle","styleHash":"1d01e409","county":"Isle of Wight County","lat":36.8158,"lng":-76.7585,"structure_type":null,"structure_name":null,"structure_address":".63 M AT 322.4 DEGREES FROM INTER OF US RT 258 & ST RT 603","height":97.5,"base_elevation":25.234867,"structure_owner_name":"Norfolk Southern Railway Company","structure_manager_name":null,"data_source":"FCC: Microwave (GIS)"}},{"type":"Feature","geometry":{"type":"Point","coordinates":[-76.5231,36.9314]},"properties":{"name":"Vertical Asset","styleUrl":"#towerStyle","styleHash":"1d01e409","county":"Isle of Wight County","lat":36.9314,"lng":-76.5231,"structure_type":null,"structure_name":null,"structure_address":null,"height":0,"base_elevation":6.879399,"structure_owner_name":"American Lifeline Medical Transport, Inc.","structure_manager_name":null,"data_source":"FCC: Land Mobile - Private (GIS)"}},{"type":"Feature","geometry":{"type":"Point","coordinates":[-76.7586,36.8156]},"properties":{"name":"Vertical Asset","styleUrl":"#towerStyle","styleHash":"1d01e409","county":"Isle of Wight County","lat":36.8156,"lng":-76.7586,"structure_type":null,"structure_name":null,"structure_address":null,"height":0,"base_elevation":25.367994,"structure_owner_name":"Norfolk Southern Railway Company","structure_manager_name":null,"data_source":"FCC: Land Mobile - Private (GIS)"}},{"type":"Feature","geometry":{"type":"Point","coordinates":[-76.8953,36.6708]},"properties":{"name":"Vertical Asset","styleUrl":"#towerStyle","styleHash":"1d01e409","county":"Isle of Wight County","lat":36.6708,"lng":-76.8953,"structure_type":null,"structure_name":null,"structure_address":null,"height":0,"base_elevation":7.144633,"structure_owner_name":"INTERNATIONAL PAPER","structure_manager_name":null,"data_source":"FCC: Land Mobile - Private (GIS)"}},{"type":"Feature","geometry":{"type":"Point","coordinates":[-76.7472,36.8097]},"properties":{"name":"Vertical Asset","styleUrl":"#towerStyle","styleHash":"1d01e409","county":"Isle of Wight County","lat":36.8097,"lng":-76.7472,"structure_type":null,"structure_name":null,"structure_address":null,"height":0,"base_elevation":24.861343,"structure_owner_name":"The Scoular Company","structure_manager_name":null,"data_source":"FCC: Land Mobile - Private (GIS)"}},{"type":"Feature","geometry":{"type":"Point","coordinates":[-76.6319,36.9836]},"properties":{"name":"Vertical Asset","styleUrl":"#towerStyle","styleHash":"1d01e409","county":"Isle of Wight County","lat":36.9836,"lng":-76.6319,"structure_type":null,"structure_name":null,"structure_address":null,"height":0,"base_elevation":7.332755,"structure_owner_name":"SMITHFIELD LITTLE THEATRE","structure_manager_name":null,"data_source":"FCC: Land Mobile - Private (GIS)"}},{"type":"Feature","geometry":{"type":"Point","coordinates":[-76.6483,36.9742]},"properties":{"name":"Vertical Asset","styleUrl":"#towerStyle","styleHash":"1d01e409","county":"Isle of Wight County","lat":36.9742,"lng":-76.6483,"structure_type":null,"structure_name":null,"structure_address":null,"height":0,"base_elevation":15.161481,"structure_owner_name":"ISLE OF WIGHT COUNTY SCHOOLS","structure_manager_name":null,"data_source":"FCC: Land Mobile - Private (GIS)"}},{"type":"Feature","geometry":{"type":"Point","coordinates":[-76.7494,36.8147]},"properties":{"name":"52 W WINDSOR BLVD","styleUrl":"#towerStyle","styleHash":"1d01e409","county":"Isle of Wight County","lat":36.8147,"lng":-76.7494,"structure_type":"TOWER","structure_name":null,"structure_address":"52 W WINDSOR BLVD","height":82.3,"base_elevation":24.017169,"structure_owner_name":"COMMUNITY ELECTRIC COOPERATIVE","structure_manager_name":null,"data_source":"FCC: Land Mobile - Private (GIS)"}},{"type":"Feature","geometry":{"type":"Point","coordinates":[-76.59,36.9794]},"properties":{"name":"OFF BATTERY PARK RD.","styleUrl":"#towerStyle","styleHash":"1d01e409","county":"Isle of Wight County","lat":36.9794,"lng":-76.59,"structure_type":"TOWER","structure_name":null,"structure_address":"OFF BATTERY PARK RD.","height":143,"base_elevation":7.420763,"structure_owner_name":"USA Mobility Wireless, Inc.","structure_manager_name":null,"data_source":"FCC: Paging (GIS)"}}]}