{"type":"FeatureCollection","features":[{"type":"Feature","geometry":{"type":"Point","coordinates":[-81.6433,36.8181]},"properties":{"name":"219 SEVEN MILE FORD ROAD","styleUrl":"#towerStyle","styleHash":"1d01e409","county":"Smyth County","lat":36.8181,"lng":-81.6433,"structure_type":null,"structure_name":null,"structure_address":"219 SEVEN MILE FORD ROAD","height":67.1,"base_elevation":640.00476,"structure_owner_name":"United States Cellular Corporation","structure_manager_name":null,"data_source":"FCC: Antenna Structure Registration (GIS)"}},{"type":"Feature","geometry":{"type":"Point","coordinates":[-81.5555,36.8127]},"properties":{"name":"Laurel Springs Road","styleUrl":"#towerStyle","styleHash":"1d01e409","county":"Smyth County","lat":36.8127,"lng":-81.5555,"structure_type":null,"structure_name":null,"structure_address":"Laurel Springs Road","height":88.4,"base_elevation":727.043762,"structure_owner_name":"SBA TOWERS, INC.","structure_manager_name":null,"data_source":"FCC: Antenna Structure Registration (GIS)"}},{"type":"Feature","geometry":{"type":"Point","coordinates":[-81.4246,36.8738]},"properties":{"name":"5981 Ole Hickory Lane","styleUrl":"#towerStyle","styleHash":"1d01e409","county":"Smyth County","lat":36.8738,"lng":-81.4246,"structure_type":null,"structure_name":null,"structure_address":"5981 Ole Hickory Lane","height":85.3,"base_elevation":810.603698,"structure_owner_name":"SBA TOWERS, INC.","structure_manager_name":null,"data_source":"FCC: Antenna Structure Registration (GIS)"}},{"type":"Feature","geometry":{"type":"Point","coordinates":[-81.382099,36.9029]},"properties":{"name":"On Little Brushy Mountain approximately 13 km northeast of Marion, VA","styleUrl":"#towerStyle","styleHash":"1d01e409","county":"Smyth County","lat":36.9029,"lng":-81.382099,"structure_type":null,"structure_name":null,"structure_address":"On Little Brushy Mountain approximately 13 km northeast of Marion, VA","height":40.5,"base_elevation":916.349853,"structure_owner_name":"T.E.C.O. Broadcasting, Inc.","structure_manager_name":null,"data_source":"FCC: Antenna Structure Registration (GIS)"}},{"type":"Feature","geometry":{"type":"Point","coordinates":[-81.5429,36.901299]},"properties":{"name":"HWY 16 N WALKER MOUNTAIN","styleUrl":"#towerStyle","styleHash":"1d01e409","county":"Smyth County","lat":36.901299,"lng":-81.5429,"structure_type":null,"structure_name":null,"structure_address":"HWY 16 N WALKER MOUNTAIN","height":42.7,"base_elevation":1111.957397,"structure_owner_name":"HOLSTON VALLEY BROADCASTING CORPORATION","structure_manager_name":null,"data_source":"FCC: Antenna Structure Registration (GIS)"}},{"type":"Feature","geometry":{"type":"Point","coordinates":[-81.541999,36.9019]},"properties":{"name":"ATOP WALKER MOUNTAIN","styleUrl":"#towerStyle","styleHash":"1d01e409","county":"Smyth County","lat":36.9019,"lng":-81.541999,"structure_type":null,"structure_name":null,"structure_address":"ATOP WALKER MOUNTAIN","height":61.7,"base_elevation":1119.647949,"structure_owner_name":"Blue Ridge Public Television, Inc.","structure_manager_name":null,"data_source":"FCC: Antenna Structure Registration (GIS)"}},{"type":"Feature","geometry":{"type":"Point","coordinates":[-81.51221946,36.82556115]},"properties":{"name":"Euclid Avenue","styleUrl":"#towerStyle","styleHash":"1d01e409","county":"Smyth County","lat":36.82556115,"lng":-81.51221946,"structure_type":"McIntyre Tank","structure_name":null,"structure_address":"Euclid Avenue","height":null,"base_elevation":2369.185596,"structure_owner_name":"Marion, Town of","structure_manager_name":null,"data_source":"Virginia Municipal League"}},{"type":"Feature","geometry":{"type":"Point","coordinates":[-81.750524,36.872218]},"properties":{"name":"Highway 107","styleUrl":"#towerStyle","styleHash":"1d01e409","county":"Smyth County","lat":36.872218,"lng":-81.750524,"structure_type":"Water Tank","structure_name":null,"structure_address":"Highway 107","height":null,"base_elevation":1987.421495,"structure_owner_name":"Saltville, Town of","structure_manager_name":null,"data_source":"Virginia Municipal League"}},{"type":"Feature","geometry":{"type":"Point","coordinates":[-81.78996357,36.90152078]},"properties":{"name":"Lickskillet","styleUrl":"#towerStyle","styleHash":"1d01e409","county":"Smyth County","lat":36.90152078,"lng":-81.78996357,"structure_type":"Water Tank","structure_name":null,"structure_address":"Lickskillet","height":null,"base_elevation":2347.126232,"structure_owner_name":"Saltville, Town of","structure_manager_name":null,"data_source":"Virginia Municipal League"}},{"type":"Feature","geometry":{"type":"Point","coordinates":[-81.6358632,36.71306281]},"properties":{"name":"Mill Creek Road","styleUrl":"#towerStyle","styleHash":"1d01e409","county":"Smyth County","lat":36.71306281,"lng":-81.6358632,"structure_type":"Steel Water Tank","structure_name":null,"structure_address":"Mill Creek Road","height":null,"base_elevation":2509.968956,"structure_owner_name":"Chilhowie, Town of","structure_manager_name":null,"data_source":"Virginia Municipal League"}},{"type":"Feature","geometry":{"type":"Point","coordinates":[-81.67279233,36.77122714]},"properties":{"name":"Needmore Rd","styleUrl":"#towerStyle","styleHash":"1d01e409","county":"Smyth County","lat":36.77122714,"lng":-81.67279233,"structure_type":"Water Tank","structure_name":null,"structure_address":"Needmore Rd","height":null,"base_elevation":2256.973819,"structure_owner_name":"Chilhowie, Town of","structure_manager_name":null,"data_source":"Virginia Municipal League"}},{"type":"Feature","geometry":{"type":"Point","coordinates":[-81.485218,36.85631]},"properties":{"name":"North of Plant","styleUrl":"#towerStyle","styleHash":"1d01e409","county":"Smyth County","lat":36.85631,"lng":-81.485218,"structure_type":"Cold Water Tank","structure_name":null,"structure_address":"North of Plant","height":null,"base_elevation":2381.538007,"structure_owner_name":"Marion, Town of","structure_manager_name":null,"data_source":"Virginia Municipal League"}},{"type":"Feature","geometry":{"type":"Point","coordinates":[-81.485218,36.85631]},"properties":{"name":"North of Plant","styleUrl":"#towerStyle","styleHash":"1d01e409","county":"Smyth County","lat":36.85631,"lng":-81.485218,"structure_type":"Hot Water Tank","structure_name":null,"structure_address":"North of Plant","height":null,"base_elevation":2381.538007,"structure_owner_name":"Marion, Town of","structure_manager_name":null,"data_source":"Virginia Municipal League"}},{"type":"Feature","geometry":{"type":"Point","coordinates":[-81.75075308,36.88664915]},"properties":{"name":"Old Tram Road","styleUrl":"#towerStyle","styleHash":"1d01e409","county":"Smyth County","lat":36.88664915,"lng":-81.75075308,"structure_type":"Old Tram Water Tank","structure_name":null,"structure_address":"Old Tram Road","height":null,"base_elevation":1935.456305,"structure_owner_name":"Saltville, Town of","structure_manager_name":null,"data_source":"Virginia Municipal League"}},{"type":"Feature","geometry":{"type":"Point","coordinates":[-81.7442643,36.87759215]},"properties":{"name":"Ridgeview Road","styleUrl":"#towerStyle","styleHash":"1d01e409","county":"Smyth County","lat":36.87759215,"lng":-81.7442643,"structure_type":"Water Tank NO. 1","structure_name":null,"structure_address":"Ridgeview Road","height":null,"base_elevation":2116.40953,"structure_owner_name":"Saltville, Town of","structure_manager_name":null,"data_source":"Virginia Municipal League"}},{"type":"Feature","geometry":{"type":"Point","coordinates":[-81.74419768,36.87759215]},"properties":{"name":"Ridgeview Road","styleUrl":"#towerStyle","styleHash":"1d01e409","county":"Smyth County","lat":36.87759215,"lng":-81.74419768,"structure_type":"Water Tank No. 2","structure_name":null,"structure_address":"Ridgeview Road","height":null,"base_elevation":2124.865542,"structure_owner_name":"Saltville, Town of","structure_manager_name":null,"data_source":"Virginia Municipal League"}},{"type":"Feature","geometry":{"type":"Point","coordinates":[-81.750796,36.886686]},"properties":{"name":"Tram Road","styleUrl":"#towerStyle","styleHash":"1d01e409","county":"Smyth County","lat":36.886686,"lng":-81.750796,"structure_type":"Tram Road Water Tank","structure_name":null,"structure_address":"Tram Road","height":null,"base_elevation":1928.104252,"structure_owner_name":"Saltville, Town of","structure_manager_name":null,"data_source":"Virginia Municipal League"}},{"type":"Feature","geometry":{"type":"Point","coordinates":[-81.485,36.856]},"properties":{"name":"WTP","styleUrl":"#towerStyle","styleHash":"1d01e409","county":"Smyth County","lat":36.856,"lng":-81.485,"structure_type":"High Level Tank","structure_name":null,"structure_address":"WTP","height":null,"base_elevation":2378.907568,"structure_owner_name":"Marion, Town of","structure_manager_name":null,"data_source":"Virginia Municipal League"}},{"type":"Feature","geometry":{"type":"Point","coordinates":[-81.7449,36.8679]},"properties":{"name":"400' East of 535 Campbell Drive","styleUrl":"#towerStyle","styleHash":"1d01e409","county":"Smyth County","lat":36.8679,"lng":-81.7449,"structure_type":null,"structure_name":null,"structure_address":"400' East of 535 Campbell Drive","height":79.3,"base_elevation":751.301879,"structure_owner_name":"SBA Towers II LLC","structure_manager_name":null,"data_source":"FCC: Antenna Structure Registration (GIS)"}},{"type":"Feature","geometry":{"type":"Point","coordinates":[-81.5426,36.9014]},"properties":{"name":"ON  WALKER  MOUNTAIN  OFF HWY. 16","styleUrl":"#towerStyle","styleHash":"1d01e409","county":"Smyth County","lat":36.9014,"lng":-81.5426,"structure_type":null,"structure_name":null,"structure_address":"ON  WALKER  MOUNTAIN  OFF HWY. 16","height":54.9,"base_elevation":1110.773071,"structure_owner_name":"Virginia RSA 2 Limited Partnership","structure_manager_name":null,"data_source":"FCC: Antenna Structure Registration (GIS)"}},{"type":"Feature","geometry":{"type":"Point","coordinates":[-81.3289,36.75]},"properties":{"name":"Off Lost Lake Rd, 4.84 mi SE of","styleUrl":"#towerStyle","styleHash":"1d01e409","county":"Smyth County","lat":36.75,"lng":-81.3289,"structure_type":null,"structure_name":null,"structure_address":"Off Lost Lake Rd, 4.84 mi SE of","height":100.6,"base_elevation":1321.860351,"structure_owner_name":"Appalachian Power Company DBA American Electric Power","structure_manager_name":null,"data_source":"FCC: Antenna Structure Registration (GIS)"}},{"type":"Feature","geometry":{"type":"Point","coordinates":[-81.3825,36.8893]},"properties":{"name":"211 Davis Valley Road","styleUrl":"#towerStyle","styleHash":"1d01e409","county":"Smyth County","lat":36.8893,"lng":-81.3825,"structure_type":null,"structure_name":null,"structure_address":"211 Davis Valley Road","height":42.7,"base_elevation":773.619567,"structure_owner_name":"CROWN COMMUNICATION LLC","structure_manager_name":null,"data_source":"FCC: Antenna Structure Registration (GIS)"}},{"type":"Feature","geometry":{"type":"Point","coordinates":[-81.4745,36.8616]},"properties":{"name":"147 Snyder Branch Rd.","styleUrl":"#towerStyle","styleHash":"1d01e409","county":"Smyth County","lat":36.8616,"lng":-81.4745,"structure_type":null,"structure_name":null,"structure_address":"147 Snyder Branch Rd.","height":91.4,"base_elevation":775.293395,"structure_owner_name":"CROWN COMMUNICATION LLC","structure_manager_name":null,"data_source":"FCC: Antenna Structure Registration (GIS)"}},{"type":"Feature","geometry":{"type":"Point","coordinates":[-81.4898,36.8395]},"properties":{"name":"203 Barrister Ln (015404)","styleUrl":"#towerStyle","styleHash":"1d01e409","county":"Smyth County","lat":36.8395,"lng":-81.4898,"structure_type":null,"structure_name":null,"structure_address":"203 Barrister Ln (015404)","height":59.7,"base_elevation":726.186645,"structure_owner_name":"American Towers, LLC.","structure_manager_name":null,"data_source":"FCC: Antenna Structure Registration (GIS)"}},{"type":"Feature","geometry":{"type":"Point","coordinates":[-81.4222,36.8584]},"properties":{"name":"276 Mountain Empire Rd.     ( 010161 )","styleUrl":"#towerStyle","styleHash":"1d01e409","county":"Smyth County","lat":36.8584,"lng":-81.4222,"structure_type":null,"structure_name":null,"structure_address":"276 Mountain Empire Rd.     ( 010161 )","height":76.5,"base_elevation":744.830139,"structure_owner_name":"American Towers, LLC.","structure_manager_name":null,"data_source":"FCC: Antenna Structure Registration (GIS)"}},{"type":"Feature","geometry":{"type":"Point","coordinates":[-81.3856,36.854]},"properties":{"name":"2.25 mi ene fm int of VA622 & VA686 near","styleUrl":"#towerStyle","styleHash":"1d01e409","county":"Smyth County","lat":36.854,"lng":-81.3856,"structure_type":null,"structure_name":null,"structure_address":"2.25 mi ene fm int of VA622 & VA686 near","height":45.7,"base_elevation":946.291503,"structure_owner_name":"NORFOLK SOUTHERN RAILWAY COMPANY","structure_manager_name":null,"data_source":"FCC: Antenna Structure Registration (GIS)"}},{"type":"Feature","geometry":{"type":"Point","coordinates":[-81.5047,36.8561]},"properties":{"name":"AT THE END OF RADIO HILL RD","styleUrl":"#towerStyle","styleHash":"1d01e409","county":"Smyth County","lat":36.8561,"lng":-81.5047,"structure_type":null,"structure_name":null,"structure_address":"AT THE END OF RADIO HILL RD","height":76.5,"base_elevation":788.700378,"structure_owner_name":"HOLSTON VALLEY BROADCASTING CORPORATION","structure_manager_name":null,"data_source":"FCC: Antenna Structure Registration (GIS)"}},{"type":"Feature","geometry":{"type":"Point","coordinates":[-81.5069,36.824]},"properties":{"name":"Matson Drive","styleUrl":"#towerStyle","styleHash":"1d01e409","county":"Smyth County","lat":36.824,"lng":-81.5069,"structure_type":null,"structure_name":null,"structure_address":"Matson Drive","height":83.8,"base_elevation":770.073547,"structure_owner_name":"SBA Towers, Inc","structure_manager_name":null,"data_source":"FCC: Antenna Structure Registration (GIS)"}},{"type":"Feature","geometry":{"type":"Point","coordinates":[-81.6719,36.8125]},"properties":{"name":"LYONS GAP ROAD","styleUrl":"#towerStyle","styleHash":"1d01e409","county":"Smyth County","lat":36.8125,"lng":-81.6719,"structure_type":null,"structure_name":null,"structure_address":"LYONS GAP ROAD","height":88.4,"base_elevation":663.856445,"structure_owner_name":"SBA Towers, Inc.","structure_manager_name":null,"data_source":"FCC: Antenna Structure Registration (GIS)"}},{"type":"Feature","geometry":{"type":"Point","coordinates":[-81.7331,36.9464]},"properties":{"name":"11.5 KM NORTH OF SALTVILLE","styleUrl":"#towerStyle","styleHash":"1d01e409","county":"Smyth County","lat":36.9464,"lng":-81.7331,"structure_type":"TOWER","structure_name":null,"structure_address":"11.5 KM NORTH OF SALTVILLE","height":57.9,"base_elevation":1226.220581,"structure_owner_name":"SMYTH COUNTY BOARD OF SUPERVISORS","structure_manager_name":null,"data_source":"FCC: Land Mobile - Private (GIS)"}},{"type":"Feature","geometry":{"type":"Point","coordinates":[-81.3289,36.75]},"properties":{"name":"OFF LOST LAKE RD, 4.84 MI SE OF","styleUrl":"#towerStyle","styleHash":"1d01e409","county":"Smyth County","lat":36.75,"lng":-81.3289,"structure_type":"TOWER","structure_name":null,"structure_address":"OFF LOST LAKE RD, 4.84 MI SE OF","height":106.7,"base_elevation":1321.860351,"structure_owner_name":"SMYTH COUNTY BOARD OF SUPERVISORS","structure_manager_name":null,"data_source":"FCC: Land Mobile - Private (GIS)"}},{"type":"Feature","geometry":{"type":"Point","coordinates":[-81.539999,36.9017]},"properties":{"name":"8 KM NORTH OF MARION OFF STATE ROUTE 16","styleUrl":"#towerStyle","styleHash":"1d01e409","county":"Smyth County","lat":36.9017,"lng":-81.539999,"structure_type":"TOWER","structure_name":null,"structure_address":"8 KM NORTH OF MARION OFF STATE ROUTE 16","height":50,"base_elevation":1070.889648,"structure_owner_name":"SMYTH COUNTY BOARD OF SUPERVISORS","structure_manager_name":null,"data_source":"FCC: Land Mobile - Private (GIS)"}},{"type":"Feature","geometry":{"type":"Point","coordinates":[-81.6797,36.8003]},"properties":{"name":"MUNICIPAL BUILDING 325 E LEE HWY","styleUrl":"#towerStyle","styleHash":"1d01e409","county":"Smyth County","lat":36.8003,"lng":-81.6797,"structure_type":"BMAST","structure_name":null,"structure_address":"MUNICIPAL BUILDING 325 E LEE HWY","height":15.2,"base_elevation":594.866821,"structure_owner_name":"CHILHOWIE, TOWN OF","structure_manager_name":null,"data_source":"FCC: Land Mobile - Private (GIS)"}},{"type":"Feature","geometry":{"type":"Point","coordinates":[-81.4231,36.9003]},"properties":{"name":"Nebo  6.9mi  NE","styleUrl":"#towerStyle","styleHash":"1d01e409","county":"Smyth County","lat":36.9003,"lng":-81.4231,"structure_type":"PIPE","structure_name":null,"structure_address":"Nebo  6.9mi  NE","height":5.2,"base_elevation":741.75122,"structure_owner_name":"Virginia Department of Emergency Management","structure_manager_name":null,"data_source":"FCC: Land Mobile - Private (GIS)"}},{"type":"Feature","geometry":{"type":"Point","coordinates":[-81.728299,36.8361]},"properties":{"name":"Walker House  3.71mi  NW","styleUrl":"#towerStyle","styleHash":"1d01e409","county":"Smyth County","lat":36.8361,"lng":-81.728299,"structure_type":"PIPE","structure_name":null,"structure_address":"Walker House  3.71mi  NW","height":5.2,"base_elevation":904.064086,"structure_owner_name":"Virginia Department of Emergency Management","structure_manager_name":null,"data_source":"FCC: Land Mobile - Private (GIS)"}},{"type":"Feature","geometry":{"type":"Point","coordinates":[-81.3433,36.8942]},"properties":{"name":"Empire Airport  3.68mi   W","styleUrl":"#towerStyle","styleHash":"1d01e409","county":"Smyth County","lat":36.8942,"lng":-81.3433,"structure_type":"PIPE","structure_name":null,"structure_address":"Empire Airport  3.68mi   W","height":5.2,"base_elevation":754.215759,"structure_owner_name":"Virginia Department of Emergency Management","structure_manager_name":null,"data_source":"FCC: Land Mobile - Private (GIS)"}},{"type":"Feature","geometry":{"type":"Point","coordinates":[-81.4247,36.8094]},"properties":{"name":"Mount Rogers  5.28mi  ESE","styleUrl":"#towerStyle","styleHash":"1d01e409","county":"Smyth County","lat":36.8094,"lng":-81.4247,"structure_type":"PIPE","structure_name":null,"structure_address":"Mount Rogers  5.28mi  ESE","height":5.2,"base_elevation":1029.567871,"structure_owner_name":"Virginia Department of Emergency Management","structure_manager_name":null,"data_source":"FCC: Land Mobile - Private (GIS)"}},{"type":"Feature","geometry":{"type":"Point","coordinates":[-81.6222,36.8075]},"properties":{"name":"Seven Mile Ford 6.2 mi WSW","styleUrl":"#towerStyle","styleHash":"1d01e409","county":"Smyth County","lat":36.8075,"lng":-81.6222,"structure_type":"PIPE","structure_name":null,"structure_address":"Seven Mile Ford 6.2 mi WSW","height":5.2,"base_elevation":603.424133,"structure_owner_name":"Virginia Department of Emergency Management","structure_manager_name":null,"data_source":"FCC: Land Mobile - Private (GIS)"}},{"type":"Feature","geometry":{"type":"Point","coordinates":[-81.542199,36.9022]},"properties":{"name":"ATOP WALKER MOUNTAIN","styleUrl":"#towerStyle","styleHash":"1d01e409","county":"Smyth County","lat":36.9022,"lng":-81.542199,"structure_type":"TOWER","structure_name":null,"structure_address":"ATOP WALKER MOUNTAIN","height":43,"base_elevation":1124.886962,"structure_owner_name":"SMYTH, COUNTY OF","structure_manager_name":null,"data_source":"FCC: Land Mobile - Private (GIS)"}},{"type":"Feature","geometry":{"type":"Point","coordinates":[-81.3989,36.7814]},"properties":{"name":"1/2 MILE EAST OF SR 16","styleUrl":"#towerStyle","styleHash":"1d01e409","county":"Smyth County","lat":36.7814,"lng":-81.3989,"structure_type":"BMAST","structure_name":null,"structure_address":"1/2 MILE EAST OF SR 16","height":18.3,"base_elevation":836.364868,"structure_owner_name":"SMYTH, COUNTY OF","structure_manager_name":null,"data_source":"FCC: Land Mobile - Private (GIS)"}},{"type":"Feature","geometry":{"type":"Point","coordinates":[-81.6797,36.8003]},"properties":{"name":"Vertical Asset","styleUrl":"#towerStyle","styleHash":"1d01e409","county":"Smyth County","lat":36.8003,"lng":-81.6797,"structure_type":null,"structure_name":null,"structure_address":null,"height":0,"base_elevation":594.866821,"structure_owner_name":"TOWN OF CHILHOWIE","structure_manager_name":null,"data_source":"FCC: Land Mobile - Private (GIS)"}},{"type":"Feature","geometry":{"type":"Point","coordinates":[-81.3289,36.75]},"properties":{"name":"OFF LOST LAKE RD 4.84 MI SE OF SUGAR GROVE","styleUrl":"#towerStyle","styleHash":"1d01e409","county":"Smyth County","lat":36.75,"lng":-81.3289,"structure_type":"TOWER","structure_name":null,"structure_address":"OFF LOST LAKE RD 4.84 MI SE OF SUGAR GROVE","height":106.7,"base_elevation":1321.860351,"structure_owner_name":"SMYTH COUNTY BOARD OF SUPERVISORS","structure_manager_name":null,"data_source":"FCC: Land Mobile - Private (GIS)"}},{"type":"Feature","geometry":{"type":"Point","coordinates":[-81.7331,36.9464]},"properties":{"name":"11.5 KM NORTH OF SALTVILLE","styleUrl":"#towerStyle","styleHash":"1d01e409","county":"Smyth County","lat":36.9464,"lng":-81.7331,"structure_type":"TOWER","structure_name":null,"structure_address":"11.5 KM NORTH OF SALTVILLE","height":57.9,"base_elevation":1226.220581,"structure_owner_name":"SMYTH COUNTY BOARD OF SUPERVISORS","structure_manager_name":null,"data_source":"FCC: Land Mobile - Private (GIS)"}},{"type":"Feature","geometry":{"type":"Point","coordinates":[-81.539999,36.9017]},"properties":{"name":"8 KM NORTH OF MARION OFF STATE ROUTE 16","styleUrl":"#towerStyle","styleHash":"1d01e409","county":"Smyth County","lat":36.9017,"lng":-81.539999,"structure_type":"TOWER","structure_name":null,"structure_address":"8 KM NORTH OF MARION OFF STATE ROUTE 16","height":50,"base_elevation":1070.889648,"structure_owner_name":"SMYTH COUNTY BOARD OF SUPERVISORS","structure_manager_name":null,"data_source":"FCC: Land Mobile - Private (GIS)"}},{"type":"Feature","geometry":{"type":"Point","coordinates":[-81.5136,36.8575]},"properties":{"name":"1499 PARK BLVD.","styleUrl":"#towerStyle","styleHash":"1d01e409","county":"Smyth County","lat":36.8575,"lng":-81.5136,"structure_type":"TANK","structure_name":null,"structure_address":"1499 PARK BLVD.","height":17,"base_elevation":743.65686,"structure_owner_name":"MARION, TOWN OF","structure_manager_name":null,"data_source":"FCC: Land Mobile - Private (GIS)"}},{"type":"Feature","geometry":{"type":"Point","coordinates":[-81.5783,36.8361]},"properties":{"name":"WALKER HOUSE, 6 KMS NE","styleUrl":"#towerStyle","styleHash":"1d01e409","county":"Smyth County","lat":36.8361,"lng":-81.5783,"structure_type":"TOWER","structure_name":null,"structure_address":"WALKER HOUSE, 6 KMS NE","height":22,"base_elevation":707.466979,"structure_owner_name":"ABINGDON AMBULANCE SERVICE, INC.","structure_manager_name":null,"data_source":"FCC: Land Mobile - Private (GIS)"}},{"type":"Feature","geometry":{"type":"Point","coordinates":[-81.3289,36.75]},"properties":{"name":"Off Lost Lake Rd 4.84 Miles SE","styleUrl":"#towerStyle","styleHash":"1d01e409","county":"Smyth County","lat":36.75,"lng":-81.3289,"structure_type":"TOWER","structure_name":null,"structure_address":"Off Lost Lake Rd 4.84 Miles SE","height":106.7,"base_elevation":1321.860351,"structure_owner_name":"American Electric Power Service Corporation","structure_manager_name":null,"data_source":"FCC: Land Mobile - Private (GIS)"}},{"type":"Feature","geometry":{"type":"Point","coordinates":[-81.61,36.6389]},"properties":{"name":"Vertical Asset","styleUrl":"#towerStyle","styleHash":"1d01e409","county":"Smyth County","lat":36.6389,"lng":-81.61,"structure_type":null,"structure_name":null,"structure_address":null,"height":0,"base_elevation":1650.113037,"structure_owner_name":"VIRGINIA, COMMONWEALTH OF","structure_manager_name":null,"data_source":"FCC: Land Mobile - Private (GIS)"}},{"type":"Feature","geometry":{"type":"Point","coordinates":[-81.505,36.8353]},"properties":{"name":"BLDG AT150 JOHNSON RD","styleUrl":"#towerStyle","styleHash":"1d01e409","county":"Smyth County","lat":36.8353,"lng":-81.505,"structure_type":"BANT","structure_name":null,"structure_address":"BLDG AT150 JOHNSON RD","height":12,"base_elevation":656.990783,"structure_owner_name":"GENERAL DYNAMICS ATP","structure_manager_name":null,"data_source":"FCC: Land Mobile - Private (GIS)"}},{"type":"Feature","geometry":{"type":"Point","coordinates":[-81.6939,36.7894]},"properties":{"name":"355 Industrial Park Drive","styleUrl":"#towerStyle","styleHash":"1d01e409","county":"Smyth County","lat":36.7894,"lng":-81.6939,"structure_type":"BANT","structure_name":null,"structure_address":"355 Industrial Park Drive","height":7.6,"base_elevation":594.283203,"structure_owner_name":"Epoch Composite Products","structure_manager_name":null,"data_source":"FCC: Land Mobile - Private (GIS)"}},{"type":"Feature","geometry":{"type":"Point","coordinates":[-81.4164,36.8695]},"properties":{"name":"RT626 RR crossing at MP NB357.94","styleUrl":"#towerStyle","styleHash":"1d01e409","county":"Smyth County","lat":36.8695,"lng":-81.4164,"structure_type":"BANT","structure_name":null,"structure_address":"RT626 RR crossing at MP NB357.94","height":3.1,"base_elevation":701.61322,"structure_owner_name":"Norfolk Southern Railway Company","structure_manager_name":null,"data_source":"FCC: Land Mobile - Private (GIS)"}},{"type":"Feature","geometry":{"type":"Point","coordinates":[-81.3994,36.875]},"properties":{"name":"RT685 RR crossing at MP NB356.92","styleUrl":"#towerStyle","styleHash":"1d01e409","county":"Smyth County","lat":36.875,"lng":-81.3994,"structure_type":"BANT","structure_name":null,"structure_address":"RT685 RR crossing at MP NB356.92","height":3.1,"base_elevation":715.681457,"structure_owner_name":"Norfolk Southern Railway Company","structure_manager_name":null,"data_source":"FCC: Land Mobile - Private (GIS)"}},{"type":"Feature","geometry":{"type":"Point","coordinates":[-81.381899,36.8811]},"properties":{"name":"RT 684 RR crossing at MP NB355.85","styleUrl":"#towerStyle","styleHash":"1d01e409","county":"Smyth County","lat":36.8811,"lng":-81.381899,"structure_type":"BANT","structure_name":null,"structure_address":"RT 684 RR crossing at MP NB355.85","height":3.1,"base_elevation":725.310424,"structure_owner_name":"Norfolk Southern Railway Company","structure_manager_name":null,"data_source":"FCC: Land Mobile - Private (GIS)"}},{"type":"Feature","geometry":{"type":"Point","coordinates":[-81.7431,36.8689]},"properties":{"name":"EDGEWOOD SUBDIVISION ON SR 107 NEAR","styleUrl":"#towerStyle","styleHash":"1d01e409","county":"Smyth County","lat":36.8689,"lng":-81.7431,"structure_type":"TOWER","structure_name":null,"structure_address":"EDGEWOOD SUBDIVISION ON SR 107 NEAR","height":32,"base_elevation":771.922973,"structure_owner_name":"SALTVILLE, TOWN OF","structure_manager_name":null,"data_source":"FCC: Land Mobile - Private (GIS)"}},{"type":"Feature","geometry":{"type":"Point","coordinates":[-81.4197,36.8639]},"properties":{"name":"Vertical Asset","styleUrl":"#towerStyle","styleHash":"1d01e409","county":"Smyth County","lat":36.8639,"lng":-81.4197,"structure_type":null,"structure_name":null,"structure_address":null,"height":0,"base_elevation":749.604431,"structure_owner_name":"MASCO BUILDER CABINET GROUP","structure_manager_name":null,"data_source":"FCC: Land Mobile - Private (GIS)"}},{"type":"Feature","geometry":{"type":"Point","coordinates":[-81.4197,36.8639]},"properties":{"name":"PLANT #14 AT 649 MULBERRY LANE","styleUrl":"#towerStyle","styleHash":"1d01e409","county":"Smyth County","lat":36.8639,"lng":-81.4197,"structure_type":"BMAST","structure_name":null,"structure_address":"PLANT #14 AT 649 MULBERRY LANE","height":18.3,"base_elevation":749.604431,"structure_owner_name":"MASCO BUILDER CABINET GROUP","structure_manager_name":null,"data_source":"FCC: Land Mobile - Private (GIS)"}},{"type":"Feature","geometry":{"type":"Point","coordinates":[-81.347199,36.8897]},"properties":{"name":"RT-679 RR crossing @ MP NB 353.60","styleUrl":"#towerStyle","styleHash":"1d01e409","county":"Smyth County","lat":36.8897,"lng":-81.347199,"structure_type":"BANT","structure_name":null,"structure_address":"RT-679 RR crossing @ MP NB 353.60","height":3.1,"base_elevation":747.336791,"structure_owner_name":"Norfolk Southern Railway Company","structure_manager_name":null,"data_source":"FCC: Land Mobile - Private (GIS)"}},{"type":"Feature","geometry":{"type":"Point","coordinates":[-81.6286,36.8106]},"properties":{"name":"SR-642 RR crossing @ MP NB 371.30","styleUrl":"#towerStyle","styleHash":"1d01e409","county":"Smyth County","lat":36.8106,"lng":-81.6286,"structure_type":"BANT","structure_name":null,"structure_address":"SR-642 RR crossing @ MP NB 371.30","height":3.1,"base_elevation":606.927856,"structure_owner_name":"Norfolk Southern Railway Company","structure_manager_name":null,"data_source":"FCC: Land Mobile - Private (GIS)"}},{"type":"Feature","geometry":{"type":"Point","coordinates":[-81.5592,36.8186]},"properties":{"name":"RT 660 RR crossing @ MP NB 366.99","styleUrl":"#towerStyle","styleHash":"1d01e409","county":"Smyth County","lat":36.8186,"lng":-81.5592,"structure_type":"BANT","structure_name":null,"structure_address":"RT 660 RR crossing @ MP NB 366.99","height":3.1,"base_elevation":652.768188,"structure_owner_name":"Norfolk Southern Railway Company","structure_manager_name":null,"data_source":"FCC: Land Mobile - Private (GIS)"}},{"type":"Feature","geometry":{"type":"Point","coordinates":[-81.6753,36.8017]},"properties":{"name":"Pine Street RR crossing at MP NB374.07","styleUrl":"#towerStyle","styleHash":"1d01e409","county":"Smyth County","lat":36.8017,"lng":-81.6753,"structure_type":"BANT","structure_name":null,"structure_address":"Pine Street RR crossing at MP NB374.07","height":3.1,"base_elevation":591.772827,"structure_owner_name":"Norfolk Southern Railway Company","structure_manager_name":null,"data_source":"FCC: Land Mobile - Private (GIS)"}},{"type":"Feature","geometry":{"type":"Point","coordinates":[-81.5783,36.8361]},"properties":{"name":"WALKER HOUSE 3.8 MI NE OF CHILHOWIE","styleUrl":"#towerStyle","styleHash":"1d01e409","county":"Smyth County","lat":36.8361,"lng":-81.5783,"structure_type":"TOWER","structure_name":null,"structure_address":"WALKER HOUSE 3.8 MI NE OF CHILHOWIE","height":21,"base_elevation":707.466979,"structure_owner_name":"SALTVILLE RESCUE SQUAD INC","structure_manager_name":null,"data_source":"FCC: Land Mobile - Private (GIS)"}},{"type":"Feature","geometry":{"type":"Point","coordinates":[-81.5425,36.9022]},"properties":{"name":"WALKER MTN NEAR","styleUrl":"#towerStyle","styleHash":"1d01e409","county":"Smyth County","lat":36.9022,"lng":-81.5425,"structure_type":"TOWER","structure_name":null,"structure_address":"WALKER MTN NEAR","height":38,"base_elevation":1116.737915,"structure_owner_name":"TWO WAY RADIO INCORPORATED","structure_manager_name":null,"data_source":"FCC: Land Mobile - Private (GIS)"}},{"type":"Feature","geometry":{"type":"Point","coordinates":[-81.61,36.6389]},"properties":{"name":"Vertical Asset","styleUrl":"#towerStyle","styleHash":"1d01e409","county":"Smyth County","lat":36.6389,"lng":-81.61,"structure_type":null,"structure_name":null,"structure_address":null,"height":0,"base_elevation":1650.113037,"structure_owner_name":"Virginia Department of Forestry","structure_manager_name":null,"data_source":"FCC: Land Mobile - Private (GIS)"}},{"type":"Feature","geometry":{"type":"Point","coordinates":[-81.409999,36.8695]},"properties":{"name":"Vertical Asset","styleUrl":"#towerStyle","styleHash":"1d01e409","county":"Smyth County","lat":36.8695,"lng":-81.409999,"structure_type":null,"structure_name":null,"structure_address":null,"height":0,"base_elevation":708.916625,"structure_owner_name":"ATKINS VOLUNTEER FIRE DEPARTMENT INC","structure_manager_name":null,"data_source":"FCC: Land Mobile - Private (GIS)"}},{"type":"Feature","geometry":{"type":"Point","coordinates":[-81.7258,36.8372]},"properties":{"name":"Dispatcher Base  at RR MP NB374.4 East of RR Station","styleUrl":"#towerStyle","styleHash":"1d01e409","county":"Smyth County","lat":36.8372,"lng":-81.7258,"structure_type":"TOWER","structure_name":null,"structure_address":"Dispatcher Base  at RR MP NB374.4 East of RR Station","height":53.3,"base_elevation":885.280456,"structure_owner_name":"Norfolk Southern Railway Company","structure_manager_name":null,"data_source":"FCC: Land Mobile - Private (GIS)"}},{"type":"Feature","geometry":{"type":"Point","coordinates":[-81.3856,36.8539]},"properties":{"name":"2.25 mi ene fm int of VA622 & VA686 near","styleUrl":"#towerStyle","styleHash":"1d01e409","county":"Smyth County","lat":36.8539,"lng":-81.3856,"structure_type":"TOWER","structure_name":null,"structure_address":"2.25 mi ene fm int of VA622 & VA686 near","height":45.7,"base_elevation":946.470947,"structure_owner_name":"Norfolk Southern Railway Company","structure_manager_name":null,"data_source":"FCC: Land Mobile - Private (GIS)"}},{"type":"Feature","geometry":{"type":"Point","coordinates":[-81.7286,36.8361]},"properties":{"name":"WALKER HOUSE 3.8 M NE OF CHILHOWIE","styleUrl":"#towerStyle","styleHash":"1d01e409","county":"Smyth County","lat":36.8361,"lng":-81.7286,"structure_type":"TOWER","structure_name":null,"structure_address":"WALKER HOUSE 3.8 M NE OF CHILHOWIE","height":15,"base_elevation":907.977661,"structure_owner_name":"SMYTH, COUNTY OF","structure_manager_name":null,"data_source":"FCC: Land Mobile - Private (GIS)"}},{"type":"Feature","geometry":{"type":"Point","coordinates":[-81.6808,36.8]},"properties":{"name":"Vertical Asset","styleUrl":"#towerStyle","styleHash":"1d01e409","county":"Smyth County","lat":36.8,"lng":-81.6808,"structure_type":null,"structure_name":null,"structure_address":null,"height":0,"base_elevation":595.973693,"structure_owner_name":"CHILHOWIE, TOWN OF","structure_manager_name":null,"data_source":"FCC: Land Mobile - Private (GIS)"}},{"type":"Feature","geometry":{"type":"Point","coordinates":[-81.520499,36.8322]},"properties":{"name":"138 MAIN ST","styleUrl":"#towerStyle","styleHash":"1d01e409","county":"Smyth County","lat":36.8322,"lng":-81.520499,"structure_type":"BMAST","structure_name":null,"structure_address":"138 MAIN ST","height":15.2,"base_elevation":668.42163,"structure_owner_name":"DISTRICT 3 GOVERNMENTAL COOPERATIVE","structure_manager_name":null,"data_source":"FCC: Land Mobile - Private (GIS)"}},{"type":"Feature","geometry":{"type":"Point","coordinates":[-81.5428,36.9017]},"properties":{"name":"OFF RT 16 6.5 MI N","styleUrl":"#towerStyle","styleHash":"1d01e409","county":"Smyth County","lat":36.9017,"lng":-81.5428,"structure_type":"TOWER","structure_name":null,"structure_address":"OFF RT 16 6.5 MI N","height":50,"base_elevation":1124.585083,"structure_owner_name":"AMERICAN ELECTRIC POWER SERVICE CORPORATION","structure_manager_name":null,"data_source":"FCC: Land Mobile - Private (GIS)"}},{"type":"Feature","geometry":{"type":"Point","coordinates":[-81.3461,36.8886]},"properties":{"name":"Detector   RR MP NB 353.5","styleUrl":"#towerStyle","styleHash":"1d01e409","county":"Smyth County","lat":36.8886,"lng":-81.3461,"structure_type":"B","structure_name":null,"structure_address":"Detector   RR MP NB 353.5","height":4,"base_elevation":745.367309,"structure_owner_name":"Norfolk Southern Railway Company","structure_manager_name":null,"data_source":"FCC: Land Mobile - Private (GIS)"}},{"type":"Feature","geometry":{"type":"Point","coordinates":[-81.5311,36.8269]},"properties":{"name":"Detector, RR MP NB 365.4","styleUrl":"#towerStyle","styleHash":"1d01e409","county":"Smyth County","lat":36.8269,"lng":-81.5311,"structure_type":"B","structure_name":null,"structure_address":"Detector, RR MP NB 365.4","height":4,"base_elevation":643.876464,"structure_owner_name":"Norfolk Southern Railway Company","structure_manager_name":null,"data_source":"FCC: Land Mobile - Private (GIS)"}},{"type":"Feature","geometry":{"type":"Point","coordinates":[-81.449699,36.8647]},"properties":{"name":"BEAR CREEK RD","styleUrl":"#towerStyle","styleHash":"1d01e409","county":"Smyth County","lat":36.8647,"lng":-81.449699,"structure_type":null,"structure_name":null,"structure_address":"BEAR CREEK RD","height":12,"base_elevation":690.480407,"structure_owner_name":"ROYAL MOULDINGS LTD","structure_manager_name":null,"data_source":"FCC: Land Mobile - Private (GIS)"}},{"type":"Feature","geometry":{"type":"Point","coordinates":[-81.5725,36.775]},"properties":{"name":"Vertical Asset","styleUrl":"#towerStyle","styleHash":"1d01e409","county":"Smyth County","lat":36.775,"lng":-81.5725,"structure_type":null,"structure_name":null,"structure_address":null,"height":0,"base_elevation":682.521301,"structure_owner_name":"THOMAS BRIDGE WATER CORP","structure_manager_name":null,"data_source":"FCC: Land Mobile - Private (GIS)"}},{"type":"Feature","geometry":{"type":"Point","coordinates":[-81.7286,36.8361]},"properties":{"name":"Vertical Asset","styleUrl":"#towerStyle","styleHash":"1d01e409","county":"Smyth County","lat":36.8361,"lng":-81.7286,"structure_type":null,"structure_name":null,"structure_address":null,"height":0,"base_elevation":907.977661,"structure_owner_name":"W L CONSTRUCTION AND PAVING INC","structure_manager_name":null,"data_source":"FCC: Land Mobile - Private (GIS)"}},{"type":"Feature","geometry":{"type":"Point","coordinates":[-81.7286,36.8361]},"properties":{"name":"ATOP BETTYS KNOB","styleUrl":"#towerStyle","styleHash":"1d01e409","county":"Smyth County","lat":36.8361,"lng":-81.7286,"structure_type":"TOWER","structure_name":null,"structure_address":"ATOP BETTYS KNOB","height":18,"base_elevation":907.977661,"structure_owner_name":"W L CONSTRUCTION AND PAVING INC","structure_manager_name":null,"data_source":"FCC: Land Mobile - Private (GIS)"}},{"type":"Feature","geometry":{"type":"Point","coordinates":[-81.6983,36.8181]},"properties":{"name":"SHOP ON RT 107 3 KM N","styleUrl":"#towerStyle","styleHash":"1d01e409","county":"Smyth County","lat":36.8181,"lng":-81.6983,"structure_type":"B","structure_name":null,"structure_address":"SHOP ON RT 107 3 KM N","height":6,"base_elevation":619.655578,"structure_owner_name":"W L CONSTRUCTION AND PAVING INCORPORATED","structure_manager_name":null,"data_source":"FCC: Land Mobile - Private (GIS)"}},{"type":"Feature","geometry":{"type":"Point","coordinates":[-81.7286,36.8361]},"properties":{"name":"ATOP BETTYS KNOB","styleUrl":"#towerStyle","styleHash":"1d01e409","county":"Smyth County","lat":36.8361,"lng":-81.7286,"structure_type":"TOWER","structure_name":null,"structure_address":"ATOP BETTYS KNOB","height":18,"base_elevation":907.977661,"structure_owner_name":"W L CONSTRUCTION AND PAVING INCORPORATED","structure_manager_name":null,"data_source":"FCC: Land Mobile - Private (GIS)"}},{"type":"Feature","geometry":{"type":"Point","coordinates":[-81.5425,36.9022]},"properties":{"name":"ATOP WALKER MOUNTAIN NEAR","styleUrl":"#towerStyle","styleHash":"1d01e409","county":"Smyth County","lat":36.9022,"lng":-81.5425,"structure_type":"TOWER","structure_name":null,"structure_address":"ATOP WALKER MOUNTAIN NEAR","height":31,"base_elevation":1116.737915,"structure_owner_name":"P & T CONCRETE SUPPLY INCORPORATED","structure_manager_name":null,"data_source":"FCC: Land Mobile - Private (GIS)"}},{"type":"Feature","geometry":{"type":"Point","coordinates":[-81.5111,36.8333]},"properties":{"name":"340 BAGLEY CIRCLE","styleUrl":"#towerStyle","styleHash":"1d01e409","county":"Smyth County","lat":36.8333,"lng":-81.5111,"structure_type":"BMAST","structure_name":null,"structure_address":"340 BAGLEY CIRCLE","height":18,"base_elevation":682.586059,"structure_owner_name":"SOUTHWESTERN VIRGINIA MENTAL HEALTH INSTITUTE","structure_manager_name":null,"data_source":"FCC: Land Mobile - Private (GIS)"}},{"type":"Feature","geometry":{"type":"Point","coordinates":[-81.666399,36.7767]},"properties":{"name":"SHULAR HOLLOW RT 739","styleUrl":"#towerStyle","styleHash":"1d01e409","county":"Smyth County","lat":36.7767,"lng":-81.666399,"structure_type":null,"structure_name":null,"structure_address":"SHULAR HOLLOW RT 739","height":9,"base_elevation":665.921142,"structure_owner_name":"WILLIAMS, DAVID B","structure_manager_name":null,"data_source":"FCC: Land Mobile - Private (GIS)"}},{"type":"Feature","geometry":{"type":"Point","coordinates":[-81.4003,36.795]},"properties":{"name":"Vertical Asset","styleUrl":"#towerStyle","styleHash":"1d01e409","county":"Smyth County","lat":36.795,"lng":-81.4003,"structure_type":null,"structure_name":null,"structure_address":null,"height":0,"base_elevation":853.091735,"structure_owner_name":"SUGAR GROVE RESCUE SQUAD INC","structure_manager_name":null,"data_source":"FCC: Land Mobile - Private (GIS)"}},{"type":"Feature","geometry":{"type":"Point","coordinates":[-81.5425,36.9022]},"properties":{"name":"Vertical Asset","styleUrl":"#towerStyle","styleHash":"1d01e409","county":"Smyth County","lat":36.9022,"lng":-81.5425,"structure_type":null,"structure_name":null,"structure_address":null,"height":0,"base_elevation":1116.737915,"structure_owner_name":"TWO WAY RADIO INCORPORATED","structure_manager_name":null,"data_source":"FCC: Land Mobile - Private (GIS)"}},{"type":"Feature","geometry":{"type":"Point","coordinates":[-81.5425,36.9022]},"properties":{"name":"ATOP WALKER MOUNTAIN","styleUrl":"#towerStyle","styleHash":"1d01e409","county":"Smyth County","lat":36.9022,"lng":-81.5425,"structure_type":"TOWER","structure_name":null,"structure_address":"ATOP WALKER MOUNTAIN","height":38,"base_elevation":1116.737915,"structure_owner_name":"TWO WAY RADIO INCORPORATED","structure_manager_name":null,"data_source":"FCC: Land Mobile - Private (GIS)"}},{"type":"Feature","geometry":{"type":"Point","coordinates":[-81.61,36.6389]},"properties":{"name":"WHITE TOP MTN 22KM S","styleUrl":"#towerStyle","styleHash":"1d01e409","county":"Smyth County","lat":36.6389,"lng":-81.61,"structure_type":"TOWER","structure_name":null,"structure_address":"WHITE TOP MTN 22KM S","height":18,"base_elevation":1650.113037,"structure_owner_name":"VIRGINIA DEPARTMENT OF STATE POLICE","structure_manager_name":null,"data_source":"FCC: Land Mobile - Private (GIS)"}},{"type":"Feature","geometry":{"type":"Point","coordinates":[-81.75,36.8733]},"properties":{"name":"WATER TNAK ON ST RT 107","styleUrl":"#towerStyle","styleHash":"1d01e409","county":"Smyth County","lat":36.8733,"lng":-81.75,"structure_type":"TANK","structure_name":null,"structure_address":"WATER TNAK ON ST RT 107","height":14,"base_elevation":611.842346,"structure_owner_name":"SALTVILLE, TOWN OF","structure_manager_name":null,"data_source":"FCC: Land Mobile - Private (GIS)"}},{"type":"Feature","geometry":{"type":"Point","coordinates":[-81.7661,36.8772]},"properties":{"name":"INT OF RR & FIRST STS","styleUrl":"#towerStyle","styleHash":"1d01e409","county":"Smyth County","lat":36.8772,"lng":-81.7661,"structure_type":"B","structure_name":null,"structure_address":"INT OF RR & FIRST STS","height":18,"base_elevation":521.664001,"structure_owner_name":"SALTVILLE, TOWN OF","structure_manager_name":null,"data_source":"FCC: Land Mobile - Private (GIS)"}},{"type":"Feature","geometry":{"type":"Point","coordinates":[-81.543,36.9017]},"properties":{"name":"WALKER MTN, 8 KM","styleUrl":"#towerStyle","styleHash":"1d01e409","county":"Smyth County","lat":36.9017,"lng":-81.543,"structure_type":"TOWER","structure_name":null,"structure_address":"WALKER MTN, 8 KM","height":66,"base_elevation":1121.321044,"structure_owner_name":"SMYTH, COUNTY OF","structure_manager_name":null,"data_source":"FCC: Land Mobile - Private (GIS)"}},{"type":"Feature","geometry":{"type":"Point","coordinates":[-81.5111,36.8333]},"properties":{"name":"121 BAGLEY CIR STE 113","styleUrl":"#towerStyle","styleHash":"1d01e409","county":"Smyth County","lat":36.8333,"lng":-81.5111,"structure_type":"B","structure_name":null,"structure_address":"121 BAGLEY CIR STE 113","height":15,"base_elevation":682.586059,"structure_owner_name":"SMYTH, COUNTY OF","structure_manager_name":null,"data_source":"FCC: Land Mobile - Private (GIS)"}},{"type":"Feature","geometry":{"type":"Point","coordinates":[-81.542199,36.9022]},"properties":{"name":"ATOP WALKER MTN 7KM N","styleUrl":"#towerStyle","styleHash":"1d01e409","county":"Smyth County","lat":36.9022,"lng":-81.542199,"structure_type":"TOWER","structure_name":null,"structure_address":"ATOP WALKER MTN 7KM N","height":15,"base_elevation":1124.886962,"structure_owner_name":"SMYTH, COUNTY OF","structure_manager_name":null,"data_source":"FCC: Land Mobile - Private (GIS)"}},{"type":"Feature","geometry":{"type":"Point","coordinates":[-81.473,36.8239]},"properties":{"name":"STATE FISH HATCHERY RT 16","styleUrl":"#towerStyle","styleHash":"1d01e409","county":"Smyth County","lat":36.8239,"lng":-81.473,"structure_type":"POLE","structure_name":null,"structure_address":"STATE FISH HATCHERY RT 16","height":11,"base_elevation":730.246398,"structure_owner_name":"VIRGINIA, COMMONWEALTH OF","structure_manager_name":null,"data_source":"FCC: Land Mobile - Private (GIS)"}},{"type":"Feature","geometry":{"type":"Point","coordinates":[-81.61,36.6389]},"properties":{"name":"STATE POLICE BLDG ON WHITE TOP MOUNTAIN","styleUrl":"#towerStyle","styleHash":"1d01e409","county":"Smyth County","lat":36.6389,"lng":-81.61,"structure_type":"BPOLE","structure_name":null,"structure_address":"STATE POLICE BLDG ON WHITE TOP MOUNTAIN","height":3,"base_elevation":1650.113037,"structure_owner_name":"VIRGINIA, COMMONWEATH OF","structure_manager_name":null,"data_source":"FCC: Land Mobile - Private (GIS)"}},{"type":"Feature","geometry":{"type":"Point","coordinates":[-81.765,36.8781]},"properties":{"name":"312 PALMER AVE","styleUrl":"#towerStyle","styleHash":"1d01e409","county":"Smyth County","lat":36.8781,"lng":-81.765,"structure_type":"TOWER","structure_name":null,"structure_address":"312 PALMER AVE","height":18,"base_elevation":521.812133,"structure_owner_name":"SALTVILLE VOLUNTEER FIRE DEPARTMENT INC","structure_manager_name":null,"data_source":"FCC: Land Mobile - Private (GIS)"}},{"type":"Feature","geometry":{"type":"Point","coordinates":[-81.5161,36.8331]},"properties":{"name":"ATOP ORCHARD TOWERS HOUSING COMPLEX","styleUrl":"#towerStyle","styleHash":"1d01e409","county":"Smyth County","lat":36.8331,"lng":-81.5161,"structure_type":"B","structure_name":null,"structure_address":"ATOP ORCHARD TOWERS HOUSING COMPLEX","height":34,"base_elevation":649.498229,"structure_owner_name":"MARION, TOWN OF","structure_manager_name":null,"data_source":"FCC: Land Mobile - Private (GIS)"}},{"type":"Feature","geometry":{"type":"Point","coordinates":[-81.5136,36.8578]},"properties":{"name":"HWY 16 1 MI N","styleUrl":"#towerStyle","styleHash":"1d01e409","county":"Smyth County","lat":36.8578,"lng":-81.5136,"structure_type":"TANK","structure_name":null,"structure_address":"HWY 16 1 MI N","height":16,"base_elevation":746.558349,"structure_owner_name":"SUGAR GROVE LIFESAVING CREW INC","structure_manager_name":null,"data_source":"FCC: Land Mobile - Private (GIS)"}},{"type":"Feature","geometry":{"type":"Point","coordinates":[-81.3553,36.8103]},"properties":{"name":"BRUSHEY MOUNTAIN 5 MI S","styleUrl":"#towerStyle","styleHash":"1d01e409","county":"Smyth County","lat":36.8103,"lng":-81.3553,"structure_type":"TOWER","structure_name":null,"structure_address":"BRUSHEY MOUNTAIN 5 MI S","height":34,"base_elevation":949.315368,"structure_owner_name":"SUGAR GROVE LIFESAVING CREW INC","structure_manager_name":null,"data_source":"FCC: Land Mobile - Private (GIS)"}},{"type":"Feature","geometry":{"type":"Point","coordinates":[-81.6458,36.9353]},"properties":{"name":"RT 42 1 KM W OF SR 631","styleUrl":"#towerStyle","styleHash":"1d01e409","county":"Smyth County","lat":36.9353,"lng":-81.6458,"structure_type":"UPOLE","structure_name":null,"structure_address":"RT 42 1 KM W OF SR 631","height":15,"base_elevation":546.664306,"structure_owner_name":"VIRGINIA, COMMONWEALTH OF","structure_manager_name":null,"data_source":"FCC: Land Mobile - Private (GIS)"}},{"type":"Feature","geometry":{"type":"Point","coordinates":[-81.681899,36.7956]},"properties":{"name":"SR 762 .3 KM W OF I81","styleUrl":"#towerStyle","styleHash":"1d01e409","county":"Smyth County","lat":36.7956,"lng":-81.681899,"structure_type":"UPOLE","structure_name":null,"structure_address":"SR 762 .3 KM W OF I81","height":20,"base_elevation":591.997497,"structure_owner_name":"VIRGINIA, COMMONWEALTH OF","structure_manager_name":null,"data_source":"FCC: Land Mobile - Private (GIS)"}},{"type":"Feature","geometry":{"type":"Point","coordinates":[-81.61,36.6389]},"properties":{"name":"STATE POLICE BUILDING ON WHITE TOP MOUNTAIN","styleUrl":"#towerStyle","styleHash":"1d01e409","county":"Smyth County","lat":36.6389,"lng":-81.61,"structure_type":"TOWER","structure_name":null,"structure_address":"STATE POLICE BUILDING ON WHITE TOP MOUNTAIN","height":11,"base_elevation":1650.113037,"structure_owner_name":"Virginia Department of Forestry","structure_manager_name":null,"data_source":"FCC: Land Mobile - Private (GIS)"}},{"type":"Feature","geometry":{"type":"Point","coordinates":[-81.542199,36.9022]},"properties":{"name":"ATOP WALKER MTN NEAR","styleUrl":"#towerStyle","styleHash":"1d01e409","county":"Smyth County","lat":36.9022,"lng":-81.542199,"structure_type":"TOWER","structure_name":null,"structure_address":"ATOP WALKER MTN NEAR","height":43,"base_elevation":1124.886962,"structure_owner_name":"SMYTH, COUNTY OF","structure_manager_name":null,"data_source":"FCC: Land Mobile - Private (GIS)"}},{"type":"Feature","geometry":{"type":"Point","coordinates":[-81.5106,36.8289]},"properties":{"name":"SR 16 .4 KM N OF I81 EXIT 45","styleUrl":"#towerStyle","styleHash":"1d01e409","county":"Smyth County","lat":36.8289,"lng":-81.5106,"structure_type":"UPOLE","structure_name":null,"structure_address":"SR 16 .4 KM N OF I81 EXIT 45","height":20,"base_elevation":658.53009,"structure_owner_name":"VIRGINIA, COMMONWEALTH OF","structure_manager_name":null,"data_source":"FCC: Land Mobile - Private (GIS)"}},{"type":"Feature","geometry":{"type":"Point","coordinates":[-81.5111,36.8333]},"properties":{"name":"340 BAGLEY CIRCLE","styleUrl":"#towerStyle","styleHash":"1d01e409","county":"Smyth County","lat":36.8333,"lng":-81.5111,"structure_type":"B","structure_name":null,"structure_address":"340 BAGLEY CIRCLE","height":23,"base_elevation":682.586059,"structure_owner_name":"VIRIGINIA, COMMONWEALTH OF","structure_manager_name":null,"data_source":"FCC: Land Mobile - Private (GIS)"}},{"type":"Feature","geometry":{"type":"Point","coordinates":[-81.517799,36.8336]},"properties":{"name":"COURTHOUSE","styleUrl":"#towerStyle","styleHash":"1d01e409","county":"Smyth County","lat":36.8336,"lng":-81.517799,"structure_type":null,"structure_name":null,"structure_address":"COURTHOUSE","height":30,"base_elevation":654.154968,"structure_owner_name":"SMYTH, COUNTY OF","structure_manager_name":null,"data_source":"FCC: Land Mobile - Private (GIS)"}},{"type":"Feature","geometry":{"type":"Point","coordinates":[-81.5414,36.9022]},"properties":{"name":"ATOP WALKER MOUNTAIN","styleUrl":"#towerStyle","styleHash":"1d01e409","county":"Smyth County","lat":36.9022,"lng":-81.5414,"structure_type":null,"structure_name":null,"structure_address":"ATOP WALKER MOUNTAIN","height":24,"base_elevation":1114.557861,"structure_owner_name":"SMYTH, COUNTY OF","structure_manager_name":null,"data_source":"FCC: Land Mobile - Private (GIS)"}},{"type":"Feature","geometry":{"type":"Point","coordinates":[-81.542199,36.9022]},"properties":{"name":"WALKER MTN RT 16 4.5 MI N","styleUrl":"#towerStyle","styleHash":"1d01e409","county":"Smyth County","lat":36.9022,"lng":-81.542199,"structure_type":null,"structure_name":null,"structure_address":"WALKER MTN RT 16 4.5 MI N","height":0,"base_elevation":1124.886962,"structure_owner_name":"SMYTH COUNTY COMMUNITY HOSPITAL INC","structure_manager_name":null,"data_source":"FCC: Land Mobile - Private (GIS)"}},{"type":"Feature","geometry":{"type":"Point","coordinates":[-81.5119,36.8531]},"properties":{"name":"100 HOSPITAL DR AND BF BUCHANAN HWY","styleUrl":"#towerStyle","styleHash":"1d01e409","county":"Smyth County","lat":36.8531,"lng":-81.5119,"structure_type":null,"structure_name":null,"structure_address":"100 HOSPITAL DR AND BF BUCHANAN HWY","height":0,"base_elevation":697.854125,"structure_owner_name":"SMYTH COUNTY COMMUNITY HOSPITAL INC","structure_manager_name":null,"data_source":"FCC: Land Mobile - Private (GIS)"}},{"type":"Feature","geometry":{"type":"Point","coordinates":[-81.670599,36.8153]},"properties":{"name":"WATER TANK NE","styleUrl":"#towerStyle","styleHash":"1d01e409","county":"Smyth County","lat":36.8153,"lng":-81.670599,"structure_type":null,"structure_name":null,"structure_address":"WATER TANK NE","height":0,"base_elevation":628.712097,"structure_owner_name":"CHILHOWIE, TOWN OF","structure_manager_name":null,"data_source":"FCC: Land Mobile - Private (GIS)"}},{"type":"Feature","geometry":{"type":"Point","coordinates":[-81.61,36.6389]},"properties":{"name":"2 MI SE OF KANNAROCK VA","styleUrl":"#towerStyle","styleHash":"1d01e409","county":"Smyth County","lat":36.6389,"lng":-81.61,"structure_type":null,"structure_name":null,"structure_address":"2 MI SE OF KANNAROCK VA","height":0,"base_elevation":1650.113037,"structure_owner_name":"Virginia, Commonwealth of    Department of State Police","structure_manager_name":null,"data_source":"FCC: Land Mobile - Private (GIS)"}},{"type":"Feature","geometry":{"type":"Point","coordinates":[-81.5219,36.8847]},"properties":{"name":"HUNGRY MOTHER STATE PARK","styleUrl":"#towerStyle","styleHash":"1d01e409","county":"Smyth County","lat":36.8847,"lng":-81.5219,"structure_type":null,"structure_name":null,"structure_address":"HUNGRY MOTHER STATE PARK","height":0,"base_elevation":690.0885,"structure_owner_name":"VIRGINIA, COMMONWEALTH OF","structure_manager_name":null,"data_source":"FCC: Land Mobile - Private (GIS)"}},{"type":"Feature","geometry":{"type":"Point","coordinates":[-81.473,36.8239]},"properties":{"name":"STATE FISH HATCHERY RT 16","styleUrl":"#towerStyle","styleHash":"1d01e409","county":"Smyth County","lat":36.8239,"lng":-81.473,"structure_type":null,"structure_name":null,"structure_address":"STATE FISH HATCHERY RT 16","height":14,"base_elevation":730.246398,"structure_owner_name":"VIRGINIA, COMMONWEALTH OF","structure_manager_name":null,"data_source":"FCC: Land Mobile - Private (GIS)"}},{"type":"Feature","geometry":{"type":"Point","coordinates":[-81.7286,36.8361]},"properties":{"name":"ATOP BETTYS KNOB","styleUrl":"#towerStyle","styleHash":"1d01e409","county":"Smyth County","lat":36.8361,"lng":-81.7286,"structure_type":"TOWER","structure_name":null,"structure_address":"ATOP BETTYS KNOB","height":18,"base_elevation":907.977661,"structure_owner_name":"RIDGEFIELD AMBULANCE SERVICE","structure_manager_name":null,"data_source":"FCC: Land Mobile - Private (GIS)"}},{"type":"Feature","geometry":{"type":"Point","coordinates":[-81.7658,36.8772]},"properties":{"name":"RAILROAD AVE AT FIRST ST","styleUrl":"#towerStyle","styleHash":"1d01e409","county":"Smyth County","lat":36.8772,"lng":-81.7658,"structure_type":null,"structure_name":null,"structure_address":"RAILROAD AVE AT FIRST ST","height":0,"base_elevation":520.528747,"structure_owner_name":"SALTVILLE, TOWN OF","structure_manager_name":null,"data_source":"FCC: Land Mobile - Private (GIS)"}},{"type":"Feature","geometry":{"type":"Point","coordinates":[-81.4219,36.8103]},"properties":{"name":"BRUSHEY MOUNTAIN 5 MI S","styleUrl":"#towerStyle","styleHash":"1d01e409","county":"Smyth County","lat":36.8103,"lng":-81.4219,"structure_type":"TOWER","structure_name":null,"structure_address":"BRUSHEY MOUNTAIN 5 MI S","height":27,"base_elevation":979.631713,"structure_owner_name":"SMYTH, COUNTY OF","structure_manager_name":null,"data_source":"FCC: Land Mobile - Private (GIS)"}},{"type":"Feature","geometry":{"type":"Point","coordinates":[-81.5783,36.8361]},"properties":{"name":"WALKER HOUSE 3.8 MI NE","styleUrl":"#towerStyle","styleHash":"1d01e409","county":"Smyth County","lat":36.8361,"lng":-81.5783,"structure_type":"TOWER","structure_name":null,"structure_address":"WALKER HOUSE 3.8 MI NE","height":15,"base_elevation":707.466979,"structure_owner_name":"SALTVILLE, TOWN OF","structure_manager_name":null,"data_source":"FCC: Land Mobile - Private (GIS)"}},{"type":"Feature","geometry":{"type":"Point","coordinates":[-81.344699,36.8942]},"properties":{"name":"Vertical Asset","styleUrl":"#towerStyle","styleHash":"1d01e409","county":"Smyth County","lat":36.8942,"lng":-81.344699,"structure_type":null,"structure_name":null,"structure_address":null,"height":0,"base_elevation":773.689147,"structure_owner_name":"SMYTH WYTHE AIRPORT COMMISSION","structure_manager_name":null,"data_source":"FCC: Land Mobile - Private (GIS)"}},{"type":"Feature","geometry":{"type":"Point","coordinates":[-81.5164,36.8342]},"properties":{"name":"POLICE DEPT ON MAIN ST","styleUrl":"#towerStyle","styleHash":"1d01e409","county":"Smyth County","lat":36.8342,"lng":-81.5164,"structure_type":null,"structure_name":null,"structure_address":"POLICE DEPT ON MAIN ST","height":12,"base_elevation":648.642517,"structure_owner_name":"MARION, TOWN OF","structure_manager_name":null,"data_source":"FCC: Land Mobile - Private (GIS)"}},{"type":"Feature","geometry":{"type":"Point","coordinates":[-81.5064,36.8564]},"properties":{"name":"ATOP RADIO HILL","styleUrl":"#towerStyle","styleHash":"1d01e409","county":"Smyth County","lat":36.8564,"lng":-81.5064,"structure_type":null,"structure_name":null,"structure_address":"ATOP RADIO HILL","height":12,"base_elevation":781.581115,"structure_owner_name":"MARION, TOWN OF","structure_manager_name":null,"data_source":"FCC: Land Mobile - Private (GIS)"}},{"type":"Feature","geometry":{"type":"Point","coordinates":[-81.515799,36.8331]},"properties":{"name":"ATOP ORCHARD HILL TOWERS","styleUrl":"#towerStyle","styleHash":"1d01e409","county":"Smyth County","lat":36.8331,"lng":-81.515799,"structure_type":null,"structure_name":null,"structure_address":"ATOP ORCHARD HILL TOWERS","height":30,"base_elevation":650.267211,"structure_owner_name":"MARION, TOWN OF","structure_manager_name":null,"data_source":"FCC: Land Mobile - Private (GIS)"}},{"type":"Feature","geometry":{"type":"Point","coordinates":[-81.6789,36.7975]},"properties":{"name":"RESERVOIR HILL N US 11","styleUrl":"#towerStyle","styleHash":"1d01e409","county":"Smyth County","lat":36.7975,"lng":-81.6789,"structure_type":null,"structure_name":null,"structure_address":"RESERVOIR HILL N US 11","height":0,"base_elevation":589.282348,"structure_owner_name":"CHILHOWIE, TOWN OF","structure_manager_name":null,"data_source":"FCC: Land Mobile - Private (GIS)"}},{"type":"Feature","geometry":{"type":"Point","coordinates":[-81.5111,36.8333]},"properties":{"name":"502 E MAIN ST","styleUrl":"#towerStyle","styleHash":"1d01e409","county":"Smyth County","lat":36.8333,"lng":-81.5111,"structure_type":"B","structure_name":null,"structure_address":"502 E MAIN ST","height":18,"base_elevation":682.586059,"structure_owner_name":"VIRGINIA, COMMONWEALTH OF","structure_manager_name":null,"data_source":"FCC: Land Mobile - Private (GIS)"}},{"type":"Feature","geometry":{"type":"Point","coordinates":[-81.5783,36.8361]},"properties":{"name":"WALKER HOUSE 3.8 MI NE","styleUrl":"#towerStyle","styleHash":"1d01e409","county":"Smyth County","lat":36.8361,"lng":-81.5783,"structure_type":null,"structure_name":null,"structure_address":"WALKER HOUSE 3.8 MI NE","height":0,"base_elevation":707.466979,"structure_owner_name":"SMYTH, COUNTY OF","structure_manager_name":null,"data_source":"FCC: Land Mobile - Private (GIS)"}},{"type":"Feature","geometry":{"type":"Point","coordinates":[-81.4247,36.9008]},"properties":{"name":"2 MI SSW","styleUrl":"#towerStyle","styleHash":"1d01e409","county":"Smyth County","lat":36.9008,"lng":-81.4247,"structure_type":null,"structure_name":null,"structure_address":"2 MI SSW","height":0,"base_elevation":719.121032,"structure_owner_name":"SMYTH, COUNTY OF","structure_manager_name":null,"data_source":"FCC: Land Mobile - Private (GIS)"}},{"type":"Feature","geometry":{"type":"Point","coordinates":[-81.5228,36.7767]},"properties":{"name":"RICH MOUNTAIN 3.9 MI S","styleUrl":"#towerStyle","styleHash":"1d01e409","county":"Smyth County","lat":36.7767,"lng":-81.5228,"structure_type":null,"structure_name":null,"structure_address":"RICH MOUNTAIN 3.9 MI S","height":0,"base_elevation":1104.361206,"structure_owner_name":"SMYTH, COUNTY OF","structure_manager_name":null,"data_source":"FCC: Land Mobile - Private (GIS)"}},{"type":"Feature","geometry":{"type":"Point","coordinates":[-81.4242,36.807799]},"properties":{"name":"MOUNT ROGERS 4 KM NNE","styleUrl":"#towerStyle","styleHash":"1d01e409","county":"Smyth County","lat":36.807799,"lng":-81.4242,"structure_type":null,"structure_name":null,"structure_address":"MOUNT ROGERS 4 KM NNE","height":0,"base_elevation":979.494995,"structure_owner_name":"SMYTH, COUNTY OF","structure_manager_name":null,"data_source":"FCC: Land Mobile - Private (GIS)"}},{"type":"Feature","geometry":{"type":"Point","coordinates":[-81.4753,36.9881]},"properties":{"name":"LITTLE BRUSHY 6 KM NNW","styleUrl":"#towerStyle","styleHash":"1d01e409","county":"Smyth County","lat":36.9881,"lng":-81.4753,"structure_type":null,"structure_name":null,"structure_address":"LITTLE BRUSHY 6 KM NNW","height":0,"base_elevation":937.830383,"structure_owner_name":"SMYTH, COUNTY OF","structure_manager_name":null,"data_source":"FCC: Land Mobile - Private (GIS)"}},{"type":"Feature","geometry":{"type":"Point","coordinates":[-81.7911,36.9069]},"properties":{"name":"LICK SKILLET 4 KM NW","styleUrl":"#towerStyle","styleHash":"1d01e409","county":"Smyth County","lat":36.9069,"lng":-81.7911,"structure_type":null,"structure_name":null,"structure_address":"LICK SKILLET 4 KM NW","height":0,"base_elevation":788.252258,"structure_owner_name":"SMYTH, COUNTY OF","structure_manager_name":null,"data_source":"FCC: Land Mobile - Private (GIS)"}},{"type":"Feature","geometry":{"type":"Point","coordinates":[-81.342199,36.895]},"properties":{"name":"EMPIRE ARPRT 6 KM W","styleUrl":"#towerStyle","styleHash":"1d01e409","county":"Smyth County","lat":36.895,"lng":-81.342199,"structure_type":null,"structure_name":null,"structure_address":"EMPIRE ARPRT 6 KM W","height":0,"base_elevation":752.69696,"structure_owner_name":"SMYTH, COUNTY OF","structure_manager_name":null,"data_source":"FCC: Land Mobile - Private (GIS)"}},{"type":"Feature","geometry":{"type":"Point","coordinates":[-81.27,36.7625]},"properties":{"name":"CAMP 4 KM SSE","styleUrl":"#towerStyle","styleHash":"1d01e409","county":"Smyth County","lat":36.7625,"lng":-81.27,"structure_type":null,"structure_name":null,"structure_address":"CAMP 4 KM SSE","height":0,"base_elevation":1079.89038,"structure_owner_name":"SMYTH, COUNTY OF","structure_manager_name":null,"data_source":"FCC: Land Mobile - Private (GIS)"}},{"type":"Feature","geometry":{"type":"Point","coordinates":[-81.517799,36.8336]},"properties":{"name":"SMYTH EOC CTY COURT HOUSE MAIN ST","styleUrl":"#towerStyle","styleHash":"1d01e409","county":"Smyth County","lat":36.8336,"lng":-81.517799,"structure_type":null,"structure_name":null,"structure_address":"SMYTH EOC CTY COURT HOUSE MAIN ST","height":0,"base_elevation":654.154968,"structure_owner_name":"SMYTH, COUNTY OF","structure_manager_name":null,"data_source":"FCC: Land Mobile - Private (GIS)"}},{"type":"Feature","geometry":{"type":"Point","coordinates":[-81.517799,36.8336]},"properties":{"name":"ATOP CTY COURTHOUSE","styleUrl":"#towerStyle","styleHash":"1d01e409","county":"Smyth County","lat":36.8336,"lng":-81.517799,"structure_type":null,"structure_name":null,"structure_address":"ATOP CTY COURTHOUSE","height":30,"base_elevation":654.154968,"structure_owner_name":"SMYTH, COUNTY OF","structure_manager_name":null,"data_source":"FCC: Land Mobile - Private (GIS)"}},{"type":"Feature","geometry":{"type":"Point","coordinates":[-81.5414,36.9022]},"properties":{"name":"ATOP WALKER MOUNTAIN","styleUrl":"#towerStyle","styleHash":"1d01e409","county":"Smyth County","lat":36.9022,"lng":-81.5414,"structure_type":null,"structure_name":null,"structure_address":"ATOP WALKER MOUNTAIN","height":24,"base_elevation":1114.557861,"structure_owner_name":"SMYTH, COUNTY OF","structure_manager_name":null,"data_source":"FCC: Land Mobile - Private (GIS)"}},{"type":"Feature","geometry":{"type":"Point","coordinates":[-81.542199,36.9022]},"properties":{"name":"ATOP WALKER MOUNTAIN","styleUrl":"#towerStyle","styleHash":"1d01e409","county":"Smyth County","lat":36.9022,"lng":-81.542199,"structure_type":null,"structure_name":null,"structure_address":"ATOP WALKER MOUNTAIN","height":30,"base_elevation":1124.886962,"structure_owner_name":"SMYTH, COUNTY OF","structure_manager_name":null,"data_source":"FCC: Land Mobile - Private (GIS)"}},{"type":"Feature","geometry":{"type":"Point","coordinates":[-81.61,36.6389]},"properties":{"name":"WHITE TOP MOUNTAIN","styleUrl":"#towerStyle","styleHash":"1d01e409","county":"Smyth County","lat":36.6389,"lng":-81.61,"structure_type":"B","structure_name":null,"structure_address":"WHITE TOP MOUNTAIN","height":18,"base_elevation":1650.113037,"structure_owner_name":"VIRGINIA, COMMONWEALTH OF","structure_manager_name":null,"data_source":"FCC: Land Mobile - Private (GIS)"}},{"type":"Feature","geometry":{"type":"Point","coordinates":[-81.6839,36.7889]},"properties":{"name":"TOWN SHOP","styleUrl":"#towerStyle","styleHash":"1d01e409","county":"Smyth County","lat":36.7889,"lng":-81.6839,"structure_type":null,"structure_name":null,"structure_address":"TOWN SHOP","height":0,"base_elevation":641.405761,"structure_owner_name":"CHILHOWIE, TOWN OF","structure_manager_name":null,"data_source":"FCC: Land Mobile - Private (GIS)"}},{"type":"Feature","geometry":{"type":"Point","coordinates":[-81.5164,36.8333]},"properties":{"name":"MARION CC","styleUrl":"#towerStyle","styleHash":"1d01e409","county":"Smyth County","lat":36.8333,"lng":-81.5164,"structure_type":"TOWER","structure_name":null,"structure_address":"MARION CC","height":27,"base_elevation":649.822448,"structure_owner_name":"VIRGINIA, COMMONWEALTH OF","structure_manager_name":null,"data_source":"FCC: Land Mobile - Private (GIS)"}},{"type":"Feature","geometry":{"type":"Point","coordinates":[-81.5428,36.9003]},"properties":{"name":"RT 16 N WALKERS MOUNTAIN","styleUrl":"#towerStyle","styleHash":"1d01e409","county":"Smyth County","lat":36.9003,"lng":-81.5428,"structure_type":"TOWER","structure_name":null,"structure_address":"RT 16 N WALKERS MOUNTAIN","height":18,"base_elevation":1087.799804,"structure_owner_name":"ADWOLFE VOLUNTEER FIRE DEPARTMENT","structure_manager_name":null,"data_source":"FCC: Land Mobile - Private (GIS)"}},{"type":"Feature","geometry":{"type":"Point","coordinates":[-81.745,36.8681]},"properties":{"name":"549 CAMPBELL DRIVE","styleUrl":"#towerStyle","styleHash":"1d01e409","county":"Smyth County","lat":36.8681,"lng":-81.745,"structure_type":"TOWER","structure_name":null,"structure_address":"549 CAMPBELL DRIVE","height":83.8,"base_elevation":740.490234,"structure_owner_name":"NEXTEL WIP LICENSE CORP.","structure_manager_name":null,"data_source":"FCC: Land Mobile - Commercial (GIS)"}},{"type":"Feature","geometry":{"type":"Point","coordinates":[-81.4897,36.8394]},"properties":{"name":"203 BARRISTER LANE","styleUrl":"#towerStyle","styleHash":"1d01e409","county":"Smyth County","lat":36.8394,"lng":-81.4897,"structure_type":"TOWER","structure_name":null,"structure_address":"203 BARRISTER LANE","height":60.4,"base_elevation":727.039489,"structure_owner_name":"NEXTEL WIP LICENSE CORP.","structure_manager_name":null,"data_source":"FCC: Land Mobile - Commercial (GIS)"}},{"type":"Feature","geometry":{"type":"Point","coordinates":[-81.4244,36.8739]},"properties":{"name":"5960 OLE HICKORY LANE","styleUrl":"#towerStyle","styleHash":"1d01e409","county":"Smyth County","lat":36.8739,"lng":-81.4244,"structure_type":"TOWER","structure_name":null,"structure_address":"5960 OLE HICKORY LANE","height":85.3,"base_elevation":810.380798,"structure_owner_name":"NEXTEL WIP LICENSE CORP.","structure_manager_name":null,"data_source":"FCC: Land Mobile - Commercial (GIS)"}},{"type":"Feature","geometry":{"type":"Point","coordinates":[-81.5556,36.8128]},"properties":{"name":"217 LAUREL SPRINGS ROAD","styleUrl":"#towerStyle","styleHash":"1d01e409","county":"Smyth County","lat":36.8128,"lng":-81.5556,"structure_type":"TOWER","structure_name":null,"structure_address":"217 LAUREL SPRINGS ROAD","height":88.4,"base_elevation":726.532287,"structure_owner_name":"NEXTEL WIP LICENSE CORP.","structure_manager_name":null,"data_source":"FCC: Land Mobile - Commercial (GIS)"}},{"type":"Feature","geometry":{"type":"Point","coordinates":[-81.542199,36.9022]},"properties":{"name":"WALKER MOUNTAIN","styleUrl":"#towerStyle","styleHash":"1d01e409","county":"Smyth County","lat":36.9022,"lng":-81.542199,"structure_type":"TOWER","structure_name":null,"structure_address":"WALKER MOUNTAIN","height":22,"base_elevation":1124.886962,"structure_owner_name":"BLANKENBECLER, STEVE","structure_manager_name":null,"data_source":"FCC: Land Mobile - Commercial (GIS)"}},{"type":"Feature","geometry":{"type":"Point","coordinates":[-81.5425,36.9022]},"properties":{"name":"ATOP WALKER MOUNTAIN","styleUrl":"#towerStyle","styleHash":"1d01e409","county":"Smyth County","lat":36.9022,"lng":-81.5425,"structure_type":"TOWER","structure_name":null,"structure_address":"ATOP WALKER MOUNTAIN","height":24,"base_elevation":1116.737915,"structure_owner_name":"TWOWAY RADIO INCORPORATED","structure_manager_name":null,"data_source":"FCC: Land Mobile - Commercial (GIS)"}},{"type":"Feature","geometry":{"type":"Point","coordinates":[-81.542199,36.9022]},"properties":{"name":"WALKER MOUNTAIN","styleUrl":"#towerStyle","styleHash":"1d01e409","county":"Smyth County","lat":36.9022,"lng":-81.542199,"structure_type":"TOWER","structure_name":null,"structure_address":"WALKER MOUNTAIN","height":0,"base_elevation":1124.886962,"structure_owner_name":"PHONE COMMUNICATIONS CORP","structure_manager_name":null,"data_source":"FCC: Land Mobile - Commercial (GIS)"}},{"type":"Feature","geometry":{"type":"Point","coordinates":[-81.542199,36.9022]},"properties":{"name":"WALKER MOUNTAIN","styleUrl":"#towerStyle","styleHash":"1d01e409","county":"Smyth County","lat":36.9022,"lng":-81.542199,"structure_type":"TOWER","structure_name":null,"structure_address":"WALKER MOUNTAIN","height":38,"base_elevation":1124.886962,"structure_owner_name":"AFTON COMMUNICATIONS CORPORATION","structure_manager_name":null,"data_source":"FCC: Land Mobile - Commercial (GIS)"}},{"type":"Feature","geometry":{"type":"Point","coordinates":[-81.4608,36.8164]},"properties":{"name":"Vertical Asset","styleUrl":"#towerStyle","styleHash":"1d01e409","county":"Smyth County","lat":36.8164,"lng":-81.4608,"structure_type":null,"structure_name":null,"structure_address":null,"height":0,"base_elevation":886.537963,"structure_owner_name":"PRAISE AND GLORY MINISTRIES","structure_manager_name":null,"data_source":"FCC: Land Mobile - Broadcast (GIS)"}},{"type":"Feature","geometry":{"type":"Point","coordinates":[-81.5425,36.9017]},"properties":{"name":"MARION CELL SITE 4 MILES NORTH OF MARION","styleUrl":"#towerStyle","styleHash":"1d01e409","county":"Smyth County","lat":36.9017,"lng":-81.5425,"structure_type":null,"structure_name":null,"structure_address":"MARION CELL SITE 4 MILES NORTH OF MARION","height":0,"base_elevation":1122.093872,"structure_owner_name":"USCOC OF VIRGINIA RSA #3, INC.","structure_manager_name":null,"data_source":"FCC: Cellular (GIS)"}},{"type":"Feature","geometry":{"type":"Point","coordinates":[-81.6433,36.8181]},"properties":{"name":"CHILHOWIE CELL SITE 219 SEVEN MILE FORD RD.","styleUrl":"#towerStyle","styleHash":"1d01e409","county":"Smyth County","lat":36.8181,"lng":-81.6433,"structure_type":"TOWER","structure_name":null,"structure_address":"CHILHOWIE CELL SITE 219 SEVEN MILE FORD RD.","height":71.6,"base_elevation":640.00476,"structure_owner_name":"USCOC OF VIRGINIA RSA #3, INC.","structure_manager_name":null,"data_source":"FCC: Cellular (GIS)"}},{"type":"Feature","geometry":{"type":"Point","coordinates":[-81.5425,36.9014]},"properties":{"name":"ON WALKER MOUNTAIN OFF HWY 16","styleUrl":"#towerStyle","styleHash":"1d01e409","county":"Smyth County","lat":36.9014,"lng":-81.5425,"structure_type":"TOWER","structure_name":null,"structure_address":"ON WALKER MOUNTAIN OFF HWY 16","height":60.7,"base_elevation":1109.387939,"structure_owner_name":"Virginia RSA 2 Limited Partnership","structure_manager_name":null,"data_source":"FCC: Cellular (GIS)"}},{"type":"Feature","geometry":{"type":"Point","coordinates":[-81.5057,36.8565]},"properties":{"name":"1041 RADIO HILL ROAD","styleUrl":"#towerStyle","styleHash":"1d01e409","county":"Smyth County","lat":36.8565,"lng":-81.5057,"structure_type":"BPIPE","structure_name":null,"structure_address":"1041 RADIO HILL ROAD","height":13.4,"base_elevation":779.708801,"structure_owner_name":"HOLSTON VALLEY BROADCASTING CORPORATION","structure_manager_name":null,"data_source":"FCC: Microwave (GIS)"}},{"type":"Feature","geometry":{"type":"Point","coordinates":[-81.610099,36.639]},"properties":{"name":"White Top Mountain Road","styleUrl":"#towerStyle","styleHash":"1d01e409","county":"Smyth County","lat":36.639,"lng":-81.610099,"structure_type":"POLE","structure_name":null,"structure_address":"White Top Mountain Road","height":23.5,"base_elevation":1647.701293,"structure_owner_name":"COMMONWEALTH OF VIRGINIA, DEPARTMENT OF STATE POLICE","structure_manager_name":null,"data_source":"FCC: Microwave (GIS)"}},{"type":"Feature","geometry":{"type":"Point","coordinates":[-81.3289,36.75]},"properties":{"name":"Off Lost Lake Rd, 4.84 mi SE of","styleUrl":"#towerStyle","styleHash":"1d01e409","county":"Smyth County","lat":36.75,"lng":-81.3289,"structure_type":"TOWER","structure_name":null,"structure_address":"Off Lost Lake Rd, 4.84 mi SE of","height":106.7,"base_elevation":1321.860351,"structure_owner_name":"SMYTH COUNTY BOARD OF SUPERVISORS","structure_manager_name":null,"data_source":"FCC: Microwave (GIS)"}},{"type":"Feature","geometry":{"type":"Point","coordinates":[-81.7331,36.9464]},"properties":{"name":"11.5 KM NORTH OF SALTVILLE","styleUrl":"#towerStyle","styleHash":"1d01e409","county":"Smyth County","lat":36.9464,"lng":-81.7331,"structure_type":"TOWER","structure_name":null,"structure_address":"11.5 KM NORTH OF SALTVILLE","height":38.1,"base_elevation":1226.220581,"structure_owner_name":"SMYTH COUNTY BOARD OF SUPERVISORS","structure_manager_name":null,"data_source":"FCC: Microwave (GIS)"}},{"type":"Feature","geometry":{"type":"Point","coordinates":[-81.5202,36.833]},"properties":{"name":"109 W. Main St","styleUrl":"#towerStyle","styleHash":"1d01e409","county":"Smyth County","lat":36.833,"lng":-81.5202,"structure_type":"B","structure_name":null,"structure_address":"109 W. Main St","height":15.2,"base_elevation":668.010131,"structure_owner_name":"SMYTH COUNTY BOARD OF SUPERVISORS","structure_manager_name":null,"data_source":"FCC: Microwave (GIS)"}},{"type":"Feature","geometry":{"type":"Point","coordinates":[-81.5426,36.9019]},"properties":{"name":"8 KM NORTH OF MARION OFF STATE ROUTE 16","styleUrl":"#towerStyle","styleHash":"1d01e409","county":"Smyth County","lat":36.9019,"lng":-81.5426,"structure_type":"TOWER","structure_name":null,"structure_address":"8 KM NORTH OF MARION OFF STATE ROUTE 16","height":49.6,"base_elevation":1125.713745,"structure_owner_name":"SMYTH COUNTY BOARD OF SUPERVISORS","structure_manager_name":null,"data_source":"FCC: Microwave (GIS)"}},{"type":"Feature","geometry":{"type":"Point","coordinates":[-81.5184,36.8366]},"properties":{"name":"Vertical Asset","styleUrl":"#towerStyle","styleHash":"1d01e409","county":"Smyth County","lat":36.8366,"lng":-81.5184,"structure_type":null,"structure_name":null,"structure_address":null,"height":0,"base_elevation":646.335754,"structure_owner_name":"SMYTH COUNTY WATER DEPARTMENT","structure_manager_name":null,"data_source":"FCC: Microwave (GIS)"}},{"type":"Feature","geometry":{"type":"Point","coordinates":[-81.3289,36.75]},"properties":{"name":"Off Lost Lake Rd, 4.84 mi SE of","styleUrl":"#towerStyle","styleHash":"1d01e409","county":"Smyth County","lat":36.75,"lng":-81.3289,"structure_type":"TOWER","structure_name":null,"structure_address":"Off Lost Lake Rd, 4.84 mi SE of","height":106.7,"base_elevation":1321.860351,"structure_owner_name":"Appalchian Power Company","structure_manager_name":null,"data_source":"FCC: Microwave (GIS)"}},{"type":"Feature","geometry":{"type":"Point","coordinates":[-81.5429,36.901799]},"properties":{"name":"Off RT 16 16.5 mi N of","styleUrl":"#towerStyle","styleHash":"1d01e409","county":"Smyth County","lat":36.901799,"lng":-81.5429,"structure_type":"TOWER","structure_name":null,"structure_address":"Off RT 16 16.5 mi N of","height":49.7,"base_elevation":1123.797119,"structure_owner_name":"Appalachian Power Company","structure_manager_name":null,"data_source":"FCC: Microwave (GIS)"}},{"type":"Feature","geometry":{"type":"Point","coordinates":[-81.5419,36.9019]},"properties":{"name":"ATOP WALKER MOUNTAIN","styleUrl":"#towerStyle","styleHash":"1d01e409","county":"Smyth County","lat":36.9019,"lng":-81.5419,"structure_type":"TOWER","structure_name":null,"structure_address":"ATOP WALKER MOUNTAIN","height":38.1,"base_elevation":1120.559814,"structure_owner_name":"BLUE RIDGE PUBLIC TELEVISION, INC.","structure_manager_name":null,"data_source":"FCC: Microwave (GIS)"}},{"type":"Feature","geometry":{"type":"Point","coordinates":[-81.5419,36.9019]},"properties":{"name":"ATOP WALKER MOUNTAIN","styleUrl":"#towerStyle","styleHash":"1d01e409","county":"Smyth County","lat":36.9019,"lng":-81.5419,"structure_type":"TOWER","structure_name":null,"structure_address":"ATOP WALKER MOUNTAIN","height":38.1,"base_elevation":1120.559814,"structure_owner_name":"BLUE RIDGE PUBLIC TELEVISION, INC.","structure_manager_name":null,"data_source":"FCC: Microwave (GIS)"}},{"type":"Feature","geometry":{"type":"Point","coordinates":[-81.5419,36.9019]},"properties":{"name":"ATOP WALKER MOUNTAIN","styleUrl":"#towerStyle","styleHash":"1d01e409","county":"Smyth County","lat":36.9019,"lng":-81.5419,"structure_type":"TOWER","structure_name":null,"structure_address":"ATOP WALKER MOUNTAIN","height":38.1,"base_elevation":1120.559814,"structure_owner_name":"BLUE RIDGE PUBLIC TELEVISION, INC.","structure_manager_name":null,"data_source":"FCC: Microwave (GIS)"}},{"type":"Feature","geometry":{"type":"Point","coordinates":[-81.542699,36.9015]},"properties":{"name":"ON  WALKER  MOUNTAIN  OFF HWY. 16","styleUrl":"#towerStyle","styleHash":"1d01e409","county":"Smyth County","lat":36.9015,"lng":-81.542699,"structure_type":"TOWER","structure_name":null,"structure_address":"ON  WALKER  MOUNTAIN  OFF HWY. 16","height":60.7,"base_elevation":1117.832641,"structure_owner_name":"Alltel Communications of Petersburg, Inc.","structure_manager_name":null,"data_source":"FCC: Microwave (GIS)"}},{"type":"Feature","geometry":{"type":"Point","coordinates":[-81.7268,36.8373]},"properties":{"name":".5 MI FROM INT OF RT 107 & 617 AT 230 DEGREES","styleUrl":"#towerStyle","styleHash":"1d01e409","county":"Smyth County","lat":36.8373,"lng":-81.7268,"structure_type":null,"structure_name":null,"structure_address":".5 MI FROM INT OF RT 107 & 617 AT 230 DEGREES","height":53.3,"base_elevation":891.397949,"structure_owner_name":"Norfolk Southern Railway Company","structure_manager_name":null,"data_source":"FCC: Microwave (GIS)"}},{"type":"Feature","geometry":{"type":"Point","coordinates":[-81.3857,36.8539]},"properties":{"name":"2.25 MI ENE FROM INT OF VA 622 AND VA 686 NEAR","styleUrl":"#towerStyle","styleHash":"1d01e409","county":"Smyth County","lat":36.8539,"lng":-81.3857,"structure_type":"TOWER","structure_name":null,"structure_address":"2.25 MI ENE FROM INT OF VA 622 AND VA 686 NEAR","height":45.7,"base_elevation":946.470947,"structure_owner_name":"Norfolk Southern Railway Company","structure_manager_name":null,"data_source":"FCC: Microwave (GIS)"}},{"type":"Feature","geometry":{"type":"Point","coordinates":[-81.5423,36.9023]},"properties":{"name":"WALKER MOUNTAIN","styleUrl":"#towerStyle","styleHash":"1d01e409","county":"Smyth County","lat":36.9023,"lng":-81.5423,"structure_type":null,"structure_name":null,"structure_address":"WALKER MOUNTAIN","height":64.6,"base_elevation":1116.653442,"structure_owner_name":"ComSoft Corporation","structure_manager_name":null,"data_source":"FCC: Microwave (GIS)"}},{"type":"Feature","geometry":{"type":"Point","coordinates":[-81.5426,36.901799]},"properties":{"name":"4 MI N","styleUrl":"#towerStyle","styleHash":"1d01e409","county":"Smyth County","lat":36.901799,"lng":-81.5426,"structure_type":"TOWER","structure_name":null,"structure_address":"4 MI N","height":59.7,"base_elevation":1125.754516,"structure_owner_name":"USCOC OF VIRGINIA RSA #3, INC.","structure_manager_name":null,"data_source":"FCC: Microwave (GIS)"}},{"type":"Feature","geometry":{"type":"Point","coordinates":[-81.4859,36.8376]},"properties":{"name":"CORNER HWY 691 & 704, 2.5 MILES EAST    OF MARION, VA","styleUrl":"#towerStyle","styleHash":"1d01e409","county":"Smyth County","lat":36.8376,"lng":-81.4859,"structure_type":null,"structure_name":null,"structure_address":"CORNER HWY 691 & 704, 2.5 MILES EAST    OF MARION, VA","height":9.1,"base_elevation":715.675964,"structure_owner_name":"T.E.C. 2 BROADCASTING INC.","structure_manager_name":null,"data_source":"FCC: Microwave (GIS)"}},{"type":"Feature","geometry":{"type":"Point","coordinates":[-81.504799,36.8562]},"properties":{"name":"RADIO ROAD","styleUrl":"#towerStyle","styleHash":"1d01e409","county":"Smyth County","lat":36.8562,"lng":-81.504799,"structure_type":null,"structure_name":null,"structure_address":"RADIO ROAD","height":6.7,"base_elevation":788.669433,"structure_owner_name":"HOLSTON VALLEY BROADCASTING CORPORATION","structure_manager_name":null,"data_source":"FCC: Microwave (GIS)"}},{"type":"Feature","geometry":{"type":"Point","coordinates":[-81.5207,36.8321]},"properties":{"name":"132 MAIN STREET","styleUrl":"#towerStyle","styleHash":"1d01e409","county":"Smyth County","lat":36.8321,"lng":-81.5207,"structure_type":null,"structure_name":null,"structure_address":"132 MAIN STREET","height":12.2,"base_elevation":668.282897,"structure_owner_name":"United Telephone Southeast LLC","structure_manager_name":null,"data_source":"FCC: Microwave (GIS)"}},{"type":"Feature","geometry":{"type":"Point","coordinates":[-81.5432,36.9009]},"properties":{"name":"4.9 MI NNW","styleUrl":"#towerStyle","styleHash":"1d01e409","county":"Smyth County","lat":36.9009,"lng":-81.5432,"structure_type":null,"structure_name":null,"structure_address":"4.9 MI NNW","height":24.7,"base_elevation":1103.77539,"structure_owner_name":"United Telephone Southeast LLC","structure_manager_name":null,"data_source":"FCC: Microwave (GIS)"}},{"type":"Feature","geometry":{"type":"Point","coordinates":[-81.6472,36.8122]},"properties":{"name":"514 Lee Hwy.","styleUrl":"#towerStyle","styleHash":"1d01e409","county":"Smyth County","lat":36.8122,"lng":-81.6472,"structure_type":"B","structure_name":null,"structure_address":"514 Lee Hwy.","height":24,"base_elevation":598.779846,"structure_owner_name":"American Wood Fiber Inc","structure_manager_name":null,"data_source":"FCC: Land Mobile - Private (GIS)"}},{"type":"Feature","geometry":{"type":"Point","coordinates":[-81.6472,36.8122]},"properties":{"name":"Vertical Asset","styleUrl":"#towerStyle","styleHash":"1d01e409","county":"Smyth County","lat":36.8122,"lng":-81.6472,"structure_type":null,"structure_name":null,"structure_address":null,"height":0,"base_elevation":598.779846,"structure_owner_name":"American Wood Fiber Inc","structure_manager_name":null,"data_source":"FCC: Land Mobile - Private (GIS)"}},{"type":"Feature","geometry":{"type":"Point","coordinates":[-81.644699,36.705]},"properties":{"name":"BEACH DALE LN & SR 604","styleUrl":"#towerStyle","styleHash":"1d01e409","county":"Smyth County","lat":36.705,"lng":-81.644699,"structure_type":"TANK","structure_name":null,"structure_address":"BEACH DALE LN & SR 604","height":12.2,"base_elevation":832.121154,"structure_owner_name":"TOWN OF CHILHOWIE","structure_manager_name":null,"data_source":"FCC: Land Mobile - Private (GIS)"}},{"type":"Feature","geometry":{"type":"Point","coordinates":[-81.6714,36.8119]},"properties":{"name":"EAST OF SR 774 NORTH OF OLD STAGE RD","styleUrl":"#towerStyle","styleHash":"1d01e409","county":"Smyth County","lat":36.8119,"lng":-81.6714,"structure_type":"TANK","structure_name":null,"structure_address":"EAST OF SR 774 NORTH OF OLD STAGE RD","height":21.9,"base_elevation":668.536376,"structure_owner_name":"TOWN OF CHILHOWIE","structure_manager_name":null,"data_source":"FCC: Land Mobile - Private (GIS)"}},{"type":"Feature","geometry":{"type":"Point","coordinates":[-81.6803,36.8]},"properties":{"name":"HULL AVE & US 11","styleUrl":"#towerStyle","styleHash":"1d01e409","county":"Smyth County","lat":36.8,"lng":-81.6803,"structure_type":"BANT","structure_name":null,"structure_address":"HULL AVE & US 11","height":6.1,"base_elevation":595.285705,"structure_owner_name":"TOWN OF CHILHOWIE","structure_manager_name":null,"data_source":"FCC: Land Mobile - Private (GIS)"}},{"type":"Feature","geometry":{"type":"Point","coordinates":[-81.6592,36.7769]},"properties":{"name":"NORTH OF SR 762","styleUrl":"#towerStyle","styleHash":"1d01e409","county":"Smyth County","lat":36.7769,"lng":-81.6592,"structure_type":"TANK","structure_name":null,"structure_address":"NORTH OF SR 762","height":11.6,"base_elevation":737.53833,"structure_owner_name":"TOWN OF CHILHOWIE","structure_manager_name":null,"data_source":"FCC: Land Mobile - Private (GIS)"}},{"type":"Feature","geometry":{"type":"Point","coordinates":[-81.5197,36.8328]},"properties":{"name":"Smyth County 911 -111 W Court St., Marion","styleUrl":"#towerStyle","styleHash":"1d01e409","county":"Smyth County","lat":36.8328,"lng":-81.5197,"structure_type":"BANT","structure_name":null,"structure_address":"Smyth County 911 -111 W Court St., Marion","height":13.7,"base_elevation":666.125793,"structure_owner_name":"Virginia Department of Emergency Management","structure_manager_name":null,"data_source":"FCC: Land Mobile - Private (GIS)"}},{"type":"Feature","geometry":{"type":"Point","coordinates":[-81.3856,36.8539]},"properties":{"name":"Vertical Asset","styleUrl":"#towerStyle","styleHash":"1d01e409","county":"Smyth County","lat":36.8539,"lng":-81.3856,"structure_type":null,"structure_name":null,"structure_address":null,"height":0,"base_elevation":946.470947,"structure_owner_name":"Norfolk Southern Railway Company","structure_manager_name":null,"data_source":"FCC: Land Mobile - Private (GIS)"}},{"type":"Feature","geometry":{"type":"Point","coordinates":[-81.7258,36.8372]},"properties":{"name":"Vertical Asset","styleUrl":"#towerStyle","styleHash":"1d01e409","county":"Smyth County","lat":36.8372,"lng":-81.7258,"structure_type":null,"structure_name":null,"structure_address":null,"height":0,"base_elevation":885.280456,"structure_owner_name":"Norfolk Southern Railway Company","structure_manager_name":null,"data_source":"FCC: Land Mobile - Private (GIS)"}},{"type":"Feature","geometry":{"type":"Point","coordinates":[-81.6808,36.8]},"properties":{"name":"Vertical Asset","styleUrl":"#towerStyle","styleHash":"1d01e409","county":"Smyth County","lat":36.8,"lng":-81.6808,"structure_type":null,"structure_name":null,"structure_address":null,"height":0,"base_elevation":595.973693,"structure_owner_name":"SMYTH, COUNTY OF","structure_manager_name":null,"data_source":"FCC: Land Mobile - Private (GIS)"}},{"type":"Feature","geometry":{"type":"Point","coordinates":[-81.7431,36.8689]},"properties":{"name":"Vertical Asset","styleUrl":"#towerStyle","styleHash":"1d01e409","county":"Smyth County","lat":36.8689,"lng":-81.7431,"structure_type":null,"structure_name":null,"structure_address":null,"height":0,"base_elevation":771.922973,"structure_owner_name":"SMYTH, COUNTY OF","structure_manager_name":null,"data_source":"FCC: Land Mobile - Private (GIS)"}},{"type":"Feature","geometry":{"type":"Point","coordinates":[-81.507799,36.8514]},"properties":{"name":"565 RADIO HILL ROAD","styleUrl":"#towerStyle","styleHash":"1d01e409","county":"Smyth County","lat":36.8514,"lng":-81.507799,"structure_type":"BTWR","structure_name":null,"structure_address":"565 RADIO HILL ROAD","height":24,"base_elevation":700.410888,"structure_owner_name":"VIRGINIA, COMMONWEALTH OF","structure_manager_name":null,"data_source":"FCC: Land Mobile - Private (GIS)"}},{"type":"Feature","geometry":{"type":"Point","coordinates":[-81.4903,36.8489]},"properties":{"name":"245 Medical Park Drive","styleUrl":"#towerStyle","styleHash":"1d01e409","county":"Smyth County","lat":36.8489,"lng":-81.4903,"structure_type":"BMAST","structure_name":null,"structure_address":"245 Medical Park Drive","height":19.8,"base_elevation":669.524597,"structure_owner_name":"Smyth County Community Hospital","structure_manager_name":null,"data_source":"FCC: Land Mobile - Private (GIS)"}},{"type":"Feature","geometry":{"type":"Point","coordinates":[-81.4903,36.8489]},"properties":{"name":"Vertical Asset","styleUrl":"#towerStyle","styleHash":"1d01e409","county":"Smyth County","lat":36.8489,"lng":-81.4903,"structure_type":null,"structure_name":null,"structure_address":null,"height":0,"base_elevation":669.524597,"structure_owner_name":"Smyth County Community Hospital","structure_manager_name":null,"data_source":"FCC: Land Mobile - Private (GIS)"}},{"type":"Feature","geometry":{"type":"Point","coordinates":[-81.542199,36.9022]},"properties":{"name":"WALKER MTN, STATE RTE 16, NNW OF MARION","styleUrl":"#towerStyle","styleHash":"1d01e409","county":"Smyth County","lat":36.9022,"lng":-81.542199,"structure_type":null,"structure_name":null,"structure_address":"WALKER MTN, STATE RTE 16, NNW OF MARION","height":23.1,"base_elevation":1124.886962,"structure_owner_name":"AFTON COMMUNICATIONS CORPORATION","structure_manager_name":null,"data_source":"FCC: Paging (GIS)"}},{"type":"Feature","geometry":{"type":"Point","coordinates":[-81.542199,36.9022]},"properties":{"name":"WALKER MOUNTAIN, STATE ROUTE 16, NNW OF MARION, VIRGINIA","styleUrl":"#towerStyle","styleHash":"1d01e409","county":"Smyth County","lat":36.9022,"lng":-81.542199,"structure_type":null,"structure_name":null,"structure_address":"WALKER MOUNTAIN, STATE ROUTE 16, NNW OF MARION, VIRGINIA","height":0,"base_elevation":1124.886962,"structure_owner_name":"ComSoft Corporation","structure_manager_name":null,"data_source":"FCC: Paging (GIS)"}}]}