{
"type": "FeatureCollection",
"crs": { "type": "name", "properties": { "name": "urn:ogc:def:crs:OGC:1.3:CRS84" } },
"features": [
{ "type": "Feature", "properties": { "Name": "Todd Lake", "Description": "" }, "geometry": { "type": "Point", "coordinates": [ -79.211306, 38.365805, 0.0 ] } },
{ "type": "Feature", "properties": { "Name": "Longdale", "Description": "" }, "geometry": { "type": "Point", "coordinates": [ -79.703927, 37.790593, 0.0 ] } },
{ "type": "Feature", "properties": { "Name": "Peters Mill Run - Taskers Gap ATV", "Description": "" }, "geometry": { "type": "Point", "coordinates": [ -78.519398, 38.789179, 0.0 ] } },
{ "type": "Feature", "properties": { "Name": "Camp Roosevelt", "Description": "" }, "geometry": { "type": "Point", "coordinates": [ -78.517127, 38.73177, 0.0 ] } },
{ "type": "Feature", "properties": { "Name": "Trout Pond", "Description": "" }, "geometry": { "type": "Point", "coordinates": [ -78.733692, 38.952659, 0.0 ] } },
{ "type": "Feature", "properties": { "Name": "Bolar Flat", "Description": "" }, "geometry": { "type": "Point", "coordinates": [ -79.950068, 37.992525, 0.0 ] } },
{ "type": "Feature", "properties": { "Name": "Bolar Mountain I", "Description": "" }, "geometry": { "type": "Point", "coordinates": [ -79.971031, 37.985149, 0.0 ] } },
{ "type": "Feature", "properties": { "Name": "Coles Mountain", "Description": "" }, "geometry": { "type": "Point", "coordinates": [ -79.962383, 37.950766, 0.0 ] } },
{ "type": "Feature", "properties": { "Name": "Morris Hill", "Description": "" }, "geometry": { "type": "Point", "coordinates": [ -79.969678, 37.93472, 0.0 ] } },
{ "type": "Feature", "properties": { "Name": "Fortney Branch", "Description": "" }, "geometry": { "type": "Point", "coordinates": [ -79.980212, 37.928245, 0.0 ] } },
{ "type": "Feature", "properties": { "Name": "Elizabeth Furnace", "Description": "" }, "geometry": { "type": "Point", "coordinates": [ -78.33087, 38.924849, 0.0 ] } },
{ "type": "Feature", "properties": { "Name": "Hawk", "Description": "" }, "geometry": { "type": "Point", "coordinates": [ -78.500355, 39.11704, 0.0 ] } },
{ "type": "Feature", "properties": { "Name": "Hidden Valley", "Description": "" }, "geometry": { "type": "Point", "coordinates": [ -79.821793, 38.09947, 0.0 ] } },
{ "type": "Feature", "properties": { "Name": "Blowing Springs", "Description": "" }, "geometry": { "type": "Point", "coordinates": [ -79.883415, 38.069082, 0.0 ] } },
{ "type": "Feature", "properties": { "Name": "Braley Pond", "Description": "" }, "geometry": { "type": "Point", "coordinates": [ -79.30181, 38.286443, 0.0 ] } },
{ "type": "Feature", "properties": { "Name": "McClintic Point", "Description": "" }, "geometry": { "type": "Point", "coordinates": [ -79.919319, 38.015766, 0.0 ] } },
{ "type": "Feature", "properties": { "Name": "Hone Quarry", "Description": "" }, "geometry": { "type": "Point", "coordinates": [ -79.134744, 38.460342, 0.0 ] } },
{ "type": "Feature", "properties": { "Name": "Brandywine Lake", "Description": "" }, "geometry": { "type": "Point", "coordinates": [ -79.202368, 38.600105, 0.0 ] } },
{ "type": "Feature", "properties": { "Name": "Sherando Lake", "Description": "" }, "geometry": { "type": "Point", "coordinates": [ -79.003278, 37.923663, 0.0 ] } },
{ "type": "Feature", "properties": { "Name": "Coles Point", "Description": "" }, "geometry": { "type": "Point", "coordinates": [ -79.967703, 37.947204, 0.0 ] } },
{ "type": "Feature", "properties": { "Name": "Lowmoor Range", "Description": "" }, "geometry": { "type": "Point", "coordinates": [ -79.888723, 37.77454, 0.0 ] } },
{ "type": "Feature", "properties": { "Name": "West Side Range", "Description": "" }, "geometry": { "type": "Point", "coordinates": [ -79.178972, 38.612342, 0.0 ] } },
{ "type": "Feature", "properties": { "Name": "Woodstock Tower", "Description": "" }, "geometry": { "type": "Point", "coordinates": [ -78.449675, 38.870529, 0.0 ] } },
{ "type": "Feature", "properties": { "Name": "Wolf Gap", "Description": "" }, "geometry": { "type": "Point", "coordinates": [ -78.688915, 38.924668, 0.0 ] } },
{ "type": "Feature", "properties": { "Name": "Tomahawk Pond", "Description": "" }, "geometry": { "type": "Point", "coordinates": [ -78.840772, 38.758254, 0.0 ] } },
{ "type": "Feature", "properties": { "Name": "Lions Tale Trail", "Description": "" }, "geometry": { "type": "Point", "coordinates": [ -78.533622, 38.728588, 0.0 ] } },
{ "type": "Feature", "properties": { "Name": "North River", "Description": "" }, "geometry": { "type": "Point", "coordinates": [ -79.207234, 38.339772, 0.0 ] } },
{ "type": "Feature", "properties": { "Name": "Elkhorn Lake", "Description": "" }, "geometry": { "type": "Point", "coordinates": [ -79.23244, 38.329351, 0.0 ] } },
{ "type": "Feature", "properties": { "Name": "Crabtree Falls", "Description": "" }, "geometry": { "type": "Point", "coordinates": [ -79.077385, 37.850847, 0.0 ] } },
{ "type": "Feature", "properties": { "Name": "Augusta Springs Wetlands", "Description": "" }, "geometry": { "type": "Point", "coordinates": [ -79.31063, 38.107848, 0.0 ] } },
{ "type": "Feature", "properties": { "Name": "Confederate Breastworks", "Description": "" }, "geometry": { "type": "Point", "coordinates": [ -79.383577, 38.311845, 0.0 ] } },
{ "type": "Feature", "properties": { "Name": "Hite Hollow Range", "Description": "" }, "geometry": { "type": "Point", "coordinates": [ -79.345632, 38.11992, 0.0 ] } },
{ "type": "Feature", "properties": { "Name": "Bath County Range", "Description": "" }, "geometry": { "type": "Point", "coordinates": [ -79.698485, 38.069648, 0.0 ] } },
{ "type": "Feature", "properties": { "Name": "National Childrens Forest", "Description": "" }, "geometry": { "type": "Point", "coordinates": [ -80.074114, 37.660463, 0.0 ] } },
{ "type": "Feature", "properties": { "Name": "Rocky Run ATV", "Description": "" }, "geometry": { "type": "Point", "coordinates": [ -79.025556, 38.564316, 0.0 ] } },
{ "type": "Feature", "properties": { "Name": "South Pedlar ATV", "Description": "" }, "geometry": { "type": "Point", "coordinates": [ -79.353686, 37.576826, 0.0 ] } }
]
}
