{"type":"FeatureCollection","features":[{"type":"Feature","geometry":{"type":"Point","coordinates":[-76.1948568315222,36.92661225697735]},"properties":{"OBJECTID":1,"PRECNAME":"East Ocean View","PRECNUM":503,"POLLPLACE":"East Ocean View Recreation Center","ADDRESS":"20th Bay Street and Pretty Lake Avenue"}},{"type":"Feature","geometry":{"type":"Point","coordinates":[-76.22034034312098,36.925661163717955]},"properties":{"OBJECTID":2,"PRECNAME":"Tarrallton","PRECNUM":509,"POLLPLACE":"Tarrallton Recreation Center","ADDRESS":"2100 Tarrallton Drive"}},{"type":"Feature","geometry":{"type":"Point","coordinates":[-76.23863408466144,36.91948254082307]},"properties":{"OBJECTID":3,"PRECNAME":"Third Presbyterian","PRECNUM":510,"POLLPLACE":"Third Presbyterian Church","ADDRESS":"8065 Carlton Street"}},{"type":"Feature","geometry":{"type":"Point","coordinates":[-76.26635772029272,36.917481569670365]},"properties":{"OBJECTID":4,"PRECNAME":"Wesley","PRECNUM":217,"POLLPLACE":"Wesley Memorial Methodist Church","ADDRESS":"288 E. Little Creek Road"}},{"type":"Feature","geometry":{"type":"Point","coordinates":[-76.20939704062793,36.91715811693841]},"properties":{"OBJECTID":5,"PRECNAME":"Little Creek","PRECNUM":505,"POLLPLACE":"Little Creek Elementary School","ADDRESS":"7900 Tarpon Place"}},{"type":"Feature","geometry":{"type":"Point","coordinates":[-76.30063722041575,36.91635795261196]},"properties":{"OBJECTID":6,"PRECNAME":"Zion Grace","PRECNUM":106,"POLLPLACE":"Zion Grace Methodist Church","ADDRESS":"1440 W. Little Creek Road"}},{"type":"Feature","geometry":{"type":"Point","coordinates":[-76.221883477212,36.912122310164996]},"properties":{"OBJECTID":7,"PRECNAME":"Larrymore","PRECNUM":504,"POLLPLACE":"Larrymore Elementary School","ADDRESS":"7600 Halprin Drive"}},{"type":"Feature","geometry":{"type":"Point","coordinates":[-76.21098730643772,36.91140715567418]},"properties":{"OBJECTID":8,"PRECNAME":"Azalea Gardens","PRECNUM":401,"POLLPLACE":"Azalea Gardens Middle School","ADDRESS":"7721 Azalea Garden Road"}},{"type":"Feature","geometry":{"type":"Point","coordinates":[-76.28085544873859,36.90788829484298]},"properties":{"OBJECTID":9,"PRECNAME":"Granby","PRECNUM":101,"POLLPLACE":"Granby Elementary School","ADDRESS":"7101 Newport Avenue"}},{"type":"Feature","geometry":{"type":"Point","coordinates":[-76.26821452245476,36.90566877208849]},"properties":{"OBJECTID":10,"PRECNAME":"Suburban Park","PRECNUM":215,"POLLPLACE":"Suburban Park Elementary School","ADDRESS":"310 Thole Street"}},{"type":"Feature","geometry":{"type":"Point","coordinates":[-76.23719560822674,36.90562703608884]},"properties":{"OBJECTID":11,"PRECNAME":"Rosemont","PRECNUM":310,"POLLPLACE":"Rosemont Middle School","ADDRESS":"1401 Auburn Avenue"}},{"type":"Feature","geometry":{"type":"Point","coordinates":[-76.23526248293315,36.901952909420764]},"properties":{"OBJECTID":12,"PRECNAME":"Barron Black","PRECNUM":406,"POLLPLACE":"Barron Black Branch Library","ADDRESS":"6700 E. Tanners Creek Drive"}},{"type":"Feature","geometry":{"type":"Point","coordinates":[-76.23309009453716,36.90040494860447]},"properties":{"OBJECTID":13,"PRECNAME":"Tanners Creek","PRECNUM":302,"POLLPLACE":"Tanners Creek Elementary School","ADDRESS":"1335 Longdale Drive"}},{"type":"Feature","geometry":{"type":"Point","coordinates":[-76.26697141812254,36.88794379441998]},"properties":{"OBJECTID":14,"PRECNAME":"Willard","PRECNUM":218,"POLLPLACE":"Willard Model School Lakewood","ADDRESS":"1511 Willow Wood Drive"}},{"type":"Feature","geometry":{"type":"Point","coordinates":[-76.30275333022739,36.89057514133698]},"properties":{"OBJECTID":15,"PRECNAME":"Old Dominion","PRECNUM":201,"POLLPLACE":"Larchmont Recreation Center","ADDRESS":"1167 Bolling Avenue"}},{"type":"Feature","geometry":{"type":"Point","coordinates":[-76.26291558359401,36.88351754010538]},"properties":{"OBJECTID":16,"PRECNAME":"Lafayette Winona","PRECNUM":305,"POLLPLACE":"Lafayette Winona Middle School","ADDRESS":"1701 Alsace Avenue"}},{"type":"Feature","geometry":{"type":"Point","coordinates":[-76.2911774737055,36.875944073734715]},"properties":{"OBJECTID":17,"PRECNAME":"Park Place","PRECNUM":212,"POLLPLACE":"Park Place Multi-purpose Center","ADDRESS":"606 W. 29th Street"}},{"type":"Feature","geometry":{"type":"Point","coordinates":[-76.27064769198853,36.86876958982673]},"properties":{"OBJECTID":18,"PRECNAME":"Lindenwood","PRECNUM":306,"POLLPLACE":"Lindenwood Elementary School","ADDRESS":"2700 Ludlow Street"}},{"type":"Feature","geometry":{"type":"Point","coordinates":[-76.30448213074564,36.868908845032465]},"properties":{"OBJECTID":20,"PRECNAME":"Taylor Elementary","PRECNUM":213,"POLLPLACE":"Taylor Elementary School","ADDRESS":"1122 W. Princess Anne Road"}},{"type":"Feature","geometry":{"type":"Point","coordinates":[-76.25129095523204,36.86494168626603]},"properties":{"OBJECTID":21,"PRECNAME":"Ballentine","PRECNUM":301,"POLLPLACE":"Ballentine Elementary School","ADDRESS":"2415 Ballentine Boulevard"}},{"type":"Feature","geometry":{"type":"Point","coordinates":[-76.29070527289856,36.86515522208723]},"properties":{"OBJECTID":22,"PRECNAME":"Maury","PRECNUM":210,"POLLPLACE":"Maury High School","ADDRESS":"322 Shirley Avenue"}},{"type":"Feature","geometry":{"type":"Point","coordinates":[-76.19423215377142,36.8572169608928]},"properties":{"OBJECTID":24,"PRECNAME":"Fairlawn","PRECNUM":409,"POLLPLACE":"Fairlawn Elementary School","ADDRESS":"1132 Wade Street"}},{"type":"Feature","geometry":{"type":"Point","coordinates":[-76.25257535666272,36.85748374596456]},"properties":{"OBJECTID":25,"PRECNAME":"Bowling Park","PRECNUM":303,"POLLPLACE":"Bowling Park Elementary School","ADDRESS":"2861 E. Princess Anne Road"}},{"type":"Feature","geometry":{"type":"Point","coordinates":[-76.2911976484333,36.859167670390526]},"properties":{"OBJECTID":26,"PRECNAME":"Ghent Square","PRECNUM":203,"POLLPLACE":"Ghent Square Community Center","ADDRESS":"852 Mowbray Arch"}},{"type":"Feature","geometry":{"type":"Point","coordinates":[-76.23726069101548,36.85133705933159]},"properties":{"OBJECTID":28,"PRECNAME":"Ingleside","PRECNUM":412,"POLLPLACE":"Ingleside Recreation Center","ADDRESS":"948 Ingleside Road"}},{"type":"Feature","geometry":{"type":"Point","coordinates":[-76.2662520696603,36.85164476583921]},"properties":{"OBJECTID":29,"PRECNAME":"Brambleton","PRECNUM":403,"POLLPLACE":"Jordan Newby Branch Library","ADDRESS":"961 Park Avenue"}},{"type":"Feature","geometry":{"type":"Point","coordinates":[-76.21309032863913,36.84499766421111]},"properties":{"OBJECTID":31,"PRECNAME":"Poplar Halls","PRECNUM":413,"POLLPLACE":"Poplar Halls Elementary School","ADDRESS":"5523 Pebble Lane"}},{"type":"Feature","geometry":{"type":"Point","coordinates":[-76.2512134346325,36.84449341899716]},"properties":{"OBJECTID":32,"PRECNAME":"Chesterfield","PRECNUM":405,"POLLPLACE":"Chesterfield Heights Elementary School","ADDRESS":"2915 Westminster Avenue"}},{"type":"Feature","geometry":{"type":"Point","coordinates":[-76.19545772819835,36.84062385811104]},"properties":{"OBJECTID":33,"PRECNAME":"Easton","PRECNUM":408,"POLLPLACE":"Easton Preschool","ADDRESS":"6045 Curlew Drive"}},{"type":"Feature","geometry":{"type":"Point","coordinates":[-76.28353026424173,36.83172203200894]},"properties":{"OBJECTID":34,"PRECNAME":"Berkley","PRECNUM":402,"POLLPLACE":"Berkley Recreation Center","ADDRESS":"89 Liberty Street"}},{"type":"Feature","geometry":{"type":"Point","coordinates":[-76.30415866930099,36.90121856097319]},"properties":{"OBJECTID":36,"PRECNAME":"Larchmont Library","PRECNUM":208,"POLLPLACE":"Larchmont Branch Library","ADDRESS":"6525 Hampton Boulevard"}},{"type":"Feature","geometry":{"type":"Point","coordinates":[-76.2588273566792,36.934584246323]},"properties":{"OBJECTID":37,"PRECNAME":"Northside","PRECNUM":103,"POLLPLACE":"Therapeutic Rec Center","ADDRESS":"180 E Evans Street"}},{"type":"Feature","geometry":{"type":"Point","coordinates":[-76.29479794244087,36.886680090108584]},"properties":{"OBJECTID":38,"PRECNAME":"Immanuel","PRECNUM":204,"POLLPLACE":"Immanuel Presbyterian Church","ADDRESS":"4700 Colley Avenue"}},{"type":"Feature","geometry":{"type":"Point","coordinates":[-76.26716272259448,36.86100798763392]},"properties":{"OBJECTID":39,"PRECNAME":"Union Chapel","PRECNUM":313,"POLLPLACE":"Union Chapel A.M.E. Church","ADDRESS":"1200 St. Julian Avenue"}},{"type":"Feature","geometry":{"type":"Point","coordinates":[-76.25982174642084,36.955124751500264]},"properties":{"OBJECTID":40,"PRECNAME":"Ocean View School","PRECNUM":102,"POLLPLACE":"Ocean View  Elementary School","ADDRESS":"9501 Mason Creek Road"}},{"type":"Feature","geometry":{"type":"Point","coordinates":[-76.25201665742783,36.91878450330229]},"properties":{"OBJECTID":41,"PRECNAME":"Crossroads","PRECNUM":202,"POLLPLACE":"Crossroads Elementary School","ADDRESS":"7920 Tidewater Drive"}},{"type":"Feature","geometry":{"type":"Point","coordinates":[-76.23808601797867,36.87765726520986]},"properties":{"OBJECTID":42,"PRECNAME":"Sherwood","PRECNUM":311,"POLLPLACE":"Sherwood Forest Rec Center","ADDRESS":"4537 Little John Drive"}},{"type":"Feature","geometry":{"type":"Point","coordinates":[-76.29370444911542,36.91544228913657]},"properties":{"OBJECTID":43,"PRECNAME":"Titustown","PRECNUM":104,"POLLPLACE":"Titustown Art/Recreation Center","ADDRESS":"7549 Diven Street"}},{"type":"Feature","geometry":{"type":"Point","coordinates":[-76.24610804748198,36.94950498348786]},"properties":{"OBJECTID":44,"PRECNAME":"Ocean View Center","PRECNUM":506,"POLLPLACE":"Ocean View Center","ADDRESS":"600 E. Ocean View Avenue"}},{"type":"Feature","geometry":{"type":"Point","coordinates":[-76.25114415304844,36.95292710707814]},"properties":{"OBJECTID":45,"PRECNAME":"Pretlow","PRECNUM":507,"POLLPLACE":"Pretlow Library","ADDRESS":"111 W. Ocean View Avenue"}},{"type":"Feature","geometry":{"type":"Point","coordinates":[-76.24099652374207,36.870208133306825]},"properties":{"OBJECTID":47,"PRECNAME":"Coleman Place School","PRECNUM":304,"POLLPLACE":"Coleman Place Elementary School","ADDRESS":"2245 Palmyra"}},{"type":"Feature","geometry":{"type":"Point","coordinates":[-76.23511677630948,36.93516016998229]},"properties":{"OBJECTID":48,"PRECNAME":"Bayview","PRECNUM":501,"POLLPLACE":"Bayview Recreation Center","ADDRESS":"8613 Willow Terrace"}},{"type":"Feature","geometry":{"type":"Point","coordinates":[-76.3041682754788,36.88157466141169]},"properties":{"OBJECTID":49,"PRECNAME":"Lamberts Point","PRECNUM":207,"POLLPLACE":"Lamberts Point","ADDRESS":"1251 W 42nd Street"}},{"type":"Feature","geometry":{"type":"Point","coordinates":[-76.24200569823226,36.893947115097774]},"properties":{"OBJECTID":50,"PRECNAME":"Norview","PRECNUM":309,"POLLPLACE":"Norview Middle School","ADDRESS":"6325 Sewells Point Road"}},{"type":"Feature","geometry":{"type":"Point","coordinates":[-76.19813407453087,36.87059380321524]},"properties":{"OBJECTID":19,"PRECNAME":"Lake Taylor High","PRECNUM":407,"POLLPLACE":"Lake Taylor High School","ADDRESS":"1384 Kempsville Road"}},{"type":"Feature","geometry":{"type":"Point","coordinates":[-76.29235967368989,36.8553385494041]},"properties":{"OBJECTID":23,"PRECNAME":"Chrysler Museum","PRECNUM":211,"POLLPLACE":"Chysler Museum Glass Studio","ADDRESS":"745 Duke Street"}},{"type":"Feature","geometry":{"type":"Point","coordinates":[-76.27582512889441,36.847535731882346]},"properties":{"OBJECTID":30,"PRECNAME":"Ruffner Academy","PRECNUM":411,"POLLPLACE":"Ruffner Academy","ADDRESS":"610 May Avenue"}},{"type":"Feature","geometry":{"type":"Point","coordinates":[-76.2762820216327,36.87660279852226]},"properties":{"OBJECTID":46,"PRECNAME":"Virginia Zoo","PRECNUM":214,"POLLPLACE":"The Virginia Zoo","ADDRESS":"3500 Granby Street"}},{"type":"Feature","geometry":{"type":"Point","coordinates":[-76.2829276660104,36.855173100024274]},"properties":{"OBJECTID":27,"PRECNAME":"Young Park","PRECNUM":414,"POLLPLACE":"Young Terrace Community Center","ADDRESS":"804 Whitaker Lane"}},{"type":"Feature","geometry":{"type":"Point","coordinates":[-76.26002132213682,36.82329006767185]},"properties":{"OBJECTID":35,"PRECNAME":"Campostella","PRECNUM":404,"POLLPLACE":"Southside Aquatics Center","ADDRESS":"1750 Campostella Road"}}]}