{"type":"FeatureCollection","features":[{"type":"Feature","geometry":{"type":"Point","coordinates":[-77.138392,38.806497]},"properties":{"FID":1,"NUM":307,"PRECINCT":"South Port Apts.","ADDRESS":"6112 Edsall Road"}},{"type":"Feature","geometry":{"type":"Point","coordinates":[-77.126382,38.80521]},"properties":{"FID":2,"NUM":304,"PRECINCT":"Tucker School","ADDRESS":"435 Ferdinand Day Drive"}},{"type":"Feature","geometry":{"type":"Point","coordinates":[-77.12557,38.833353]},"properties":{"FID":3,"NUM":305,"PRECINCT":"John Adams School","ADDRESS":"5651 Rayburn Avenue"}},{"type":"Feature","geometry":{"type":"Point","coordinates":[-77.111958,38.840392]},"properties":{"FID":4,"NUM":208,"PRECINCT":"NOVA Arts Center","ADDRESS":"3001 N. Beauregard Street"}},{"type":"Feature","geometry":{"type":"Point","coordinates":[-77.115906,38.821795]},"properties":{"FID":5,"NUM":209,"PRECINCT":"James K. Polk School","ADDRESS":"5000 Polk Avenue"}},{"type":"Feature","geometry":{"type":"Point","coordinates":[-77.111768,38.816512]},"properties":{"FID":6,"NUM":302,"PRECINCT":"Patrick Henry Rec Center","ADDRESS":"4643 Taney Avenue"}},{"type":"Feature","geometry":{"type":"Point","coordinates":[-77.117503,38.812385]},"properties":{"FID":7,"NUM":303,"PRECINCT":"Beatley Library","ADDRESS":"5005 Duke Street"}},{"type":"Feature","geometry":{"type":"Point","coordinates":[-77.083513,38.823226]},"properties":{"FID":9,"NUM":206,"PRECINCT":"Chinquapin Park Recreation Center","ADDRESS":"3210 King Street"}},{"type":"Feature","geometry":{"type":"Point","coordinates":[-77.082467,38.815019]},"properties":{"FID":10,"NUM":205,"PRECINCT":"Douglas MacArthur School","ADDRESS":"1101 Janneys Lane"}},{"type":"Feature","geometry":{"type":"Point","coordinates":[-77.096129,38.820772]},"properties":{"FID":8,"NUM":207,"PRECINCT":"Temple Beth El Synagogue","ADDRESS":"3830 Seminary Road"}},{"type":"Feature","geometry":{"type":"Point","coordinates":[-77.060081,38.828736]},"properties":{"FID":14,"NUM":107,"PRECINCT":"Mt. Vernon Rec Center","ADDRESS":"2701 Commonwealth Avenue"}},{"type":"Feature","geometry":{"type":"Point","coordinates":[-77.055596,38.816186]},"properties":{"FID":15,"NUM":108,"PRECINCT":"George Washington Middle School","ADDRESS":"1005 Mount Vernon Avenue"}},{"type":"Feature","geometry":{"type":"Point","coordinates":[-77.083688,38.827039]},"properties":{"FID":11,"NUM":204,"PRECINCT":"Blessed Sacrament Church","ADDRESS":"1427 W. Braddock Road"}},{"type":"Feature","geometry":{"type":"Point","coordinates":[-77.042965,38.805233]},"properties":{"FID":18,"NUM":102,"PRECINCT":"City Hall","ADDRESS":"301 King Street"}},{"type":"Feature","geometry":{"type":"Point","coordinates":[-77.073412,38.828395]},"properties":{"FID":13,"NUM":202,"PRECINCT":"George Mason School","ADDRESS":"2601 Cameron Mills Road"}},{"type":"Feature","geometry":{"type":"Point","coordinates":[-77.080298,38.831422]},"properties":{"FID":12,"NUM":203,"PRECINCT":"Agudas Achim Congregation","ADDRESS":"2908 Valley Drive"}},{"type":"Feature","geometry":{"type":"Point","coordinates":[-77.046724,38.816479]},"properties":{"FID":16,"NUM":109,"PRECINCT":"Fire Department Headquarters","ADDRESS":"900 Second Street"}},{"type":"Feature","geometry":{"type":"Point","coordinates":[-77.056496,38.807693]},"properties":{"FID":19,"NUM":104,"PRECINCT":"Durant Center","ADDRESS":"1605 Cameron Street"}},{"type":"Feature","geometry":{"type":"Point","coordinates":[-77.041671,38.811259]},"properties":{"FID":17,"NUM":101,"PRECINCT":"Ladrey Senior Building","ADDRESS":"300 Wythe Street"}},{"type":"Feature","geometry":{"type":"Point","coordinates":[-77.053618,38.79744]},"properties":{"FID":21,"NUM":105,"PRECINCT":"Lee Center","ADDRESS":"1108 Jefferson Street"}},{"type":"Feature","geometry":{"type":"Point","coordinates":[-77.046795,38.799561]},"properties":{"FID":20,"NUM":103,"PRECINCT":"Lyles Crouch School","ADDRESS":"530 S. Saint Asaph Street"}},{"type":"Feature","geometry":{"type":"Point","coordinates":[-77.057948,38.837045]},"properties":{"FID":23,"NUM":106,"PRECINCT":"Cora Kelly Center","ADDRESS":"25 W Reed Avenue"}},{"type":"Feature","geometry":{"type":"Point","coordinates":[-77.06485,38.812721]},"properties":{"FID":22,"NUM":201,"PRECINCT":"Maury School","ADDRESS":"600 Russell Road"}},{"type":"Feature","geometry":{"type":"Point","coordinates":[-77.130435,38.827202]},"properties":{"FID":24,"NUM":306,"PRECINCT":"William Ramsay Rec Center","ADDRESS":"5650 Sanger Avenue"}},{"type":"Feature","geometry":{"type":"Point","coordinates":[-77.118335,38.80897]},"properties":{"FID":25,"NUM":308,"PRECINCT":"Cameron Station Community Center","ADDRESS":"200 Cameron Station Boulevard"}},{"type":"Feature","geometry":{"type":"Point","coordinates":[-77.11629,38.83811]},"properties":{"FID":26,"NUM":210,"PRECINCT":"St. James Church","ADDRESS":"5000 Echols Avenue"}}]}