{"type":"FeatureCollection","features":[{"type":"Feature","geometry":{"type":"Point","coordinates":[-80.429,37.2417]},"properties":{"name":"700 Appalachian Drive","styleUrl":"#towerStyle","styleHash":"1d01e409","county":"Montgomery County","lat":37.2417,"lng":-80.429,"structure_type":null,"structure_name":null,"structure_address":"700 Appalachian Drive","height":13.7,"base_elevation":650.706298,"structure_owner_name":"United States Cellular Corporation","structure_manager_name":null,"data_source":"FCC: Antenna Structure Registration (GIS)"}},{"type":"Feature","geometry":{"type":"Point","coordinates":[-80.4114,37.2278]},"properties":{"name":"109 South Clay St.","styleUrl":"#towerStyle","styleHash":"1d01e409","county":"Montgomery County","lat":37.2278,"lng":-80.4114,"structure_type":null,"structure_name":null,"structure_address":"109 South Clay St.","height":34.1,"base_elevation":641.238647,"structure_owner_name":"Verizon Virginia Inc.","structure_manager_name":null,"data_source":"FCC: Antenna Structure Registration (GIS)"}},{"type":"Feature","geometry":{"type":"Point","coordinates":[-80.4577,37.1869]},"properties":{"name":"2075 OILWELL ROAD","styleUrl":"#towerStyle","styleHash":"1d01e409","county":"Montgomery County","lat":37.1869,"lng":-80.4577,"structure_type":null,"structure_name":null,"structure_address":"2075 OILWELL ROAD","height":55.8,"base_elevation":751.617919,"structure_owner_name":"CROWN CASTLE GT COMPANY LLC","structure_manager_name":null,"data_source":"FCC: Antenna Structure Registration (GIS)"}},{"type":"Feature","geometry":{"type":"Point","coordinates":[-80.1923,37.1626]},"properties":{"name":"Honeysuckle Rd on Poor Mountain in Montgomery County, VA","styleUrl":"#towerStyle","styleHash":"1d01e409","county":"Montgomery County","lat":37.1626,"lng":-80.1923,"structure_type":null,"structure_name":null,"structure_address":"Honeysuckle Rd on Poor Mountain in Montgomery County, VA","height":64,"base_elevation":1147.994873,"structure_owner_name":"VIRGINIA Department of State Police","structure_manager_name":null,"data_source":"FCC: Antenna Structure Registration (GIS)"}},{"type":"Feature","geometry":{"type":"Point","coordinates":[-80.5321,37.1728]},"properties":{"name":"290 Raven Lane","styleUrl":"#towerStyle","styleHash":"1d01e409","county":"Montgomery County","lat":37.1728,"lng":-80.5321,"structure_type":null,"structure_name":null,"structure_address":"290 Raven Lane","height":59.4,"base_elevation":623.068237,"structure_owner_name":"United States Cellular Corporation","structure_manager_name":null,"data_source":"FCC: Antenna Structure Registration (GIS)"}},{"type":"Feature","geometry":{"type":"Point","coordinates":[-80.246499,37.2211]},"properties":{"name":"1754 PEDLAR RD","styleUrl":"#towerStyle","styleHash":"1d01e409","county":"Montgomery County","lat":37.2211,"lng":-80.246499,"structure_type":null,"structure_name":null,"structure_address":"1754 PEDLAR RD","height":56.4,"base_elevation":590.276733,"structure_owner_name":"CROWN CASTLE GT COMPANY LLC","structure_manager_name":null,"data_source":"FCC: Antenna Structure Registration (GIS)"}},{"type":"Feature","geometry":{"type":"Point","coordinates":[-80.247,37.2206]},"properties":{"name":"1 MI NORTH","styleUrl":"#towerStyle","styleHash":"1d01e409","county":"Montgomery County","lat":37.2206,"lng":-80.247,"structure_type":null,"structure_name":null,"structure_address":"1 MI NORTH","height":61,"base_elevation":591.874328,"structure_owner_name":"United States Cellular Corporation","structure_manager_name":null,"data_source":"FCC: Antenna Structure Registration (GIS)"}},{"type":"Feature","geometry":{"type":"Point","coordinates":[-80.1923,37.1626]},"properties":{"name":"Poor Mountain, Honeysuckle Rd., Montgomery County","styleUrl":"#towerStyle","styleHash":"1d01e409","county":"Montgomery County","lat":37.1626,"lng":-80.1923,"structure_type":null,"structure_name":null,"structure_address":"Poor Mountain, Honeysuckle Rd., Montgomery County","height":62.5,"base_elevation":1147.994873,"structure_owner_name":"Virginia Department of State Police","structure_manager_name":null,"data_source":"FCC: Antenna Structure Registration (GIS)"}},{"type":"Feature","geometry":{"type":"Point","coordinates":[-80.4572,37.1869]},"properties":{"name":"Oil Well Road","styleUrl":"#towerStyle","styleHash":"1d01e409","county":"Montgomery County","lat":37.1869,"lng":-80.4572,"structure_type":null,"structure_name":null,"structure_address":"Oil Well Road","height":31.7,"base_elevation":751.458129,"structure_owner_name":"SBA Properties, Inc.","structure_manager_name":null,"data_source":"FCC: Antenna Structure Registration (GIS)"}},{"type":"Feature","geometry":{"type":"Point","coordinates":[-80.4436,37.2239]},"properties":{"name":"901 Plantation Road","styleUrl":"#towerStyle","styleHash":"1d01e409","county":"Montgomery County","lat":37.2239,"lng":-80.4436,"structure_type":null,"structure_name":null,"structure_address":"901 Plantation Road","height":24.7,"base_elevation":634.288879,"structure_owner_name":"New Cingular Wireless PCS, LLC","structure_manager_name":null,"data_source":"FCC: Antenna Structure Registration (GIS)"}},{"type":"Feature","geometry":{"type":"Point","coordinates":[-80.4556,37.1872]},"properties":{"name":"Price Mountain,  off Oilwell Road; 3.7 mi SW of Blacksburg","styleUrl":"#towerStyle","styleHash":"1d01e409","county":"Montgomery County","lat":37.1872,"lng":-80.4556,"structure_type":null,"structure_name":null,"structure_address":"Price Mountain,  off Oilwell Road; 3.7 mi SW of Blacksburg","height":34.4,"base_elevation":749.86975,"structure_owner_name":"Communications Facilities Inc.","structure_manager_name":null,"data_source":"FCC: Antenna Structure Registration (GIS)"}},{"type":"Feature","geometry":{"type":"Point","coordinates":[-80.5206,37.2308]},"properties":{"name":"2418 Poverty Creek Road","styleUrl":"#towerStyle","styleHash":"1d01e409","county":"Montgomery County","lat":37.2308,"lng":-80.5206,"structure_type":null,"structure_name":null,"structure_address":"2418 Poverty Creek Road","height":45.7,"base_elevation":588.139038,"structure_owner_name":"Communications Infrastructure Group, LLC","structure_manager_name":null,"data_source":"FCC: Antenna Structure Registration (GIS)"}},{"type":"Feature","geometry":{"type":"Point","coordinates":[-80.482399,37.1868]},"properties":{"name":"2797 Stroubles Creek Road","styleUrl":"#towerStyle","styleHash":"1d01e409","county":"Montgomery County","lat":37.1868,"lng":-80.482399,"structure_type":null,"structure_name":null,"structure_address":"2797 Stroubles Creek Road","height":36.5,"base_elevation":717.308349,"structure_owner_name":"Communications Infrastructure Group, LLC","structure_manager_name":null,"data_source":"FCC: Antenna Structure Registration (GIS)"}},{"type":"Feature","geometry":{"type":"Point","coordinates":[-80.3728,37.1407]},"properties":{"name":"Water tank on US Route 460","styleUrl":"#towerStyle","styleHash":"1d01e409","county":"Montgomery County","lat":37.1407,"lng":-80.3728,"structure_type":null,"structure_name":null,"structure_address":"Water tank on US Route 460","height":42.7,"base_elevation":669.050964,"structure_owner_name":"Christiansburg, Town of","structure_manager_name":null,"data_source":"FCC: Antenna Structure Registration (GIS)"}},{"type":"Feature","geometry":{"type":"Point","coordinates":[-80.415599,37.2185]},"properties":{"name":"POULTRY HILL on VPI & SU CAMPUS in","styleUrl":"#towerStyle","styleHash":"1d01e409","county":"Montgomery County","lat":37.2185,"lng":-80.415599,"structure_type":null,"structure_name":null,"structure_address":"POULTRY HILL on VPI & SU CAMPUS in","height":10.7,"base_elevation":631.82019,"structure_owner_name":"Virginia, Commonwealth of","structure_manager_name":null,"data_source":"FCC: Antenna Structure Registration (GIS)"}},{"type":"Feature","geometry":{"type":"Point","coordinates":[-80.4076,37.2061]},"properties":{"name":"VIRGINIA TECH AIRPORT 1600 RAMBLE ROAD","styleUrl":"#towerStyle","styleHash":"1d01e409","county":"Montgomery County","lat":37.2061,"lng":-80.4076,"structure_type":null,"structure_name":null,"structure_address":"VIRGINIA TECH AIRPORT 1600 RAMBLE ROAD","height":9.1,"base_elevation":644.621948,"structure_owner_name":"Commonwealth of Virginia","structure_manager_name":null,"data_source":"FCC: Antenna Structure Registration (GIS)"}},{"type":"Feature","geometry":{"type":"Point","coordinates":[-80.39670971,37.22125238]},"properties":{"name":"1303 Palmer Drive","styleUrl":"#towerStyle","styleHash":"1d01e409","county":"Montgomery County","lat":37.22125238,"lng":-80.39670971,"structure_type":"Highland Park IMG Storage Water Tank #1","structure_name":null,"structure_address":"1303 Palmer Drive","height":null,"base_elevation":2279.757675,"structure_owner_name":"Blacksburg, Town of","structure_manager_name":null,"data_source":"Virginia Municipal League"}},{"type":"Feature","geometry":{"type":"Point","coordinates":[-80.39717132,37.22055996]},"properties":{"name":"1303 Palmer Drive","styleUrl":"#towerStyle","styleHash":"1d01e409","county":"Montgomery County","lat":37.22055996,"lng":-80.39717132,"structure_type":"Highlands Water Storage Tank #2","structure_name":null,"structure_address":"1303 Palmer Drive","height":null,"base_elevation":2244.028479,"structure_owner_name":"Blacksburg, Town of","structure_manager_name":null,"data_source":"Virginia Municipal League"}},{"type":"Feature","geometry":{"type":"Point","coordinates":[-80.39690958,37.22104775]},"properties":{"name":"1303 Palmer Drive","styleUrl":"#towerStyle","styleHash":"1d01e409","county":"Montgomery County","lat":37.22104775,"lng":-80.39690958,"structure_type":"Highlands Water Storage Tank #3","structure_name":null,"structure_address":"1303 Palmer Drive","height":null,"base_elevation":2265.089213,"structure_owner_name":"Blacksburg, Town of","structure_manager_name":null,"data_source":"Virginia Municipal League"}},{"type":"Feature","geometry":{"type":"Point","coordinates":[-80.41003445,37.25152144]},"properties":{"name":"207 Neil Street","styleUrl":"#towerStyle","styleHash":"1d01e409","county":"Montgomery County","lat":37.25152144,"lng":-80.41003445,"structure_type":"Neil Water Tank","structure_name":null,"structure_address":"207 Neil Street","height":null,"base_elevation":2258.626655,"structure_owner_name":"Blacksburg, Town of","structure_manager_name":null,"data_source":"Virginia Municipal League"}},{"type":"Feature","geometry":{"type":"Point","coordinates":[-80.41380469,37.18012435]},"properties":{"name":"555 Virtue Lane","styleUrl":"#towerStyle","styleHash":"1d01e409","county":"Montgomery County","lat":37.18012435,"lng":-80.41380469,"structure_type":"Meririmac Tank #1","structure_name":null,"structure_address":"555 Virtue Lane","height":null,"base_elevation":2119.870992,"structure_owner_name":"NRV Regional Water Authority","structure_manager_name":null,"data_source":"Virginia Municipal League"}},{"type":"Feature","geometry":{"type":"Point","coordinates":[-80.41542272,37.18110587]},"properties":{"name":"555 Virtue Lane.","styleUrl":"#towerStyle","styleHash":"1d01e409","county":"Montgomery County","lat":37.18110587,"lng":-80.41542272,"structure_type":"Merrimac Tank #2","structure_name":null,"structure_address":"555 Virtue Lane.","height":null,"base_elevation":2205.158815,"structure_owner_name":"NRV Regional Water Authority","structure_manager_name":null,"data_source":"Virginia Municipal League"}},{"type":"Feature","geometry":{"type":"Point","coordinates":[-80.410911,37.169354]},"properties":{"name":"Landfill - Pretreatment","styleUrl":"#towerStyle","styleHash":"1d01e409","county":"Montgomery County","lat":37.169354,"lng":-80.410911,"structure_type":"Holding Tank","structure_name":null,"structure_address":"Landfill - Pretreatment","height":null,"base_elevation":2064.105122,"structure_owner_name":"Montgomery Regional Solid Waste Authority","structure_manager_name":null,"data_source":"Virginia Municipal League"}},{"type":"Feature","geometry":{"type":"Point","coordinates":[-80.3728,37.1407]},"properties":{"name":"Water Tank on US Route 460","styleUrl":"#towerStyle","styleHash":"1d01e409","county":"Montgomery County","lat":37.1407,"lng":-80.3728,"structure_type":null,"structure_name":null,"structure_address":"Water Tank on US Route 460","height":42.7,"base_elevation":669.050964,"structure_owner_name":"Christiansburg, Town of","structure_manager_name":null,"data_source":"FCC: Antenna Structure Registration (GIS)"}},{"type":"Feature","geometry":{"type":"Point","coordinates":[-80.4024,37.2003]},"properties":{"name":"208 Knollwood Dr.","styleUrl":"#towerStyle","styleHash":"1d01e409","county":"Montgomery County","lat":37.2003,"lng":-80.4024,"structure_type":null,"structure_name":null,"structure_address":"208 Knollwood Dr.","height":37.2,"base_elevation":653.373168,"structure_owner_name":"Kaler Communications, L.L.C.","structure_manager_name":null,"data_source":"FCC: Antenna Structure Registration (GIS)"}},{"type":"Feature","geometry":{"type":"Point","coordinates":[-80.5312,37.1738]},"properties":{"name":"Montgomery","styleUrl":"#towerStyle","styleHash":"1d01e409","county":"Montgomery County","lat":37.1738,"lng":-80.5312,"structure_type":null,"structure_name":null,"structure_address":"Montgomery","height":59.4,"base_elevation":604.186096,"structure_owner_name":"CROWN COMMUNICATION LLC","structure_manager_name":null,"data_source":"FCC: Antenna Structure Registration (GIS)"}},{"type":"Feature","geometry":{"type":"Point","coordinates":[-80.348999,37.1443]},"properties":{"name":"212703 brammer Lane","styleUrl":"#towerStyle","styleHash":"1d01e409","county":"Montgomery County","lat":37.1443,"lng":-80.348999,"structure_type":null,"structure_name":null,"structure_address":"212703 brammer Lane","height":68.6,"base_elevation":651.988098,"structure_owner_name":"CROWN COMMUNICATION LLC","structure_manager_name":null,"data_source":"FCC: Antenna Structure Registration (GIS)"}},{"type":"Feature","geometry":{"type":"Point","coordinates":[-80.4166,37.1806]},"properties":{"name":"330 MERRIMAC RD.","styleUrl":"#towerStyle","styleHash":"1d01e409","county":"Montgomery County","lat":37.1806,"lng":-80.4166,"structure_type":null,"structure_name":null,"structure_address":"330 MERRIMAC RD.","height":44.8,"base_elevation":671.364013,"structure_owner_name":"CROWN COMMUNICATION LLC","structure_manager_name":null,"data_source":"FCC: Antenna Structure Registration (GIS)"}},{"type":"Feature","geometry":{"type":"Point","coordinates":[-80.359999,37.197299]},"properties":{"name":"christianburg","styleUrl":"#towerStyle","styleHash":"1d01e409","county":"Montgomery County","lat":37.197299,"lng":-80.359999,"structure_type":null,"structure_name":null,"structure_address":"christianburg","height":36.5,"base_elevation":555.329101,"structure_owner_name":"SpectraSite Communications, LLC. through American Towers, LLC.","structure_manager_name":null,"data_source":"FCC: Antenna Structure Registration (GIS)"}},{"type":"Feature","geometry":{"type":"Point","coordinates":[-80.2559,37.1637]},"properties":{"name":"+/- 477 Allegheny Springs Rd.","styleUrl":"#towerStyle","styleHash":"1d01e409","county":"Montgomery County","lat":37.1637,"lng":-80.2559,"structure_type":null,"structure_name":null,"structure_address":"+/- 477 Allegheny Springs Rd.","height":50,"base_elevation":471.10205,"structure_owner_name":"SpectraSite Communications, LLC. through American Towers, LLC.","structure_manager_name":null,"data_source":"FCC: Antenna Structure Registration (GIS)"}},{"type":"Feature","geometry":{"type":"Point","coordinates":[-80.4442,37.2325]},"properties":{"name":".25 MI S OF RT 655 1.8 MI W","styleUrl":"#towerStyle","styleHash":"1d01e409","county":"Montgomery County","lat":37.2325,"lng":-80.4442,"structure_type":null,"structure_name":null,"structure_address":".25 MI S OF RT 655 1.8 MI W","height":61,"base_elevation":627.966308,"structure_owner_name":"Base Communications, Inc.","structure_manager_name":null,"data_source":"FCC: Antenna Structure Registration (GIS)"}},{"type":"Feature","geometry":{"type":"Point","coordinates":[-80.3559,37.1343]},"properties":{"name":"TWR 3 485 TOWER RD","styleUrl":"#towerStyle","styleHash":"1d01e409","county":"Montgomery County","lat":37.1343,"lng":-80.3559,"structure_type":null,"structure_name":null,"structure_address":"TWR 3 485 TOWER RD","height":103.6,"base_elevation":655.472473,"structure_owner_name":"Cumulus Broadcasting LLC","structure_manager_name":null,"data_source":"FCC: Antenna Structure Registration (GIS)"}},{"type":"Feature","geometry":{"type":"Point","coordinates":[-80.4814,37.1867]},"properties":{"name":"PRICE MOUNTAIN .45 KM ESE OF STROUBLES CREEK RD","styleUrl":"#towerStyle","styleHash":"1d01e409","county":"Montgomery County","lat":37.1867,"lng":-80.4814,"structure_type":null,"structure_name":null,"structure_address":"PRICE MOUNTAIN .45 KM ESE OF STROUBLES CREEK RD","height":36.6,"base_elevation":721.867736,"structure_owner_name":"Cumulus Broadcasting LLC","structure_manager_name":null,"data_source":"FCC: Antenna Structure Registration (GIS)"}},{"type":"Feature","geometry":{"type":"Point","coordinates":[-80.3548,37.1338]},"properties":{"name":"TWR 2 485 TOWER RD","styleUrl":"#towerStyle","styleHash":"1d01e409","county":"Montgomery County","lat":37.1338,"lng":-80.3548,"structure_type":null,"structure_name":null,"structure_address":"TWR 2 485 TOWER RD","height":103.6,"base_elevation":653.804077,"structure_owner_name":"Cumulus Broadcasting LLC","structure_manager_name":null,"data_source":"FCC: Antenna Structure Registration (GIS)"}},{"type":"Feature","geometry":{"type":"Point","coordinates":[-80.353799,37.1334]},"properties":{"name":"TWR 1 485 TOWER RD","styleUrl":"#towerStyle","styleHash":"1d01e409","county":"Montgomery County","lat":37.1334,"lng":-80.353799,"structure_type":null,"structure_name":null,"structure_address":"TWR 1 485 TOWER RD","height":103.6,"base_elevation":657.070983,"structure_owner_name":"Cumulus Broadcasting LLC","structure_manager_name":null,"data_source":"FCC: Antenna Structure Registration (GIS)"}},{"type":"Feature","geometry":{"type":"Point","coordinates":[-80.4474,37.086]},"properties":{"name":"240 Mount Elbert Road   (VA11583-B)","styleUrl":"#towerStyle","styleHash":"1d01e409","county":"Montgomery County","lat":37.086,"lng":-80.4474,"structure_type":null,"structure_name":null,"structure_address":"240 Mount Elbert Road   (VA11583-B)","height":30.5,"base_elevation":625.557556,"structure_owner_name":"SBA Towers II LLC","structure_manager_name":null,"data_source":"FCC: Antenna Structure Registration (GIS)"}},{"type":"Feature","geometry":{"type":"Point","coordinates":[-80.2923,37.1664]},"properties":{"name":"174 Friendship Rd","styleUrl":"#towerStyle","styleHash":"1d01e409","county":"Montgomery County","lat":37.1664,"lng":-80.2923,"structure_type":null,"structure_name":null,"structure_address":"174 Friendship Rd","height":39.6,"base_elevation":533.430908,"structure_owner_name":"TowerCo II LLC","structure_manager_name":null,"data_source":"FCC: Antenna Structure Registration (GIS)"}},{"type":"Feature","geometry":{"type":"Point","coordinates":[-80.281,37.1849]},"properties":{"name":"END OF RYAN RD OFF SR 822","styleUrl":"#towerStyle","styleHash":"1d01e409","county":"Montgomery County","lat":37.1849,"lng":-80.281,"structure_type":null,"structure_name":null,"structure_address":"END OF RYAN RD OFF SR 822","height":54.9,"base_elevation":567.650817,"structure_owner_name":"United States Cellular Corporation","structure_manager_name":null,"data_source":"FCC: Antenna Structure Registration (GIS)"}},{"type":"Feature","geometry":{"type":"Point","coordinates":[-80.3997,37.2356]},"properties":{"name":"CLAY ST.","styleUrl":"#towerStyle","styleHash":"1d01e409","county":"Montgomery County","lat":37.2356,"lng":-80.3997,"structure_type":null,"structure_name":null,"structure_address":"CLAY ST.","height":24.4,"base_elevation":703.419921,"structure_owner_name":"CFW WIRELESS, INC.  DBA =  VA PCS ALLIANCE, LC","structure_manager_name":null,"data_source":"FCC: Antenna Structure Registration (GIS)"}},{"type":"Feature","geometry":{"type":"Point","coordinates":[-80.4127,37.207999]},"properties":{"name":"Virginia Tech Airport","styleUrl":"#towerStyle","styleHash":"1d01e409","county":"Montgomery County","lat":37.207999,"lng":-80.4127,"structure_type":null,"structure_name":null,"structure_address":"Virginia Tech Airport","height":12.2,"base_elevation":636.799865,"structure_owner_name":"Virginia Tech Airport","structure_manager_name":null,"data_source":"FCC: Antenna Structure Registration (GIS)"}},{"type":"Feature","geometry":{"type":"Point","coordinates":[-80.4275,37.1197]},"properties":{"name":"WATER TANK ON BUFFALO ROAD","styleUrl":"#towerStyle","styleHash":"1d01e409","county":"Montgomery County","lat":37.1197,"lng":-80.4275,"structure_type":null,"structure_name":null,"structure_address":"WATER TANK ON BUFFALO ROAD","height":15.2,"base_elevation":699.911132,"structure_owner_name":"Christiansburg, Town of","structure_manager_name":null,"data_source":"FCC: Antenna Structure Registration (GIS)"}},{"type":"Feature","geometry":{"type":"Point","coordinates":[-80.4217,37.2306]},"properties":{"name":"Vertical Asset","styleUrl":"#towerStyle","styleHash":"1d01e409","county":"Montgomery County","lat":37.2306,"lng":-80.4217,"structure_type":null,"structure_name":null,"structure_address":null,"height":0,"base_elevation":634.427246,"structure_owner_name":"VIRGINIA TECH RESCUE SQUAD","structure_manager_name":null,"data_source":"FCC: Land Mobile - Private (GIS)"}},{"type":"Feature","geometry":{"type":"Point","coordinates":[-80.4372,37.1272]},"properties":{"name":"1415 RADFORD ROAD","styleUrl":"#towerStyle","styleHash":"1d01e409","county":"Montgomery County","lat":37.1272,"lng":-80.4372,"structure_type":"BANT","structure_name":null,"structure_address":"1415 RADFORD ROAD","height":14,"base_elevation":651.562561,"structure_owner_name":"BILL'S USED PARTS INC.","structure_manager_name":null,"data_source":"FCC: Land Mobile - Private (GIS)"}},{"type":"Feature","geometry":{"type":"Point","coordinates":[-80.4572,37.1869]},"properties":{"name":"Oil Well Road","styleUrl":"#towerStyle","styleHash":"1d01e409","county":"Montgomery County","lat":37.1869,"lng":-80.4572,"structure_type":"TOWER","structure_name":null,"structure_address":"Oil Well Road","height":36.7,"base_elevation":751.458129,"structure_owner_name":"MONTGOMERY, COUNTY OF","structure_manager_name":null,"data_source":"FCC: Land Mobile - Private (GIS)"}},{"type":"Feature","geometry":{"type":"Point","coordinates":[-80.3075,37.0928]},"properties":{"name":"1.6 MI NW OF INTERSECTION SR 610 & 609","styleUrl":"#towerStyle","styleHash":"1d01e409","county":"Montgomery County","lat":37.0928,"lng":-80.3075,"structure_type":"TOWER","structure_name":null,"structure_address":"1.6 MI NW OF INTERSECTION SR 610 & 609","height":45,"base_elevation":877.861083,"structure_owner_name":"MONTGOMERY, COUNTY OF","structure_manager_name":null,"data_source":"FCC: Land Mobile - Private (GIS)"}},{"type":"Feature","geometry":{"type":"Point","coordinates":[-80.2386,37.2358]},"properties":{"name":"Ironto  1.14mi  NNW","styleUrl":"#towerStyle","styleHash":"1d01e409","county":"Montgomery County","lat":37.2358,"lng":-80.2386,"structure_type":"PIPE","structure_name":null,"structure_address":"Ironto  1.14mi  NNW","height":5.2,"base_elevation":375.479888,"structure_owner_name":"Virginia Department of Emergency Management","structure_manager_name":null,"data_source":"FCC: Land Mobile - Private (GIS)"}},{"type":"Feature","geometry":{"type":"Point","coordinates":[-80.2092,37.236699]},"properties":{"name":"Lafayette  1.89mi  NE","styleUrl":"#towerStyle","styleHash":"1d01e409","county":"Montgomery County","lat":37.236699,"lng":-80.2092,"structure_type":"PIPE","structure_name":null,"structure_address":"Lafayette  1.89mi  NE","height":5.2,"base_elevation":363.725891,"structure_owner_name":"Virginia Department of Emergency Management","structure_manager_name":null,"data_source":"FCC: Land Mobile - Private (GIS)"}},{"type":"Feature","geometry":{"type":"Point","coordinates":[-80.4003,37.3019]},"properties":{"name":"Brush Mtn  5.06mi  N","styleUrl":"#towerStyle","styleHash":"1d01e409","county":"Montgomery County","lat":37.3019,"lng":-80.4003,"structure_type":"PIPE","structure_name":null,"structure_address":"Brush Mtn  5.06mi  N","height":5.2,"base_elevation":855.31781,"structure_owner_name":"Virginia Department of Emergency Management","structure_manager_name":null,"data_source":"FCC: Land Mobile - Private (GIS)"}},{"type":"Feature","geometry":{"type":"Point","coordinates":[-80.4147,37.2058]},"properties":{"name":"Blacksburg","styleUrl":"#towerStyle","styleHash":"1d01e409","county":"Montgomery County","lat":37.2058,"lng":-80.4147,"structure_type":"PIPE","structure_name":null,"structure_address":"Blacksburg","height":5.2,"base_elevation":634.804321,"structure_owner_name":"Virginia Department of Emergency Management","structure_manager_name":null,"data_source":"FCC: Land Mobile - Private (GIS)"}},{"type":"Feature","geometry":{"type":"Point","coordinates":[-80.1908,37.162]},"properties":{"name":"Poor Mtn  3.58mi  E","styleUrl":"#towerStyle","styleHash":"1d01e409","county":"Montgomery County","lat":37.162,"lng":-80.1908,"structure_type":"PIPE","structure_name":null,"structure_address":"Poor Mtn  3.58mi  E","height":5.2,"base_elevation":1122.357666,"structure_owner_name":"Virginia Department of Emergency Management","structure_manager_name":null,"data_source":"FCC: Land Mobile - Private (GIS)"}},{"type":"Feature","geometry":{"type":"Point","coordinates":[-80.377999,37.1253]},"properties":{"name":"Falling Branch  7.51mi SSE","styleUrl":"#towerStyle","styleHash":"1d01e409","county":"Montgomery County","lat":37.1253,"lng":-80.377999,"structure_type":"PIPE","structure_name":null,"structure_address":"Falling Branch  7.51mi SSE","height":5.2,"base_elevation":650.843566,"structure_owner_name":"Virginia Department of Emergency Management","structure_manager_name":null,"data_source":"FCC: Land Mobile - Private (GIS)"}},{"type":"Feature","geometry":{"type":"Point","coordinates":[-80.2653,37.1411]},"properties":{"name":"Shawsville  2.00 mi  SEE","styleUrl":"#towerStyle","styleHash":"1d01e409","county":"Montgomery County","lat":37.1411,"lng":-80.2653,"structure_type":"PIPE","structure_name":null,"structure_address":"Shawsville  2.00 mi  SEE","height":5.2,"base_elevation":416.370849,"structure_owner_name":"Virginia Department of Emergency Management","structure_manager_name":null,"data_source":"FCC: Land Mobile - Private (GIS)"}},{"type":"Feature","geometry":{"type":"Point","coordinates":[-80.272499,37.3208]},"properties":{"name":"Crawfords Ridge  10.02mi  NE","styleUrl":"#towerStyle","styleHash":"1d01e409","county":"Montgomery County","lat":37.3208,"lng":-80.272499,"structure_type":"PIPE","structure_name":null,"structure_address":"Crawfords Ridge  10.02mi  NE","height":5.2,"base_elevation":669.391784,"structure_owner_name":"Virginia Department of Emergency Management","structure_manager_name":null,"data_source":"FCC: Land Mobile - Private (GIS)"}},{"type":"Feature","geometry":{"type":"Point","coordinates":[-80.395,37.1869]},"properties":{"name":"Vertical Asset","styleUrl":"#towerStyle","styleHash":"1d01e409","county":"Montgomery County","lat":37.1869,"lng":-80.395,"structure_type":"UPOLE","structure_name":null,"structure_address":null,"height":5.8,"base_elevation":621.305786,"structure_owner_name":"Virginia, Commonwealth of, Department of Transportation","structure_manager_name":null,"data_source":"FCC: Land Mobile - Private (GIS)"}},{"type":"Feature","geometry":{"type":"Point","coordinates":[-80.4125,37.1322]},"properties":{"name":"Vertical Asset","styleUrl":"#towerStyle","styleHash":"1d01e409","county":"Montgomery County","lat":37.1322,"lng":-80.4125,"structure_type":"UPOLE","structure_name":null,"structure_address":null,"height":5.8,"base_elevation":625.529357,"structure_owner_name":"Virginia, Commonwealth of, Department of Transportation","structure_manager_name":null,"data_source":"FCC: Land Mobile - Private (GIS)"}},{"type":"Feature","geometry":{"type":"Point","coordinates":[-80.415,37.1439]},"properties":{"name":"Vertical Asset","styleUrl":"#towerStyle","styleHash":"1d01e409","county":"Montgomery County","lat":37.1439,"lng":-80.415,"structure_type":"UPOLE","structure_name":null,"structure_address":null,"height":5.8,"base_elevation":634.875549,"structure_owner_name":"Virginia, Commonwealth of, Department of Transportation","structure_manager_name":null,"data_source":"FCC: Land Mobile - Private (GIS)"}},{"type":"Feature","geometry":{"type":"Point","coordinates":[-80.423099,37.1633]},"properties":{"name":"Vertical Asset","styleUrl":"#towerStyle","styleHash":"1d01e409","county":"Montgomery County","lat":37.1633,"lng":-80.423099,"structure_type":"UPOLE","structure_name":null,"structure_address":null,"height":5.8,"base_elevation":631.445251,"structure_owner_name":"Virginia, Commonwealth of, Department of Transportation","structure_manager_name":null,"data_source":"FCC: Land Mobile - Private (GIS)"}},{"type":"Feature","geometry":{"type":"Point","coordinates":[-80.4294,37.2292]},"properties":{"name":"901 Prices Fork Road","styleUrl":"#towerStyle","styleHash":"1d01e409","county":"Montgomery County","lat":37.2292,"lng":-80.4294,"structure_type":"B","structure_name":null,"structure_address":"901 Prices Fork Road","height":19,"base_elevation":627.313476,"structure_owner_name":"VIRGINIA POLYTECHNIC INSTITUTE & STATE UNIVERSITY","structure_manager_name":null,"data_source":"FCC: Land Mobile - Private (GIS)"}},{"type":"Feature","geometry":{"type":"Point","coordinates":[-80.4083,37.2408]},"properties":{"name":"Vertical Asset","styleUrl":"#towerStyle","styleHash":"1d01e409","county":"Montgomery County","lat":37.2408,"lng":-80.4083,"structure_type":null,"structure_name":null,"structure_address":null,"height":0,"base_elevation":654.21582,"structure_owner_name":"MONTGOMERY COUNTY PUBLIC SCHOOLS","structure_manager_name":null,"data_source":"FCC: Land Mobile - Private (GIS)"}},{"type":"Feature","geometry":{"type":"Point","coordinates":[-80.4275,37.1197]},"properties":{"name":"WATER TANK ON BUFFALO ROAD","styleUrl":"#towerStyle","styleHash":"1d01e409","county":"Montgomery County","lat":37.1197,"lng":-80.4275,"structure_type":"TANK","structure_name":null,"structure_address":"WATER TANK ON BUFFALO ROAD","height":24,"base_elevation":699.911132,"structure_owner_name":"CHRISTIANSBURG, TOWN OF","structure_manager_name":null,"data_source":"FCC: Land Mobile - Private (GIS)"}},{"type":"Feature","geometry":{"type":"Point","coordinates":[-80.3728,37.1408]},"properties":{"name":"WATER TANK NEAR US RT 460","styleUrl":"#towerStyle","styleHash":"1d01e409","county":"Montgomery County","lat":37.1408,"lng":-80.3728,"structure_type":"TANK","structure_name":null,"structure_address":"WATER TANK NEAR US RT 460","height":31,"base_elevation":667.857055,"structure_owner_name":"CHRISTIANSBURG, TOWN OF","structure_manager_name":null,"data_source":"FCC: Land Mobile - Private (GIS)"}},{"type":"Feature","geometry":{"type":"Point","coordinates":[-80.3728,37.1408]},"properties":{"name":"WATER TANK NEAR US RT 460","styleUrl":"#towerStyle","styleHash":"1d01e409","county":"Montgomery County","lat":37.1408,"lng":-80.3728,"structure_type":"TANK","structure_name":null,"structure_address":"WATER TANK NEAR US RT 460","height":21,"base_elevation":667.857055,"structure_owner_name":"CHRISTIANSBURG, TOWN OF","structure_manager_name":null,"data_source":"FCC: Land Mobile - Private (GIS)"}},{"type":"Feature","geometry":{"type":"Point","coordinates":[-80.420599,37.1575]},"properties":{"name":"200 Conston Avenue","styleUrl":"#towerStyle","styleHash":"1d01e409","county":"Montgomery County","lat":37.1575,"lng":-80.420599,"structure_type":null,"structure_name":null,"structure_address":"200 Conston Avenue","height":0,"base_elevation":641.354675,"structure_owner_name":"HOME DEPOT U.S.A., INC.","structure_manager_name":null,"data_source":"FCC: Land Mobile - Private (GIS)"}},{"type":"Feature","geometry":{"type":"Point","coordinates":[-80.1925,37.1625]},"properties":{"name":"ATOP POORE MOUNTAIN NEAR","styleUrl":"#towerStyle","styleHash":"1d01e409","county":"Montgomery County","lat":37.1625,"lng":-80.1925,"structure_type":"TOWER","structure_name":null,"structure_address":"ATOP POORE MOUNTAIN NEAR","height":18,"base_elevation":1148.266601,"structure_owner_name":"MONTGOMERY COUNTY PUBLIC SCHOOLS","structure_manager_name":null,"data_source":"FCC: Land Mobile - Private (GIS)"}},{"type":"Feature","geometry":{"type":"Point","coordinates":[-80.3978,37.192799]},"properties":{"name":"300 Industrial Park Rd SE","styleUrl":"#towerStyle","styleHash":"1d01e409","county":"Montgomery County","lat":37.192799,"lng":-80.3978,"structure_type":"BPIPE","structure_name":null,"structure_address":"300 Industrial Park Rd SE","height":12,"base_elevation":646.718017,"structure_owner_name":"Federal-Mogul Corporation","structure_manager_name":null,"data_source":"FCC: Land Mobile - Private (GIS)"}},{"type":"Feature","geometry":{"type":"Point","coordinates":[-80.2286,37.2044]},"properties":{"name":"Vertical Asset","styleUrl":"#towerStyle","styleHash":"1d01e409","county":"Montgomery County","lat":37.2044,"lng":-80.2286,"structure_type":null,"structure_name":null,"structure_address":null,"height":0,"base_elevation":420.350738,"structure_owner_name":"Montgomery County Public Schools","structure_manager_name":null,"data_source":"FCC: Land Mobile - Private (GIS)"}},{"type":"Feature","geometry":{"type":"Point","coordinates":[-80.4275,37.1197]},"properties":{"name":"WATER TANK 305M NORTH OF US RT 11","styleUrl":"#towerStyle","styleHash":"1d01e409","county":"Montgomery County","lat":37.1197,"lng":-80.4275,"structure_type":"TANK","structure_name":null,"structure_address":"WATER TANK 305M NORTH OF US RT 11","height":18,"base_elevation":699.911132,"structure_owner_name":"CHRISTIANSBURG, TOWN OF","structure_manager_name":null,"data_source":"FCC: Land Mobile - Private (GIS)"}},{"type":"Feature","geometry":{"type":"Point","coordinates":[-80.4083,37.1303]},"properties":{"name":"7 S FRANKLIN ST","styleUrl":"#towerStyle","styleHash":"1d01e409","county":"Montgomery County","lat":37.1303,"lng":-80.4083,"structure_type":"TOWER","structure_name":null,"structure_address":"7 S FRANKLIN ST","height":21,"base_elevation":636.74176,"structure_owner_name":"CHRISTIANSBURG, TOWN OF","structure_manager_name":null,"data_source":"FCC: Land Mobile - Private (GIS)"}},{"type":"Feature","geometry":{"type":"Point","coordinates":[-80.4083,37.1303]},"properties":{"name":"7 SOUTH FRANKLIN ST","styleUrl":"#towerStyle","styleHash":"1d01e409","county":"Montgomery County","lat":37.1303,"lng":-80.4083,"structure_type":"TOWER","structure_name":null,"structure_address":"7 SOUTH FRANKLIN ST","height":21,"base_elevation":636.74176,"structure_owner_name":"MONTGOMERY COUNTY OF","structure_manager_name":null,"data_source":"FCC: Land Mobile - Private (GIS)"}},{"type":"Feature","geometry":{"type":"Point","coordinates":[-80.465499,37.2631]},"properties":{"name":"3569 PANDAPAS POND ROAD","styleUrl":"#towerStyle","styleHash":"1d01e409","county":"Montgomery County","lat":37.2631,"lng":-80.465499,"structure_type":"TOWER","structure_name":null,"structure_address":"3569 PANDAPAS POND ROAD","height":51.8,"base_elevation":859.255493,"structure_owner_name":"BLACKSBURG, TOWN OF","structure_manager_name":null,"data_source":"FCC: Land Mobile - Private (GIS)"}},{"type":"Feature","geometry":{"type":"Point","coordinates":[-80.465499,37.2631]},"properties":{"name":"3569 PANDAPAS POND ROAD","styleUrl":"#towerStyle","styleHash":"1d01e409","county":"Montgomery County","lat":37.2631,"lng":-80.465499,"structure_type":"TOWER","structure_name":null,"structure_address":"3569 PANDAPAS POND ROAD","height":51.8,"base_elevation":859.255493,"structure_owner_name":"BLACKSBURG,  TOWN OF","structure_manager_name":null,"data_source":"FCC: Land Mobile - Private (GIS)"}},{"type":"Feature","geometry":{"type":"Point","coordinates":[-80.465499,37.2631]},"properties":{"name":"3569 PANDAPAS POND ROAD","styleUrl":"#towerStyle","styleHash":"1d01e409","county":"Montgomery County","lat":37.2631,"lng":-80.465499,"structure_type":"TOWER","structure_name":null,"structure_address":"3569 PANDAPAS POND ROAD","height":51.8,"base_elevation":859.255493,"structure_owner_name":"BLACKSBURG, TOWN OF","structure_manager_name":null,"data_source":"FCC: Land Mobile - Private (GIS)"}},{"type":"Feature","geometry":{"type":"Point","coordinates":[-80.3728,37.1406]},"properties":{"name":"WATER TANK ON US ROUTE 460 NEAR","styleUrl":"#towerStyle","styleHash":"1d01e409","county":"Montgomery County","lat":37.1406,"lng":-80.3728,"structure_type":"MAST","structure_name":null,"structure_address":"WATER TANK ON US ROUTE 460 NEAR","height":10.7,"base_elevation":670.185607,"structure_owner_name":"CHRISTIANSBURG, TOWN OF","structure_manager_name":null,"data_source":"FCC: Land Mobile - Private (GIS)"}},{"type":"Feature","geometry":{"type":"Point","coordinates":[-80.4472,37.2789]},"properties":{"name":"BRUSH MOUNTAIN NEAR","styleUrl":"#towerStyle","styleHash":"1d01e409","county":"Montgomery County","lat":37.2789,"lng":-80.4472,"structure_type":"TOWER","structure_name":null,"structure_address":"BRUSH MOUNTAIN NEAR","height":30,"base_elevation":806.444885,"structure_owner_name":"MONTGOMERY, COUNTY OF","structure_manager_name":null,"data_source":"FCC: Land Mobile - Private (GIS)"}},{"type":"Feature","geometry":{"type":"Point","coordinates":[-80.5422,37.0931]},"properties":{"name":"NEAR 4621 CORNBREAD RD","styleUrl":"#towerStyle","styleHash":"1d01e409","county":"Montgomery County","lat":37.0931,"lng":-80.5422,"structure_type":"TOWER","structure_name":null,"structure_address":"NEAR 4621 CORNBREAD RD","height":30,"base_elevation":632.686767,"structure_owner_name":"MONTGOMERY, COUNTY OF","structure_manager_name":null,"data_source":"FCC: Land Mobile - Private (GIS)"}},{"type":"Feature","geometry":{"type":"Point","coordinates":[-80.1925,37.1625]},"properties":{"name":"POORE MOUNTAIN","styleUrl":"#towerStyle","styleHash":"1d01e409","county":"Montgomery County","lat":37.1625,"lng":-80.1925,"structure_type":"TOWER","structure_name":null,"structure_address":"POORE MOUNTAIN","height":21,"base_elevation":1148.266601,"structure_owner_name":"MONTGOMERY, COUNTY OF","structure_manager_name":null,"data_source":"FCC: Land Mobile - Private (GIS)"}},{"type":"Feature","geometry":{"type":"Point","coordinates":[-80.435,37.0567]},"properties":{"name":"WATER TANK OF SR 8","styleUrl":"#towerStyle","styleHash":"1d01e409","county":"Montgomery County","lat":37.0567,"lng":-80.435,"structure_type":"TANK","structure_name":null,"structure_address":"WATER TANK OF SR 8","height":30,"base_elevation":658.192443,"structure_owner_name":"MONTGOMERY, COUNTY OF","structure_manager_name":null,"data_source":"FCC: Land Mobile - Private (GIS)"}},{"type":"Feature","geometry":{"type":"Point","coordinates":[-80.3075,37.0928]},"properties":{"name":"1.66 MI NW OF INTERSECTION SR 610 & 609","styleUrl":"#towerStyle","styleHash":"1d01e409","county":"Montgomery County","lat":37.0928,"lng":-80.3075,"structure_type":"TOWER","structure_name":null,"structure_address":"1.66 MI NW OF INTERSECTION SR 610 & 609","height":45,"base_elevation":877.861083,"structure_owner_name":"MONTGOMERY, COUNTY OF","structure_manager_name":null,"data_source":"FCC: Land Mobile - Private (GIS)"}},{"type":"Feature","geometry":{"type":"Point","coordinates":[-80.4572,37.1869]},"properties":{"name":"PRICES MOUNTAIN","styleUrl":"#towerStyle","styleHash":"1d01e409","county":"Montgomery County","lat":37.1869,"lng":-80.4572,"structure_type":"TOWER","structure_name":null,"structure_address":"PRICES MOUNTAIN","height":41.1,"base_elevation":751.458129,"structure_owner_name":"MONTGOMERY, COUNTY OF","structure_manager_name":null,"data_source":"FCC: Land Mobile - Private (GIS)"}},{"type":"Feature","geometry":{"type":"Point","coordinates":[-80.4572,37.1869]},"properties":{"name":"OIL WELL ROAD","styleUrl":"#towerStyle","styleHash":"1d01e409","county":"Montgomery County","lat":37.1869,"lng":-80.4572,"structure_type":"TOWER","structure_name":null,"structure_address":"OIL WELL ROAD","height":41.1,"base_elevation":751.458129,"structure_owner_name":"LONG SHOP MCCOY VOLUNTEER FIRE DEPARTMENT AND FIRST AID CREW","structure_manager_name":null,"data_source":"FCC: Land Mobile - Private (GIS)"}},{"type":"Feature","geometry":{"type":"Point","coordinates":[-80.503899,37.0908]},"properties":{"name":"2900 TYLER ROAD","styleUrl":"#towerStyle","styleHash":"1d01e409","county":"Montgomery County","lat":37.0908,"lng":-80.503899,"structure_type":"BMAST","structure_name":null,"structure_address":"2900 TYLER ROAD","height":17,"base_elevation":628.812011,"structure_owner_name":"CARILLION NEW RIVER VALLEY MEDICAL CENTER","structure_manager_name":null,"data_source":"FCC: Land Mobile - Private (GIS)"}},{"type":"Feature","geometry":{"type":"Point","coordinates":[-80.1925,37.1625]},"properties":{"name":"ATOP POORE MOUNTAIN NEAR","styleUrl":"#towerStyle","styleHash":"1d01e409","county":"Montgomery County","lat":37.1625,"lng":-80.1925,"structure_type":"TOWER","structure_name":null,"structure_address":"ATOP POORE MOUNTAIN NEAR","height":18,"base_elevation":1148.266601,"structure_owner_name":"MONTGOMERY COUNTY PUBLIC SCHOOLS","structure_manager_name":null,"data_source":"FCC: Land Mobile - Private (GIS)"}},{"type":"Feature","geometry":{"type":"Point","coordinates":[-80.3075,37.0928]},"properties":{"name":"ATOP FISHERS VIEW MOUNTAIN NEAR","styleUrl":"#towerStyle","styleHash":"1d01e409","county":"Montgomery County","lat":37.0928,"lng":-80.3075,"structure_type":"TOWER","structure_name":null,"structure_address":"ATOP FISHERS VIEW MOUNTAIN NEAR","height":31,"base_elevation":877.861083,"structure_owner_name":"MONTGOMERY, COUNTY OF","structure_manager_name":null,"data_source":"FCC: Land Mobile - Private (GIS)"}},{"type":"Feature","geometry":{"type":"Point","coordinates":[-80.3967,37.1717]},"properties":{"name":"YELLOW SULPHER RD RR CROSSING @ RR MP V276.3","styleUrl":"#towerStyle","styleHash":"1d01e409","county":"Montgomery County","lat":37.1717,"lng":-80.3967,"structure_type":"BANT","structure_name":null,"structure_address":"YELLOW SULPHER RD RR CROSSING @ RR MP V276.3","height":3.1,"base_elevation":562.942626,"structure_owner_name":"Norfolk Southern Railway Company","structure_manager_name":null,"data_source":"FCC: Land Mobile - Private (GIS)"}},{"type":"Feature","geometry":{"type":"Point","coordinates":[-80.4192,37.2203]},"properties":{"name":"Vertical Asset","styleUrl":"#towerStyle","styleHash":"1d01e409","county":"Montgomery County","lat":37.2203,"lng":-80.4192,"structure_type":null,"structure_name":null,"structure_address":null,"height":0,"base_elevation":630.95697,"structure_owner_name":"VIRGINIA TECH ATHLETIC DEPARTMENT","structure_manager_name":null,"data_source":"FCC: Land Mobile - Private (GIS)"}},{"type":"Feature","geometry":{"type":"Point","coordinates":[-80.4192,37.2203]},"properties":{"name":"1353 JAMERSON ATHLETIC CENTER","styleUrl":"#towerStyle","styleHash":"1d01e409","county":"Montgomery County","lat":37.2203,"lng":-80.4192,"structure_type":"BANT","structure_name":null,"structure_address":"1353 JAMERSON ATHLETIC CENTER","height":48.8,"base_elevation":630.95697,"structure_owner_name":"VIRGINIA TECH ATHLETIC DEPARTMENT","structure_manager_name":null,"data_source":"FCC: Land Mobile - Private (GIS)"}},{"type":"Feature","geometry":{"type":"Point","coordinates":[-80.415599,37.2183]},"properties":{"name":"POULTRY HILL ON VPI&SU CAMPUS","styleUrl":"#towerStyle","styleHash":"1d01e409","county":"Montgomery County","lat":37.2183,"lng":-80.415599,"structure_type":"POLE","structure_name":null,"structure_address":"POULTRY HILL ON VPI&SU CAMPUS","height":10,"base_elevation":630.997924,"structure_owner_name":"VIRGINIA TECH POLICE DEPARTMENT","structure_manager_name":null,"data_source":"FCC: Land Mobile - Private (GIS)"}},{"type":"Feature","geometry":{"type":"Point","coordinates":[-80.4422,37.2831]},"properties":{"name":"top brush mountain","styleUrl":"#towerStyle","styleHash":"1d01e409","county":"Montgomery County","lat":37.2831,"lng":-80.4422,"structure_type":"TOWER","structure_name":null,"structure_address":"top brush mountain","height":37,"base_elevation":798.492187,"structure_owner_name":"HENDERSON JR, HENRY B","structure_manager_name":null,"data_source":"FCC: Land Mobile - Private (GIS)"}},{"type":"Feature","geometry":{"type":"Point","coordinates":[-80.4289,37.1692]},"properties":{"name":"Vertical Asset","styleUrl":"#towerStyle","styleHash":"1d01e409","county":"Montgomery County","lat":37.1692,"lng":-80.4289,"structure_type":null,"structure_name":null,"structure_address":null,"height":0,"base_elevation":613.778015,"structure_owner_name":"JC Penney Corp Inc","structure_manager_name":null,"data_source":"FCC: Land Mobile - Private (GIS)"}},{"type":"Feature","geometry":{"type":"Point","coordinates":[-80.3575,37.2133]},"properties":{"name":"Vertical Asset","styleUrl":"#towerStyle","styleHash":"1d01e409","county":"Montgomery County","lat":37.2133,"lng":-80.3575,"structure_type":null,"structure_name":null,"structure_address":null,"height":0,"base_elevation":458.64624,"structure_owner_name":"BLACKSBURG COUNTRY CLUB","structure_manager_name":null,"data_source":"FCC: Land Mobile - Private (GIS)"}},{"type":"Feature","geometry":{"type":"Point","coordinates":[-80.5083,37.0889]},"properties":{"name":"Vertical Asset","styleUrl":"#towerStyle","styleHash":"1d01e409","county":"Montgomery County","lat":37.0889,"lng":-80.5083,"structure_type":null,"structure_name":null,"structure_address":null,"height":0,"base_elevation":626.710449,"structure_owner_name":"Carilion New River Valley Medical Center","structure_manager_name":null,"data_source":"FCC: Land Mobile - Private (GIS)"}},{"type":"Feature","geometry":{"type":"Point","coordinates":[-80.5042,37.1003]},"properties":{"name":"3839 MUDPIKE RD","styleUrl":"#towerStyle","styleHash":"1d01e409","county":"Montgomery County","lat":37.1003,"lng":-80.5042,"structure_type":"TOWER","structure_name":null,"structure_address":"3839 MUDPIKE RD","height":15.2,"base_elevation":634.251281,"structure_owner_name":"CHRISTIANSBURG TAXI","structure_manager_name":null,"data_source":"FCC: Land Mobile - Private (GIS)"}},{"type":"Feature","geometry":{"type":"Point","coordinates":[-80.418,37.2417]},"properties":{"name":"1204B N MAIN ST","styleUrl":"#towerStyle","styleHash":"1d01e409","county":"Montgomery County","lat":37.2417,"lng":-80.418,"structure_type":"BANT","structure_name":null,"structure_address":"1204B N MAIN ST","height":9,"base_elevation":636.994018,"structure_owner_name":"CHRISTIANSBURG TAXI","structure_manager_name":null,"data_source":"FCC: Land Mobile - Private (GIS)"}},{"type":"Feature","geometry":{"type":"Point","coordinates":[-80.4053,37.13]},"properties":{"name":"107 SOUTH PEPPER ST","styleUrl":"#towerStyle","styleHash":"1d01e409","county":"Montgomery County","lat":37.13,"lng":-80.4053,"structure_type":"TOWER","structure_name":null,"structure_address":"107 SOUTH PEPPER ST","height":15.2,"base_elevation":636.966674,"structure_owner_name":"CHRISTIANSBURG TAXI","structure_manager_name":null,"data_source":"FCC: Land Mobile - Private (GIS)"}},{"type":"Feature","geometry":{"type":"Point","coordinates":[-80.4083,37.2017]},"properties":{"name":"Vertical Asset","styleUrl":"#towerStyle","styleHash":"1d01e409","county":"Montgomery County","lat":37.2017,"lng":-80.4083,"structure_type":null,"structure_name":null,"structure_address":null,"height":0,"base_elevation":658.401916,"structure_owner_name":"Tech Lab, Inc.","structure_manager_name":null,"data_source":"FCC: Land Mobile - Private (GIS)"}},{"type":"Feature","geometry":{"type":"Point","coordinates":[-80.1925,37.1625]},"properties":{"name":"POORE MOUNTAIN NEAR","styleUrl":"#towerStyle","styleHash":"1d01e409","county":"Montgomery County","lat":37.1625,"lng":-80.1925,"structure_type":"TOWER","structure_name":null,"structure_address":"POORE MOUNTAIN NEAR","height":21,"base_elevation":1148.266601,"structure_owner_name":"MONTGOMERY, COUNTY OF","structure_manager_name":null,"data_source":"FCC: Land Mobile - Private (GIS)"}},{"type":"Feature","geometry":{"type":"Point","coordinates":[-80.4175,37.1661]},"properties":{"name":"2355 N FRANKLIN STREET","styleUrl":"#towerStyle","styleHash":"1d01e409","county":"Montgomery County","lat":37.1661,"lng":-80.4175,"structure_type":null,"structure_name":null,"structure_address":"2355 N FRANKLIN STREET","height":0,"base_elevation":630.17395,"structure_owner_name":"WENDWIL CORP","structure_manager_name":null,"data_source":"FCC: Land Mobile - Private (GIS)"}},{"type":"Feature","geometry":{"type":"Point","coordinates":[-80.4175,37.1661]},"properties":{"name":"2330 ROANOKE STREET","styleUrl":"#towerStyle","styleHash":"1d01e409","county":"Montgomery County","lat":37.1661,"lng":-80.4175,"structure_type":null,"structure_name":null,"structure_address":"2330 ROANOKE STREET","height":0,"base_elevation":630.17395,"structure_owner_name":"WENDNOKE CORP","structure_manager_name":null,"data_source":"FCC: Land Mobile - Private (GIS)"}},{"type":"Feature","geometry":{"type":"Point","coordinates":[-80.5053,37.0889]},"properties":{"name":"1 Lamb Circle","styleUrl":"#towerStyle","styleHash":"1d01e409","county":"Montgomery County","lat":37.0889,"lng":-80.5053,"structure_type":"BPIPE","structure_name":null,"structure_address":"1 Lamb Circle","height":18,"base_elevation":646.004943,"structure_owner_name":"Carilion New River Medical Center","structure_manager_name":null,"data_source":"FCC: Land Mobile - Private (GIS)"}},{"type":"Feature","geometry":{"type":"Point","coordinates":[-80.4044,37.1417]},"properties":{"name":"CAMBRIA ST RR CROSSING AT RR MP N290.20","styleUrl":"#towerStyle","styleHash":"1d01e409","county":"Montgomery County","lat":37.1417,"lng":-80.4044,"structure_type":"BANT","structure_name":null,"structure_address":"CAMBRIA ST RR CROSSING AT RR MP N290.20","height":3.1,"base_elevation":613.223388,"structure_owner_name":"Norfolk Southern Railway Company","structure_manager_name":null,"data_source":"FCC: Land Mobile - Private (GIS)"}},{"type":"Feature","geometry":{"type":"Point","coordinates":[-80.1925,37.1625]},"properties":{"name":"POORE MOUNTAIN NEAR","styleUrl":"#towerStyle","styleHash":"1d01e409","county":"Montgomery County","lat":37.1625,"lng":-80.1925,"structure_type":"TOWER","structure_name":null,"structure_address":"POORE MOUNTAIN NEAR","height":21,"base_elevation":1148.266601,"structure_owner_name":"CHRISTIANSBURG LIFE SAVING AND FIRST AID CREW","structure_manager_name":null,"data_source":"FCC: Land Mobile - Private (GIS)"}},{"type":"Feature","geometry":{"type":"Point","coordinates":[-80.1922,37.1631]},"properties":{"name":"POORE MOUNTAIN 3 MI NW","styleUrl":"#towerStyle","styleHash":"1d01e409","county":"Montgomery County","lat":37.1631,"lng":-80.1922,"structure_type":"TOWER","structure_name":null,"structure_address":"POORE MOUNTAIN 3 MI NW","height":64,"base_elevation":1136.703613,"structure_owner_name":"ROANOKE, COUNTY OF","structure_manager_name":null,"data_source":"FCC: Land Mobile - Private (GIS)"}},{"type":"Feature","geometry":{"type":"Point","coordinates":[-80.4117,37.1872]},"properties":{"name":"Vertical Asset","styleUrl":"#towerStyle","styleHash":"1d01e409","county":"Montgomery County","lat":37.1872,"lng":-80.4117,"structure_type":null,"structure_name":null,"structure_address":null,"height":0,"base_elevation":650.210266,"structure_owner_name":"Montgomery Regional Hospital","structure_manager_name":null,"data_source":"FCC: Land Mobile - Private (GIS)"}},{"type":"Feature","geometry":{"type":"Point","coordinates":[-80.423099,37.1719]},"properties":{"name":"3050 NORTH FRANKLIN ST","styleUrl":"#towerStyle","styleHash":"1d01e409","county":"Montgomery County","lat":37.1719,"lng":-80.423099,"structure_type":"BANT","structure_name":null,"structure_address":"3050 NORTH FRANKLIN ST","height":11,"base_elevation":621.3833,"structure_owner_name":"CORNING INC","structure_manager_name":null,"data_source":"FCC: Land Mobile - Private (GIS)"}},{"type":"Feature","geometry":{"type":"Point","coordinates":[-80.2594,37.0867]},"properties":{"name":"Vertical Asset","styleUrl":"#towerStyle","styleHash":"1d01e409","county":"Montgomery County","lat":37.0867,"lng":-80.2594,"structure_type":null,"structure_name":null,"structure_address":null,"height":0,"base_elevation":698.8656,"structure_owner_name":"Camp Alta Mons, Inc.","structure_manager_name":null,"data_source":"FCC: Land Mobile - Private (GIS)"}},{"type":"Feature","geometry":{"type":"Point","coordinates":[-80.2594,37.0867]},"properties":{"name":"1/2 Mi. S. of 2842 Crockett Springs Rd.","styleUrl":"#towerStyle","styleHash":"1d01e409","county":"Montgomery County","lat":37.0867,"lng":-80.2594,"structure_type":"TOWER","structure_name":null,"structure_address":"1/2 Mi. S. of 2842 Crockett Springs Rd.","height":14.1,"base_elevation":698.8656,"structure_owner_name":"Camp Alta Mons, Inc.","structure_manager_name":null,"data_source":"FCC: Land Mobile - Private (GIS)"}},{"type":"Feature","geometry":{"type":"Point","coordinates":[-80.3075,37.0928]},"properties":{"name":"ATOP FISHER'S VIEW MOUNTAIN NEAR","styleUrl":"#towerStyle","styleHash":"1d01e409","county":"Montgomery County","lat":37.0928,"lng":-80.3075,"structure_type":"TOWER","structure_name":null,"structure_address":"ATOP FISHER'S VIEW MOUNTAIN NEAR","height":31,"base_elevation":877.861083,"structure_owner_name":"CHRISTIANSBURG, TOWN OF","structure_manager_name":null,"data_source":"FCC: Land Mobile - Private (GIS)"}},{"type":"Feature","geometry":{"type":"Point","coordinates":[-80.4144,37.15]},"properties":{"name":"1595 N FRANKLIN ST","styleUrl":"#towerStyle","styleHash":"1d01e409","county":"Montgomery County","lat":37.15,"lng":-80.4144,"structure_type":null,"structure_name":null,"structure_address":"1595 N FRANKLIN ST","height":0,"base_elevation":633.867675,"structure_owner_name":"MKG ENTERPRISES","structure_manager_name":null,"data_source":"FCC: Land Mobile - Private (GIS)"}},{"type":"Feature","geometry":{"type":"Point","coordinates":[-80.5422,37.0931]},"properties":{"name":"NEAR 4621 CORNBREAD ROAD IN","styleUrl":"#towerStyle","styleHash":"1d01e409","county":"Montgomery County","lat":37.0931,"lng":-80.5422,"structure_type":"POLE","structure_name":null,"structure_address":"NEAR 4621 CORNBREAD ROAD IN","height":10,"base_elevation":632.686767,"structure_owner_name":"CHRISTIANSBURG, TOWN OF","structure_manager_name":null,"data_source":"FCC: Land Mobile - Private (GIS)"}},{"type":"Feature","geometry":{"type":"Point","coordinates":[-80.3075,37.0928]},"properties":{"name":"1.66 MILES NW OF INTERSECTION ROUTES SSR 610 AND S","styleUrl":"#towerStyle","styleHash":"1d01e409","county":"Montgomery County","lat":37.0928,"lng":-80.3075,"structure_type":"TOWER","structure_name":null,"structure_address":"1.66 MILES NW OF INTERSECTION ROUTES SSR 610 AND S","height":45,"base_elevation":877.861083,"structure_owner_name":"CHRISTIANSBURG, TOWN OF","structure_manager_name":null,"data_source":"FCC: Land Mobile - Private (GIS)"}},{"type":"Feature","geometry":{"type":"Point","coordinates":[-80.435,37.0567]},"properties":{"name":"WATER TANK ON SR 8 IN","styleUrl":"#towerStyle","styleHash":"1d01e409","county":"Montgomery County","lat":37.0567,"lng":-80.435,"structure_type":"TANK","structure_name":null,"structure_address":"WATER TANK ON SR 8 IN","height":30,"base_elevation":658.192443,"structure_owner_name":"CHRISTIANSBURG, TOWN OF","structure_manager_name":null,"data_source":"FCC: Land Mobile - Private (GIS)"}},{"type":"Feature","geometry":{"type":"Point","coordinates":[-80.1925,37.1625]},"properties":{"name":"POOR MOUNTAIN NEAR","styleUrl":"#towerStyle","styleHash":"1d01e409","county":"Montgomery County","lat":37.1625,"lng":-80.1925,"structure_type":"TOWER","structure_name":null,"structure_address":"POOR MOUNTAIN NEAR","height":21,"base_elevation":1148.266601,"structure_owner_name":"CHRISTIANSBURG, TOWN OF","structure_manager_name":null,"data_source":"FCC: Land Mobile - Private (GIS)"}},{"type":"Feature","geometry":{"type":"Point","coordinates":[-80.4072,37.2061]},"properties":{"name":"VIRGINAI TECH AIRPORT","styleUrl":"#towerStyle","styleHash":"1d01e409","county":"Montgomery County","lat":37.2061,"lng":-80.4072,"structure_type":"BANT","structure_name":null,"structure_address":"VIRGINAI TECH AIRPORT","height":9.1,"base_elevation":644.874938,"structure_owner_name":"VIRGINIA TECH AIRPORT","structure_manager_name":null,"data_source":"FCC: Land Mobile - Private (GIS)"}},{"type":"Feature","geometry":{"type":"Point","coordinates":[-80.4125,37.2078]},"properties":{"name":"VIRGINAI TECH AIRPORT","styleUrl":"#towerStyle","styleHash":"1d01e409","county":"Montgomery County","lat":37.2078,"lng":-80.4125,"structure_type":"MAST","structure_name":null,"structure_address":"VIRGINAI TECH AIRPORT","height":13.7,"base_elevation":636.699035,"structure_owner_name":"VIRGINIA TECH AIRPORT","structure_manager_name":null,"data_source":"FCC: Land Mobile - Private (GIS)"}},{"type":"Feature","geometry":{"type":"Point","coordinates":[-80.3494,37.1867]},"properties":{"name":"Elliott Rd RR crossing at MP V271.10","styleUrl":"#towerStyle","styleHash":"1d01e409","county":"Montgomery County","lat":37.1867,"lng":-80.3494,"structure_type":"BANT","structure_name":null,"structure_address":"Elliott Rd RR crossing at MP V271.10","height":3.1,"base_elevation":445.883972,"structure_owner_name":"Norfolk Southern Railway Company","structure_manager_name":null,"data_source":"FCC: Land Mobile - Private (GIS)"}},{"type":"Feature","geometry":{"type":"Point","coordinates":[-80.3075,37.0928]},"properties":{"name":"ATOP FISHER S VIEW MOUNTAIN NEAR","styleUrl":"#towerStyle","styleHash":"1d01e409","county":"Montgomery County","lat":37.0928,"lng":-80.3075,"structure_type":"TOWER","structure_name":null,"structure_address":"ATOP FISHER S VIEW MOUNTAIN NEAR","height":31,"base_elevation":877.861083,"structure_owner_name":"SHAWSVILLE RESCUE SQUAD","structure_manager_name":null,"data_source":"FCC: Land Mobile - Private (GIS)"}},{"type":"Feature","geometry":{"type":"Point","coordinates":[-80.4053,37.1453]},"properties":{"name":"Vertical Asset","styleUrl":"#towerStyle","styleHash":"1d01e409","county":"Montgomery County","lat":37.1453,"lng":-80.4053,"structure_type":null,"structure_name":null,"structure_address":null,"height":0,"base_elevation":638.467956,"structure_owner_name":"MONTGOMERY COUNTY PUBLIC SCHOOLS","structure_manager_name":null,"data_source":"FCC: Land Mobile - Private (GIS)"}},{"type":"Feature","geometry":{"type":"Point","coordinates":[-80.3003,37.1745]},"properties":{"name":"I 81 Near MM 122.5","styleUrl":"#towerStyle","styleHash":"1d01e409","county":"Montgomery County","lat":37.1745,"lng":-80.3003,"structure_type":"POLE","structure_name":null,"structure_address":"I 81 Near MM 122.5","height":15,"base_elevation":559.949707,"structure_owner_name":"Virginia, Commonwealth of, Department of Transportation","structure_manager_name":null,"data_source":"FCC: Land Mobile - Private (GIS)"}},{"type":"Feature","geometry":{"type":"Point","coordinates":[-80.4756,37.0969]},"properties":{"name":"I 81 near MM 111","styleUrl":"#towerStyle","styleHash":"1d01e409","county":"Montgomery County","lat":37.0969,"lng":-80.4756,"structure_type":"POLE","structure_name":null,"structure_address":"I 81 near MM 111","height":15,"base_elevation":606.926269,"structure_owner_name":"Virginia, Commonwealth of, Department of Transportation","structure_manager_name":null,"data_source":"FCC: Land Mobile - Private (GIS)"}},{"type":"Feature","geometry":{"type":"Point","coordinates":[-80.270499,37.2192]},"properties":{"name":"SR 647 RR crossing at MP V266.40","styleUrl":"#towerStyle","styleHash":"1d01e409","county":"Montgomery County","lat":37.2192,"lng":-80.270499,"structure_type":"BANT","structure_name":null,"structure_address":"SR 647 RR crossing at MP V266.40","height":3.1,"base_elevation":497.869232,"structure_owner_name":"Norfolk Southern Railway Company","structure_manager_name":null,"data_source":"FCC: Land Mobile - Private (GIS)"}},{"type":"Feature","geometry":{"type":"Point","coordinates":[-80.4247,37.1544]},"properties":{"name":"US-460 RAMP 4 RR crossing @ MP CA002.85","styleUrl":"#towerStyle","styleHash":"1d01e409","county":"Montgomery County","lat":37.1544,"lng":-80.4247,"structure_type":"BANT","structure_name":null,"structure_address":"US-460 RAMP 4 RR crossing @ MP CA002.85","height":3.1,"base_elevation":637.693725,"structure_owner_name":"Norfolk Southern Railway Company","structure_manager_name":null,"data_source":"FCC: Land Mobile - Private (GIS)"}},{"type":"Feature","geometry":{"type":"Point","coordinates":[-80.4219,37.1544]},"properties":{"name":"US-460 RAMP 1 RR crossing @ MP CA002.70","styleUrl":"#towerStyle","styleHash":"1d01e409","county":"Montgomery County","lat":37.1544,"lng":-80.4219,"structure_type":"BANT","structure_name":null,"structure_address":"US-460 RAMP 1 RR crossing @ MP CA002.70","height":3.1,"base_elevation":646.061218,"structure_owner_name":"Norfolk Southern Railway Company","structure_manager_name":null,"data_source":"FCC: Land Mobile - Private (GIS)"}},{"type":"Feature","geometry":{"type":"Point","coordinates":[-80.3725,37.19]},"properties":{"name":"Elliott Rd, SR-603 RR crossing @ MP V273.50","styleUrl":"#towerStyle","styleHash":"1d01e409","county":"Montgomery County","lat":37.19,"lng":-80.3725,"structure_type":"BANT","structure_name":null,"structure_address":"Elliott Rd, SR-603 RR crossing @ MP V273.50","height":3.1,"base_elevation":491.76242,"structure_owner_name":"Norfolk Southern Railway Company","structure_manager_name":null,"data_source":"FCC: Land Mobile - Private (GIS)"}},{"type":"Feature","geometry":{"type":"Point","coordinates":[-80.4214,37.1211]},"properties":{"name":"Vertical Asset","styleUrl":"#towerStyle","styleHash":"1d01e409","county":"Montgomery County","lat":37.1211,"lng":-80.4214,"structure_type":null,"structure_name":null,"structure_address":null,"height":0,"base_elevation":660.676818,"structure_owner_name":"MONTGOMERY COUNTY PUBLIC SCHOOLS","structure_manager_name":null,"data_source":"FCC: Land Mobile - Private (GIS)"}},{"type":"Feature","geometry":{"type":"Point","coordinates":[-80.4192,37.1153]},"properties":{"name":"SPS-2 LIFE DRIVE","styleUrl":"#towerStyle","styleHash":"1d01e409","county":"Montgomery County","lat":37.1153,"lng":-80.4192,"structure_type":"BMAST","structure_name":null,"structure_address":"SPS-2 LIFE DRIVE","height":7.6,"base_elevation":660.697753,"structure_owner_name":"CHRISTIANBURG, TOWN OF","structure_manager_name":null,"data_source":"FCC: Land Mobile - Private (GIS)"}},{"type":"Feature","geometry":{"type":"Point","coordinates":[-80.3328,37.135]},"properties":{"name":"SPS-8 FALLING BRANCH ROAD","styleUrl":"#towerStyle","styleHash":"1d01e409","county":"Montgomery County","lat":37.135,"lng":-80.3328,"structure_type":"BMAST","structure_name":null,"structure_address":"SPS-8 FALLING BRANCH ROAD","height":7.6,"base_elevation":596.93225,"structure_owner_name":"CHRISTIANBURG, TOWN OF","structure_manager_name":null,"data_source":"FCC: Land Mobile - Private (GIS)"}},{"type":"Feature","geometry":{"type":"Point","coordinates":[-80.3958,37.1164]},"properties":{"name":"WSPS-4 SOUTH FRANKLIN STREET","styleUrl":"#towerStyle","styleHash":"1d01e409","county":"Montgomery County","lat":37.1164,"lng":-80.3958,"structure_type":"BMAST","structure_name":null,"structure_address":"WSPS-4 SOUTH FRANKLIN STREET","height":7.6,"base_elevation":664.115478,"structure_owner_name":"CHRISTIANBURG, TOWN OF","structure_manager_name":null,"data_source":"FCC: Land Mobile - Private (GIS)"}},{"type":"Feature","geometry":{"type":"Point","coordinates":[-80.3825,37.1306]},"properties":{"name":"WSPS-1 FLINT DRIVE","styleUrl":"#towerStyle","styleHash":"1d01e409","county":"Montgomery County","lat":37.1306,"lng":-80.3825,"structure_type":"BMAST","structure_name":null,"structure_address":"WSPS-1 FLINT DRIVE","height":7.6,"base_elevation":679.658508,"structure_owner_name":"CHRISTIANBURG, TOWN OF","structure_manager_name":null,"data_source":"FCC: Land Mobile - Private (GIS)"}},{"type":"Feature","geometry":{"type":"Point","coordinates":[-80.3683,37.1311]},"properties":{"name":"SPS-6 FAIRVIEW STREET","styleUrl":"#towerStyle","styleHash":"1d01e409","county":"Montgomery County","lat":37.1311,"lng":-80.3683,"structure_type":"BMAST","structure_name":null,"structure_address":"SPS-6 FAIRVIEW STREET","height":7.6,"base_elevation":667.502807,"structure_owner_name":"CHRISTIANBURG, TOWN OF","structure_manager_name":null,"data_source":"FCC: Land Mobile - Private (GIS)"}},{"type":"Feature","geometry":{"type":"Point","coordinates":[-80.4483,37.1678]},"properties":{"name":"SPS-16 NEW VILLAGE DRIVE","styleUrl":"#towerStyle","styleHash":"1d01e409","county":"Montgomery County","lat":37.1678,"lng":-80.4483,"structure_type":"BMAST","structure_name":null,"structure_address":"SPS-16 NEW VILLAGE DRIVE","height":7.6,"base_elevation":606.971557,"structure_owner_name":"CHRISTIANBURG, TOWN OF","structure_manager_name":null,"data_source":"FCC: Land Mobile - Private (GIS)"}},{"type":"Feature","geometry":{"type":"Point","coordinates":[-80.377999,37.1267]},"properties":{"name":"SPS-5 HEMLOCK STREET","styleUrl":"#towerStyle","styleHash":"1d01e409","county":"Montgomery County","lat":37.1267,"lng":-80.377999,"structure_type":"BMAST","structure_name":null,"structure_address":"SPS-5 HEMLOCK STREET","height":7.6,"base_elevation":652.506652,"structure_owner_name":"CHRISTIANBURG, TOWN OF","structure_manager_name":null,"data_source":"FCC: Land Mobile - Private (GIS)"}},{"type":"Feature","geometry":{"type":"Point","coordinates":[-80.435799,37.1778]},"properties":{"name":"SPS-14 PEPPERS FERRY ROAD","styleUrl":"#towerStyle","styleHash":"1d01e409","county":"Montgomery County","lat":37.1778,"lng":-80.435799,"structure_type":"BMAST","structure_name":null,"structure_address":"SPS-14 PEPPERS FERRY ROAD","height":7.6,"base_elevation":600.894165,"structure_owner_name":"CHRISTIANBURG, TOWN OF","structure_manager_name":null,"data_source":"FCC: Land Mobile - Private (GIS)"}},{"type":"Feature","geometry":{"type":"Point","coordinates":[-80.4192,37.1283]},"properties":{"name":"SPS-1 SILVER LAKE ROAD","styleUrl":"#towerStyle","styleHash":"1d01e409","county":"Montgomery County","lat":37.1283,"lng":-80.4192,"structure_type":"BMAST","structure_name":null,"structure_address":"SPS-1 SILVER LAKE ROAD","height":7.6,"base_elevation":647.802124,"structure_owner_name":"CHRISTIANBURG, TOWN OF","structure_manager_name":null,"data_source":"FCC: Land Mobile - Private (GIS)"}},{"type":"Feature","geometry":{"type":"Point","coordinates":[-80.4197,37.1719]},"properties":{"name":"SPS-11 RED OAK DRIVE","styleUrl":"#towerStyle","styleHash":"1d01e409","county":"Montgomery County","lat":37.1719,"lng":-80.4197,"structure_type":"BMAST","structure_name":null,"structure_address":"SPS-11 RED OAK DRIVE","height":7.6,"base_elevation":628.682495,"structure_owner_name":"CHRISTIANBURG, TOWN OF","structure_manager_name":null,"data_source":"FCC: Land Mobile - Private (GIS)"}},{"type":"Feature","geometry":{"type":"Point","coordinates":[-80.4272,37.1611]},"properties":{"name":"SPS-13 PEPPERS FERRY ROAD","styleUrl":"#towerStyle","styleHash":"1d01e409","county":"Montgomery County","lat":37.1611,"lng":-80.4272,"structure_type":"BMAST","structure_name":null,"structure_address":"SPS-13 PEPPERS FERRY ROAD","height":7.6,"base_elevation":618.430541,"structure_owner_name":"CHRISTIANBURG, TOWN OF","structure_manager_name":null,"data_source":"FCC: Land Mobile - Private (GIS)"}},{"type":"Feature","geometry":{"type":"Point","coordinates":[-80.4658,37.1753]},"properties":{"name":"SPS-12 NORTH FRANKLIN STREET","styleUrl":"#towerStyle","styleHash":"1d01e409","county":"Montgomery County","lat":37.1753,"lng":-80.4658,"structure_type":"BMAST","structure_name":null,"structure_address":"SPS-12 NORTH FRANKLIN STREET","height":7.6,"base_elevation":589.865966,"structure_owner_name":"CHRISTIANBURG, TOWN OF","structure_manager_name":null,"data_source":"FCC: Land Mobile - Private (GIS)"}},{"type":"Feature","geometry":{"type":"Point","coordinates":[-80.4217,37.1308]},"properties":{"name":"305M NORTH OF US ROUTE 11","styleUrl":"#towerStyle","styleHash":"1d01e409","county":"Montgomery County","lat":37.1308,"lng":-80.4217,"structure_type":"TANK","structure_name":null,"structure_address":"305M NORTH OF US ROUTE 11","height":18,"base_elevation":677.794189,"structure_owner_name":"CHRISTIANBURG, TOWN OF","structure_manager_name":null,"data_source":"FCC: Land Mobile - Private (GIS)"}},{"type":"Feature","geometry":{"type":"Point","coordinates":[-80.3272,37.1425]},"properties":{"name":"SPS-17 ON PINE HOLLOW RD","styleUrl":"#towerStyle","styleHash":"1d01e409","county":"Montgomery County","lat":37.1425,"lng":-80.3272,"structure_type":"BMAST","structure_name":null,"structure_address":"SPS-17 ON PINE HOLLOW RD","height":7.6,"base_elevation":617.996398,"structure_owner_name":"CHRISTIANBURG, TOWN OF","structure_manager_name":null,"data_source":"FCC: Land Mobile - Private (GIS)"}},{"type":"Feature","geometry":{"type":"Point","coordinates":[-80.408099,37.1306]},"properties":{"name":"POLICE DEPARTMENT AT 100 EAST MAIN STREET","styleUrl":"#towerStyle","styleHash":"1d01e409","county":"Montgomery County","lat":37.1306,"lng":-80.408099,"structure_type":"BMAST","structure_name":null,"structure_address":"POLICE DEPARTMENT AT 100 EAST MAIN STREET","height":15,"base_elevation":634.61676,"structure_owner_name":"CHRISTIANBURG, TOWN OF","structure_manager_name":null,"data_source":"FCC: Land Mobile - Private (GIS)"}},{"type":"Feature","geometry":{"type":"Point","coordinates":[-80.315,37.1397]},"properties":{"name":"SPS-9 WAYSIDE DRIVE","styleUrl":"#towerStyle","styleHash":"1d01e409","county":"Montgomery County","lat":37.1397,"lng":-80.315,"structure_type":"BMAST","structure_name":null,"structure_address":"SPS-9 WAYSIDE DRIVE","height":7.6,"base_elevation":601.940002,"structure_owner_name":"CHRISTIANBURG, TOWN OF","structure_manager_name":null,"data_source":"FCC: Land Mobile - Private (GIS)"}},{"type":"Feature","geometry":{"type":"Point","coordinates":[-80.440499,37.1717]},"properties":{"name":"SPS-15 WALTERS DRIVE","styleUrl":"#towerStyle","styleHash":"1d01e409","county":"Montgomery County","lat":37.1717,"lng":-80.440499,"structure_type":"BMAST","structure_name":null,"structure_address":"SPS-15 WALTERS DRIVE","height":7.6,"base_elevation":621.378784,"structure_owner_name":"CHRISTIANBURG, TOWN OF","structure_manager_name":null,"data_source":"FCC: Land Mobile - Private (GIS)"}},{"type":"Feature","geometry":{"type":"Point","coordinates":[-80.406399,37.1111]},"properties":{"name":"SPS-3 MULBERRY STREET","styleUrl":"#towerStyle","styleHash":"1d01e409","county":"Montgomery County","lat":37.1111,"lng":-80.406399,"structure_type":"BMAST","structure_name":null,"structure_address":"SPS-3 MULBERRY STREET","height":7.6,"base_elevation":639.450561,"structure_owner_name":"CHRISTIANBURG, TOWN OF","structure_manager_name":null,"data_source":"FCC: Land Mobile - Private (GIS)"}},{"type":"Feature","geometry":{"type":"Point","coordinates":[-80.3467,37.1347]},"properties":{"name":"SPS-7 TOWER ROAD","styleUrl":"#towerStyle","styleHash":"1d01e409","county":"Montgomery County","lat":37.1347,"lng":-80.3467,"structure_type":"BMAST","structure_name":null,"structure_address":"SPS-7 TOWER ROAD","height":7.6,"base_elevation":631.087036,"structure_owner_name":"CHRISTIANBURG, TOWN OF","structure_manager_name":null,"data_source":"FCC: Land Mobile - Private (GIS)"}},{"type":"Feature","geometry":{"type":"Point","coordinates":[-80.3669,37.1397]},"properties":{"name":"SPS-10 TEEL STREET","styleUrl":"#towerStyle","styleHash":"1d01e409","county":"Montgomery County","lat":37.1397,"lng":-80.3669,"structure_type":"BMAST","structure_name":null,"structure_address":"SPS-10 TEEL STREET","height":7.6,"base_elevation":655.026367,"structure_owner_name":"CHRISTIANBURG, TOWN OF","structure_manager_name":null,"data_source":"FCC: Land Mobile - Private (GIS)"}},{"type":"Feature","geometry":{"type":"Point","coordinates":[-80.383899,37.1336]},"properties":{"name":"WPS-2 ROANOKE STREET","styleUrl":"#towerStyle","styleHash":"1d01e409","county":"Montgomery County","lat":37.1336,"lng":-80.383899,"structure_type":"BMAST","structure_name":null,"structure_address":"WPS-2 ROANOKE STREET","height":7.6,"base_elevation":643.681518,"structure_owner_name":"CHRISTIANBURG, TOWN OF","structure_manager_name":null,"data_source":"FCC: Land Mobile - Private (GIS)"}},{"type":"Feature","geometry":{"type":"Point","coordinates":[-80.4117,37.1872]},"properties":{"name":"3700 S MAIN STREET","styleUrl":"#towerStyle","styleHash":"1d01e409","county":"Montgomery County","lat":37.1872,"lng":-80.4117,"structure_type":"BTWR","structure_name":null,"structure_address":"3700 S MAIN STREET","height":32,"base_elevation":650.210266,"structure_owner_name":"MONTGOMERY REGIONAL HOSPITAL","structure_manager_name":null,"data_source":"FCC: Land Mobile - Private (GIS)"}},{"type":"Feature","geometry":{"type":"Point","coordinates":[-80.4103,37.2131]},"properties":{"name":"601 Country Club Drive","styleUrl":"#towerStyle","styleHash":"1d01e409","county":"Montgomery County","lat":37.2131,"lng":-80.4103,"structure_type":"BANT","structure_name":null,"structure_address":"601 Country Club Drive","height":17,"base_elevation":646.451293,"structure_owner_name":"VIRGINIA, COMMONWEALTH OF","structure_manager_name":null,"data_source":"FCC: Land Mobile - Private (GIS)"}},{"type":"Feature","geometry":{"type":"Point","coordinates":[-80.4572,37.1869]},"properties":{"name":"PRICES MOUNTAIN","styleUrl":"#towerStyle","styleHash":"1d01e409","county":"Montgomery County","lat":37.1869,"lng":-80.4572,"structure_type":"TOWER","structure_name":null,"structure_address":"PRICES MOUNTAIN","height":36.7,"base_elevation":751.458129,"structure_owner_name":"BLACKSBURG, TOWN OF","structure_manager_name":null,"data_source":"FCC: Land Mobile - Private (GIS)"}},{"type":"Feature","geometry":{"type":"Point","coordinates":[-80.1922,37.162]},"properties":{"name":"Vertical Asset","styleUrl":"#towerStyle","styleHash":"1d01e409","county":"Montgomery County","lat":37.162,"lng":-80.1922,"structure_type":null,"structure_name":null,"structure_address":null,"height":0,"base_elevation":1147.993652,"structure_owner_name":"Virginia Department of Forestry","structure_manager_name":null,"data_source":"FCC: Land Mobile - Private (GIS)"}},{"type":"Feature","geometry":{"type":"Point","coordinates":[-80.399399,37.2356]},"properties":{"name":"CLAY STREET WATER TANK","styleUrl":"#towerStyle","styleHash":"1d01e409","county":"Montgomery County","lat":37.2356,"lng":-80.399399,"structure_type":"TANK","structure_name":null,"structure_address":"CLAY STREET WATER TANK","height":19,"base_elevation":703.574279,"structure_owner_name":"BLACKSBURG,  TOWN OF","structure_manager_name":null,"data_source":"FCC: Land Mobile - Private (GIS)"}},{"type":"Feature","geometry":{"type":"Point","coordinates":[-80.4422,37.2831]},"properties":{"name":"TOP OF BRUSH MOUNTAIN","styleUrl":"#towerStyle","styleHash":"1d01e409","county":"Montgomery County","lat":37.2831,"lng":-80.4422,"structure_type":"TOWER","structure_name":null,"structure_address":"TOP OF BRUSH MOUNTAIN","height":34,"base_elevation":798.492187,"structure_owner_name":"BLACKSBURG,  TOWN OF","structure_manager_name":null,"data_source":"FCC: Land Mobile - Private (GIS)"}},{"type":"Feature","geometry":{"type":"Point","coordinates":[-80.42,37.2419]},"properties":{"name":"1213 N Main St","styleUrl":"#towerStyle","styleHash":"1d01e409","county":"Montgomery County","lat":37.2419,"lng":-80.42,"structure_type":"BPIPE","structure_name":null,"structure_address":"1213 N Main St","height":11,"base_elevation":639.663269,"structure_owner_name":"MOOG COMPONENTS GROUP INC","structure_manager_name":null,"data_source":"FCC: Land Mobile - Private (GIS)"}},{"type":"Feature","geometry":{"type":"Point","coordinates":[-80.4583,37.2167]},"properties":{"name":"3109 PRICES FORK RD","styleUrl":"#towerStyle","styleHash":"1d01e409","county":"Montgomery County","lat":37.2167,"lng":-80.4583,"structure_type":null,"structure_name":null,"structure_address":"3109 PRICES FORK RD","height":0,"base_elevation":627.841674,"structure_owner_name":"Montgomery County Public Schools","structure_manager_name":null,"data_source":"FCC: Land Mobile - Private (GIS)"}},{"type":"Feature","geometry":{"type":"Point","coordinates":[-80.4422,37.2831]},"properties":{"name":"BRUSH MOUNTAIN","styleUrl":"#towerStyle","styleHash":"1d01e409","county":"Montgomery County","lat":37.2831,"lng":-80.4422,"structure_type":"TOWER","structure_name":null,"structure_address":"BRUSH MOUNTAIN","height":34,"base_elevation":798.492187,"structure_owner_name":"BLACKSBURG, TOWN OF","structure_manager_name":null,"data_source":"FCC: Land Mobile - Private (GIS)"}},{"type":"Feature","geometry":{"type":"Point","coordinates":[-80.4089,37.1842]},"properties":{"name":"3805 SOUTH MAIN ST","styleUrl":"#towerStyle","styleHash":"1d01e409","county":"Montgomery County","lat":37.1842,"lng":-80.4089,"structure_type":"B","structure_name":null,"structure_address":"3805 SOUTH MAIN ST","height":8,"base_elevation":659.52539,"structure_owner_name":"BLACKSBURG, TOWN OF","structure_manager_name":null,"data_source":"FCC: Land Mobile - Private (GIS)"}},{"type":"Feature","geometry":{"type":"Point","coordinates":[-80.3967,37.2258]},"properties":{"name":"Vertical Asset","styleUrl":"#towerStyle","styleHash":"1d01e409","county":"Montgomery County","lat":37.2258,"lng":-80.3967,"structure_type":null,"structure_name":null,"structure_address":null,"height":0,"base_elevation":700.517395,"structure_owner_name":"Blacksburg, Town of","structure_manager_name":null,"data_source":"FCC: Land Mobile - Private (GIS)"}},{"type":"Feature","geometry":{"type":"Point","coordinates":[-80.408099,37.1306]},"properties":{"name":"POLICE DEPT ON MAIN STREET","styleUrl":"#towerStyle","styleHash":"1d01e409","county":"Montgomery County","lat":37.1306,"lng":-80.408099,"structure_type":"TOWER","structure_name":null,"structure_address":"POLICE DEPT ON MAIN STREET","height":18,"base_elevation":634.61676,"structure_owner_name":"CHRISTIANSBURG, TOWN OF","structure_manager_name":null,"data_source":"FCC: Land Mobile - Private (GIS)"}},{"type":"Feature","geometry":{"type":"Point","coordinates":[-80.4572,37.1869]},"properties":{"name":"OIL WELL RD","styleUrl":"#towerStyle","styleHash":"1d01e409","county":"Montgomery County","lat":37.1869,"lng":-80.4572,"structure_type":"TOWER","structure_name":null,"structure_address":"OIL WELL RD","height":41.1,"base_elevation":751.458129,"structure_owner_name":"CHRISTIANSBURG, TOWN OF","structure_manager_name":null,"data_source":"FCC: Land Mobile - Private (GIS)"}},{"type":"Feature","geometry":{"type":"Point","coordinates":[-80.399399,37.2356]},"properties":{"name":"905 Clay Street","styleUrl":"#towerStyle","styleHash":"1d01e409","county":"Montgomery County","lat":37.2356,"lng":-80.399399,"structure_type":"TANK","structure_name":null,"structure_address":"905 Clay Street","height":23,"base_elevation":703.574279,"structure_owner_name":"VIRGINIA, COMMONWEALTH OF","structure_manager_name":null,"data_source":"FCC: Land Mobile - Private (GIS)"}},{"type":"Feature","geometry":{"type":"Point","coordinates":[-80.4219,37.1578]},"properties":{"name":"Vertical Asset","styleUrl":"#towerStyle","styleHash":"1d01e409","county":"Montgomery County","lat":37.1578,"lng":-80.4219,"structure_type":null,"structure_name":null,"structure_address":null,"height":0,"base_elevation":635.872131,"structure_owner_name":"TARGET STORES  1292","structure_manager_name":null,"data_source":"FCC: Land Mobile - Private (GIS)"}},{"type":"Feature","geometry":{"type":"Point","coordinates":[-80.5778,37.215]},"properties":{"name":"LONG SHOP MC COY FIRE BLDG","styleUrl":"#towerStyle","styleHash":"1d01e409","county":"Montgomery County","lat":37.215,"lng":-80.5778,"structure_type":"B","structure_name":null,"structure_address":"LONG SHOP MC COY FIRE BLDG","height":11,"base_elevation":577.49884,"structure_owner_name":"MONTGOMERY, COUNTY OF","structure_manager_name":null,"data_source":"FCC: Land Mobile - Private (GIS)"}},{"type":"Feature","geometry":{"type":"Point","coordinates":[-80.6092,37.2342]},"properties":{"name":"Detector, RR MP V 293.4","styleUrl":"#towerStyle","styleHash":"1d01e409","county":"Montgomery County","lat":37.2342,"lng":-80.6092,"structure_type":"B","structure_name":null,"structure_address":"Detector, RR MP V 293.4","height":4,"base_elevation":524.715942,"structure_owner_name":"Norfolk Southern Railway Company","structure_manager_name":null,"data_source":"FCC: Land Mobile - Private (GIS)"}},{"type":"Feature","geometry":{"type":"Point","coordinates":[-80.4139,37.1711]},"properties":{"name":"Detector, RR  MP V276.3, Yellow Sulphur Rd","styleUrl":"#towerStyle","styleHash":"1d01e409","county":"Montgomery County","lat":37.1711,"lng":-80.4139,"structure_type":"BANT","structure_name":null,"structure_address":"Detector, RR  MP V276.3, Yellow Sulphur Rd","height":4,"base_elevation":635.065979,"structure_owner_name":"Norfolk Southern Railway Company","structure_manager_name":null,"data_source":"FCC: Land Mobile - Private (GIS)"}},{"type":"Feature","geometry":{"type":"Point","coordinates":[-80.401099,37.1414]},"properties":{"name":"Detector, RR MP N 289.9","styleUrl":"#towerStyle","styleHash":"1d01e409","county":"Montgomery County","lat":37.1414,"lng":-80.401099,"structure_type":"B","structure_name":null,"structure_address":"Detector, RR MP N 289.9","height":4,"base_elevation":618.93225,"structure_owner_name":"Norfolk Southern Railway Company","structure_manager_name":null,"data_source":"FCC: Land Mobile - Private (GIS)"}},{"type":"Feature","geometry":{"type":"Point","coordinates":[-80.254199,37.1692]},"properties":{"name":"Dispatch Base, RR MP N281.1","styleUrl":"#towerStyle","styleHash":"1d01e409","county":"Montgomery County","lat":37.1692,"lng":-80.254199,"structure_type":"POLE","structure_name":null,"structure_address":"Dispatch Base, RR MP N281.1","height":21,"base_elevation":445.24118,"structure_owner_name":"Norfolk Southern Railway Company","structure_manager_name":null,"data_source":"FCC: Land Mobile - Private (GIS)"}},{"type":"Feature","geometry":{"type":"Point","coordinates":[-80.418,37.1764]},"properties":{"name":"Dispatch Base, RR MP V277.2","styleUrl":"#towerStyle","styleHash":"1d01e409","county":"Montgomery County","lat":37.1764,"lng":-80.418,"structure_type":"POLE","structure_name":null,"structure_address":"Dispatch Base, RR MP V277.2","height":21,"base_elevation":633.373718,"structure_owner_name":"Norfolk Southern Railway Company","structure_manager_name":null,"data_source":"FCC: Land Mobile - Private (GIS)"}},{"type":"Feature","geometry":{"type":"Point","coordinates":[-80.301699,37.2031]},"properties":{"name":"Dispatch Base, RR MP N268.1","styleUrl":"#towerStyle","styleHash":"1d01e409","county":"Montgomery County","lat":37.2031,"lng":-80.301699,"structure_type":"POLE","structure_name":null,"structure_address":"Dispatch Base, RR MP N268.1","height":21,"base_elevation":434.329498,"structure_owner_name":"Norfolk Southern Railway Company","structure_manager_name":null,"data_source":"FCC: Land Mobile - Private (GIS)"}},{"type":"Feature","geometry":{"type":"Point","coordinates":[-80.4908,37.1628]},"properties":{"name":"Dispatch   RR MP N295.6","styleUrl":"#towerStyle","styleHash":"1d01e409","county":"Montgomery County","lat":37.1628,"lng":-80.4908,"structure_type":"POLE","structure_name":null,"structure_address":"Dispatch   RR MP N295.6","height":21,"base_elevation":545.992858,"structure_owner_name":"Norfolk Southern Railway Company","structure_manager_name":null,"data_source":"FCC: Land Mobile - Private (GIS)"}},{"type":"Feature","geometry":{"type":"Point","coordinates":[-80.3728,37.1356]},"properties":{"name":"2000 ELECTRIC WAY","styleUrl":"#towerStyle","styleHash":"1d01e409","county":"Montgomery County","lat":37.1356,"lng":-80.3728,"structure_type":null,"structure_name":null,"structure_address":"2000 ELECTRIC WAY","height":8,"base_elevation":669.408447,"structure_owner_name":"HUBBELL LIGHTING INC","structure_manager_name":null,"data_source":"FCC: Land Mobile - Private (GIS)"}},{"type":"Feature","geometry":{"type":"Point","coordinates":[-80.4192,37.2208]},"properties":{"name":"ATOP STADIUM ON VPI & SU CAMPUS","styleUrl":"#towerStyle","styleHash":"1d01e409","county":"Montgomery County","lat":37.2208,"lng":-80.4192,"structure_type":"BPOLE","structure_name":null,"structure_address":"ATOP STADIUM ON VPI & SU CAMPUS","height":34,"base_elevation":634.020812,"structure_owner_name":"VIRGINIA, COMMONWEALTH OF","structure_manager_name":null,"data_source":"FCC: Land Mobile - Private (GIS)"}},{"type":"Feature","geometry":{"type":"Point","coordinates":[-80.4169,37.2303]},"properties":{"name":"3700 S MAIN ST","styleUrl":"#towerStyle","styleHash":"1d01e409","county":"Montgomery County","lat":37.2303,"lng":-80.4169,"structure_type":"B","structure_name":null,"structure_address":"3700 S MAIN ST","height":23,"base_elevation":628.84967,"structure_owner_name":"MONTGOMERY REGIONAL HOSPITAL","structure_manager_name":null,"data_source":"FCC: Land Mobile - Private (GIS)"}},{"type":"Feature","geometry":{"type":"Point","coordinates":[-80.430599,37.23]},"properties":{"name":"901 Prices Fork Road","styleUrl":"#towerStyle","styleHash":"1d01e409","county":"Montgomery County","lat":37.23,"lng":-80.430599,"structure_type":"BPIPE","structure_name":null,"structure_address":"901 Prices Fork Road","height":16,"base_elevation":627.579284,"structure_owner_name":"VIRGINIA POLYTECHNIC INSTITUTE & STATE UNIVERSITY","structure_manager_name":null,"data_source":"FCC: Land Mobile - Private (GIS)"}},{"type":"Feature","geometry":{"type":"Point","coordinates":[-80.3892,37.1828]},"properties":{"name":"ON SMART ROAD TESTBED","styleUrl":"#towerStyle","styleHash":"1d01e409","county":"Montgomery County","lat":37.1828,"lng":-80.3892,"structure_type":"POLE","structure_name":null,"structure_address":"ON SMART ROAD TESTBED","height":18,"base_elevation":615.754516,"structure_owner_name":"VIRGINIA POLYTECHNIC INSTITUTE & STATE UNIVERSITY","structure_manager_name":null,"data_source":"FCC: Land Mobile - Private (GIS)"}},{"type":"Feature","geometry":{"type":"Point","coordinates":[-80.5219,37.2208]},"properties":{"name":"Vertical Asset","styleUrl":"#towerStyle","styleHash":"1d01e409","county":"Montgomery County","lat":37.2208,"lng":-80.5219,"structure_type":null,"structure_name":null,"structure_address":null,"height":0,"base_elevation":573.760498,"structure_owner_name":"VINTAGE PHOTO STUDIOS INC","structure_manager_name":null,"data_source":"FCC: Land Mobile - Private (GIS)"}},{"type":"Feature","geometry":{"type":"Point","coordinates":[-80.5219,37.2208]},"properties":{"name":"Vertical Asset","styleUrl":"#towerStyle","styleHash":"1d01e409","county":"Montgomery County","lat":37.2208,"lng":-80.5219,"structure_type":null,"structure_name":null,"structure_address":null,"height":0,"base_elevation":573.760498,"structure_owner_name":"LAUGENI, CAROLYN J:HUFF, MARK DBA T BONE MOTOR SPORTS LLC","structure_manager_name":null,"data_source":"FCC: Land Mobile - Private (GIS)"}},{"type":"Feature","geometry":{"type":"Point","coordinates":[-80.4,37.2122]},"properties":{"name":"Vertical Asset","styleUrl":"#towerStyle","styleHash":"1d01e409","county":"Montgomery County","lat":37.2122,"lng":-80.4,"structure_type":null,"structure_name":null,"structure_address":null,"height":0,"base_elevation":638.998718,"structure_owner_name":"ANDERSON AND ASSOCIATES OF VIRGINIA INC","structure_manager_name":null,"data_source":"FCC: Land Mobile - Private (GIS)"}},{"type":"Feature","geometry":{"type":"Point","coordinates":[-80.503899,37.0908]},"properties":{"name":"2920 TYLER ROAD","styleUrl":"#towerStyle","styleHash":"1d01e409","county":"Montgomery County","lat":37.0908,"lng":-80.503899,"structure_type":"B","structure_name":null,"structure_address":"2920 TYLER ROAD","height":17,"base_elevation":628.812011,"structure_owner_name":"CARRILLION NEW RIVER VALLEY MEDICAL CENTER","structure_manager_name":null,"data_source":"FCC: Land Mobile - Private (GIS)"}},{"type":"Feature","geometry":{"type":"Point","coordinates":[-80.4083,37.1303]},"properties":{"name":"SHERIFFS OFFICE AT 7 S FRANKLIN ST","styleUrl":"#towerStyle","styleHash":"1d01e409","county":"Montgomery County","lat":37.1303,"lng":-80.4083,"structure_type":"TOWER","structure_name":null,"structure_address":"SHERIFFS OFFICE AT 7 S FRANKLIN ST","height":21,"base_elevation":636.74176,"structure_owner_name":"CHRISTIANSBURG LIFE SAVING AND FIRST AID CREW","structure_manager_name":null,"data_source":"FCC: Land Mobile - Private (GIS)"}},{"type":"Feature","geometry":{"type":"Point","coordinates":[-80.408099,37.1306]},"properties":{"name":"POLICE DEPARTMENT DISPATCH AT 10 E MAIN ST","styleUrl":"#towerStyle","styleHash":"1d01e409","county":"Montgomery County","lat":37.1306,"lng":-80.408099,"structure_type":"B","structure_name":null,"structure_address":"POLICE DEPARTMENT DISPATCH AT 10 E MAIN ST","height":15,"base_elevation":634.61676,"structure_owner_name":"CHRISTIANSBURG LIFE SAVING AND FIRST AID CREW","structure_manager_name":null,"data_source":"FCC: Land Mobile - Private (GIS)"}},{"type":"Feature","geometry":{"type":"Point","coordinates":[-80.4147,37.1308]},"properties":{"name":"CREW HALL AT 190 DEPOT ST","styleUrl":"#towerStyle","styleHash":"1d01e409","county":"Montgomery County","lat":37.1308,"lng":-80.4147,"structure_type":"B","structure_name":null,"structure_address":"CREW HALL AT 190 DEPOT ST","height":18,"base_elevation":632.648986,"structure_owner_name":"CHRISTIANSBURG LIFE SAVING AND FIRST AID CREW","structure_manager_name":null,"data_source":"FCC: Land Mobile - Private (GIS)"}},{"type":"Feature","geometry":{"type":"Point","coordinates":[-80.4028,37.1417]},"properties":{"name":"WATER TANK BEHIND HILLS DEPT STORE","styleUrl":"#towerStyle","styleHash":"1d01e409","county":"Montgomery County","lat":37.1417,"lng":-80.4028,"structure_type":"TANK","structure_name":null,"structure_address":"WATER TANK BEHIND HILLS DEPT STORE","height":46,"base_elevation":616.518127,"structure_owner_name":"CHRISTIANSBURG LIFE SAVING AND FIRST AID CREW","structure_manager_name":null,"data_source":"FCC: Land Mobile - Private (GIS)"}},{"type":"Feature","geometry":{"type":"Point","coordinates":[-80.4275,37.1197]},"properties":{"name":"WATER TANK ON BUFFALO RD","styleUrl":"#towerStyle","styleHash":"1d01e409","county":"Montgomery County","lat":37.1197,"lng":-80.4275,"structure_type":"TANK","structure_name":null,"structure_address":"WATER TANK ON BUFFALO RD","height":21,"base_elevation":699.911132,"structure_owner_name":"CHRISTIANSBURG LIFE SAVING AND FIRST AID CREW","structure_manager_name":null,"data_source":"FCC: Land Mobile - Private (GIS)"}},{"type":"Feature","geometry":{"type":"Point","coordinates":[-80.5219,37.2208]},"properties":{"name":"Vertical Asset","styleUrl":"#towerStyle","styleHash":"1d01e409","county":"Montgomery County","lat":37.2208,"lng":-80.5219,"structure_type":null,"structure_name":null,"structure_address":null,"height":0,"base_elevation":573.760498,"structure_owner_name":"WILLARD JR., BARTH S","structure_manager_name":null,"data_source":"FCC: Land Mobile - Private (GIS)"}},{"type":"Feature","geometry":{"type":"Point","coordinates":[-80.503899,37.0908]},"properties":{"name":"2920 TYLER RD","styleUrl":"#towerStyle","styleHash":"1d01e409","county":"Montgomery County","lat":37.0908,"lng":-80.503899,"structure_type":"B","structure_name":null,"structure_address":"2920 TYLER RD","height":17,"base_elevation":628.812011,"structure_owner_name":"CARILION RADFORD COMMUNITY HOSPITAL","structure_manager_name":null,"data_source":"FCC: Land Mobile - Private (GIS)"}},{"type":"Feature","geometry":{"type":"Point","coordinates":[-80.4572,37.1869]},"properties":{"name":"PRICE MOUNTAIN","styleUrl":"#towerStyle","styleHash":"1d01e409","county":"Montgomery County","lat":37.1869,"lng":-80.4572,"structure_type":"TOWER","structure_name":null,"structure_address":"PRICE MOUNTAIN","height":37,"base_elevation":751.458129,"structure_owner_name":"HENDERSON JR, HENRY B","structure_manager_name":null,"data_source":"FCC: Land Mobile - Private (GIS)"}},{"type":"Feature","geometry":{"type":"Point","coordinates":[-80.427799,37.1197]},"properties":{"name":"WATER TANK ON BUFFALO ROAD IN","styleUrl":"#towerStyle","styleHash":"1d01e409","county":"Montgomery County","lat":37.1197,"lng":-80.427799,"structure_type":"TOWER","structure_name":null,"structure_address":"WATER TANK ON BUFFALO ROAD IN","height":31,"base_elevation":701.46051,"structure_owner_name":"TWO WAY RADIO INCORPORATED","structure_manager_name":null,"data_source":"FCC: Land Mobile - Private (GIS)"}},{"type":"Feature","geometry":{"type":"Point","coordinates":[-80.4178,37.1567]},"properties":{"name":"1970 PALMER ST","styleUrl":"#towerStyle","styleHash":"1d01e409","county":"Montgomery County","lat":37.1567,"lng":-80.4178,"structure_type":null,"structure_name":null,"structure_address":"1970 PALMER ST","height":0,"base_elevation":643.93341,"structure_owner_name":"LAUREL CREEK FARMS LTD","structure_manager_name":null,"data_source":"FCC: Land Mobile - Private (GIS)"}},{"type":"Feature","geometry":{"type":"Point","coordinates":[-80.401399,37.2014]},"properties":{"name":"Vertical Asset","styleUrl":"#towerStyle","styleHash":"1d01e409","county":"Montgomery County","lat":37.2014,"lng":-80.401399,"structure_type":null,"structure_name":null,"structure_address":null,"height":0,"base_elevation":654.982421,"structure_owner_name":"VIRGINIA POLYTECHNIC INSTITUTE & STATE UNIVERSITY","structure_manager_name":null,"data_source":"FCC: Land Mobile - Private (GIS)"}},{"type":"Feature","geometry":{"type":"Point","coordinates":[-80.4572,37.1869]},"properties":{"name":"PRICE MOUNTAIN","styleUrl":"#towerStyle","styleHash":"1d01e409","county":"Montgomery County","lat":37.1869,"lng":-80.4572,"structure_type":"TOWER","structure_name":null,"structure_address":"PRICE MOUNTAIN","height":0,"base_elevation":751.458129,"structure_owner_name":"AMC INVESTORS INC","structure_manager_name":null,"data_source":"FCC: Land Mobile - Private (GIS)"}},{"type":"Feature","geometry":{"type":"Point","coordinates":[-80.4153,37.2194]},"properties":{"name":"UNIVERSITY CAMPUS SOUTHGATE DR","styleUrl":"#towerStyle","styleHash":"1d01e409","county":"Montgomery County","lat":37.2194,"lng":-80.4153,"structure_type":null,"structure_name":null,"structure_address":"UNIVERSITY CAMPUS SOUTHGATE DR","height":7,"base_elevation":639.143066,"structure_owner_name":"VIRGINIA POLYTECHNIC INSTITUTE AND STATE UNIVERSITY","structure_manager_name":null,"data_source":"FCC: Land Mobile - Private (GIS)"}},{"type":"Feature","geometry":{"type":"Point","coordinates":[-80.4153,37.2194]},"properties":{"name":"UNIVERSITY CAMPUS SOUTHGATE DR","styleUrl":"#towerStyle","styleHash":"1d01e409","county":"Montgomery County","lat":37.2194,"lng":-80.4153,"structure_type":null,"structure_name":null,"structure_address":"UNIVERSITY CAMPUS SOUTHGATE DR","height":7,"base_elevation":639.143066,"structure_owner_name":"VIRGINIA POLYTECHNIC INSTITUTE AND STATE UNIVERSITY","structure_manager_name":null,"data_source":"FCC: Land Mobile - Private (GIS)"}},{"type":"Feature","geometry":{"type":"Point","coordinates":[-80.4289,37.2222]},"properties":{"name":"Vertical Asset","styleUrl":"#towerStyle","styleHash":"1d01e409","county":"Montgomery County","lat":37.2222,"lng":-80.4289,"structure_type":null,"structure_name":null,"structure_address":null,"height":0,"base_elevation":626.687133,"structure_owner_name":"VIRGINIA TECH GOLF COURSE","structure_manager_name":null,"data_source":"FCC: Land Mobile - Private (GIS)"}},{"type":"Feature","geometry":{"type":"Point","coordinates":[-80.4153,37.2194]},"properties":{"name":"Vertical Asset","styleUrl":"#towerStyle","styleHash":"1d01e409","county":"Montgomery County","lat":37.2194,"lng":-80.4153,"structure_type":null,"structure_name":null,"structure_address":null,"height":0,"base_elevation":639.143066,"structure_owner_name":"VIRGINIA POLYTECHNIC INSTITUTE AND STATE UNIVERSITY","structure_manager_name":null,"data_source":"FCC: Land Mobile - Private (GIS)"}},{"type":"Feature","geometry":{"type":"Point","coordinates":[-80.3931,37.1936]},"properties":{"name":"Vertical Asset","styleUrl":"#towerStyle","styleHash":"1d01e409","county":"Montgomery County","lat":37.1936,"lng":-80.3931,"structure_type":null,"structure_name":null,"structure_address":null,"height":0,"base_elevation":645.213684,"structure_owner_name":"Trtra Holding (US), Inc.","structure_manager_name":null,"data_source":"FCC: Land Mobile - Private (GIS)"}},{"type":"Feature","geometry":{"type":"Point","coordinates":[-80.4175,37.1456]},"properties":{"name":"HIGH SCH BLDG ON INDEPENDENCE BLVD","styleUrl":"#towerStyle","styleHash":"1d01e409","county":"Montgomery County","lat":37.1456,"lng":-80.4175,"structure_type":null,"structure_name":null,"structure_address":"HIGH SCH BLDG ON INDEPENDENCE BLVD","height":0,"base_elevation":651.699768,"structure_owner_name":"MONTGOMERY COUNTY SCHOOL BOARD","structure_manager_name":null,"data_source":"FCC: Land Mobile - Private (GIS)"}},{"type":"Feature","geometry":{"type":"Point","coordinates":[-80.4197,37.1828]},"properties":{"name":"1 MI W US 460 ON N SIDE OF SR 657","styleUrl":"#towerStyle","styleHash":"1d01e409","county":"Montgomery County","lat":37.1828,"lng":-80.4197,"structure_type":"POLE","structure_name":null,"structure_address":"1 MI W US 460 ON N SIDE OF SR 657","height":15,"base_elevation":651.626647,"structure_owner_name":"C R SULT INCORPORATED","structure_manager_name":null,"data_source":"FCC: Land Mobile - Private (GIS)"}},{"type":"Feature","geometry":{"type":"Point","coordinates":[-80.4425,37.1278]},"properties":{"name":"HWY US 11 AT W END OF TOWN LIMITS","styleUrl":"#towerStyle","styleHash":"1d01e409","county":"Montgomery County","lat":37.1278,"lng":-80.4425,"structure_type":null,"structure_name":null,"structure_address":"HWY US 11 AT W END OF TOWN LIMITS","height":0,"base_elevation":663.960449,"structure_owner_name":"S G WIMMER AND SON INC","structure_manager_name":null,"data_source":"FCC: Land Mobile - Private (GIS)"}},{"type":"Feature","geometry":{"type":"Point","coordinates":[-80.503899,37.0908]},"properties":{"name":"2920 TYLER RD","styleUrl":"#towerStyle","styleHash":"1d01e409","county":"Montgomery County","lat":37.0908,"lng":-80.503899,"structure_type":"B","structure_name":null,"structure_address":"2920 TYLER RD","height":17,"base_elevation":628.812011,"structure_owner_name":"RADFORD, CITY OF","structure_manager_name":null,"data_source":"FCC: Land Mobile - Private (GIS)"}},{"type":"Feature","geometry":{"type":"Point","coordinates":[-80.4072,37.1297]},"properties":{"name":"MONTGOMERY CTY JAIL","styleUrl":"#towerStyle","styleHash":"1d01e409","county":"Montgomery County","lat":37.1297,"lng":-80.4072,"structure_type":"TOWER","structure_name":null,"structure_address":"MONTGOMERY CTY JAIL","height":18,"base_elevation":639.482482,"structure_owner_name":"RINER VOLUNTEER FIRE DEPARTMENT","structure_manager_name":null,"data_source":"FCC: Land Mobile - Private (GIS)"}},{"type":"Feature","geometry":{"type":"Point","coordinates":[-80.440799,37.0611]},"properties":{"name":"4171 RINER RD","styleUrl":"#towerStyle","styleHash":"1d01e409","county":"Montgomery County","lat":37.0611,"lng":-80.440799,"structure_type":"B","structure_name":null,"structure_address":"4171 RINER RD","height":18,"base_elevation":625.314208,"structure_owner_name":"RINER VOLUNTEER FIRE DEPARTMENT","structure_manager_name":null,"data_source":"FCC: Land Mobile - Private (GIS)"}},{"type":"Feature","geometry":{"type":"Point","coordinates":[-80.3075,37.0928]},