{"type":"FeatureCollection","features":[{"type":"Feature","geometry":{"type":"Point","coordinates":[-76.10466702397018,36.90542229780724]},"properties":{"OBJECTID":9918,"STREETS":"WHISPERING SANDS LN,MARLIN BAY DR"}},{"type":"Feature","geometry":{"type":"Point","coordinates":[-76.04078727344918,36.85139923981999]},"properties":{"OBJECTID":9919,"STREETS":"BILTMORE DR,WESTMINSTER LN"}},{"type":"Feature","geometry":{"type":"Point","coordinates":[-76.00185633270272,36.87499919358126]},"properties":{"OBJECTID":9920,"STREETS":"WYTHE LN,BAY COLONY DR"}},{"type":"Feature","geometry":{"type":"Point","coordinates":[-76.05479355922078,36.750180465594816]},"properties":{"OBJECTID":9921,"STREETS":"NORTH LANDING RD,COURTHOUSE DR"}},{"type":"Feature","geometry":{"type":"Point","coordinates":[-76.10753822646781,36.90787052226892]},"properties":{"OBJECTID":9922,"STREETS":"THREE SHIPS LNDG,SHADY OAKS DR"}},{"type":"Feature","geometry":{"type":"Point","coordinates":[-76.10319754276044,36.847700082885225]},"properties":{"OBJECTID":9923,"STREETS":"SWEENEY RD,MANTLE LN"}},{"type":"Feature","geometry":{"type":"Point","coordinates":[-76.00181076296498,36.87498621558768]},"properties":{"OBJECTID":9924,"STREETS":"WYTHE LN,BAY COLONY DR"}},{"type":"Feature","geometry":{"type":"Point","coordinates":[-76.00415602521996,36.763826945007686]},"properties":{"OBJECTID":9925,"STREETS":"RED MILL BLVD,WARNER HALL DR"}},{"type":"Feature","geometry":{"type":"Point","coordinates":[-76.14097213254732,36.82315279269131]},"properties":{"OBJECTID":9926,"STREETS":"KEMPSVILLE GREENS PKWY,STRAND DR"}},{"type":"Feature","geometry":{"type":"Point","coordinates":[-76.14857077312652,36.829577313419605]},"properties":{"OBJECTID":9927,"STREETS":"STONEBRIDGE LN,KENLEY RD"}},{"type":"Feature","geometry":{"type":"Point","coordinates":[-75.99947685900847,36.759872995334426]},"properties":{"OBJECTID":9928,"STREETS":"KERR DR,CLIFF CUTTER DR"}},{"type":"Feature","geometry":{"type":"Point","coordinates":[-76.16554183440734,36.84391828526375]},"properties":{"OBJECTID":9929,"STREETS":"CLEARFIELD AVE,CLEVELAND ST"}},{"type":"Feature","geometry":{"type":"Point","coordinates":[-76.13269753037804,36.7596938271567]},"properties":{"OBJECTID":9930,"STREETS":"HILLCREST FARMS CIR,EAGLES LAKE RD"}},{"type":"Feature","geometry":{"type":"Point","coordinates":[-75.98189729692051,36.85816086915533]},"properties":{"OBJECTID":9931,"STREETS":"30TH HALF ST,BALTIC AVE"}},{"type":"Feature","geometry":{"type":"Point","coordinates":[-76.13118193774645,36.81491785703867]},"properties":{"OBJECTID":9932,"STREETS":"NEW LAKE CT,PINEBROOK DR"}},{"type":"Feature","geometry":{"type":"Point","coordinates":[-76.13766538278249,36.82040718364486]},"properties":{"OBJECTID":9933,"STREETS":"GREEN VALLEY DR,SOUTHERN PINES DR"}},{"type":"Feature","geometry":{"type":"Point","coordinates":[-76.13690585181988,36.819767012481115]},"properties":{"OBJECTID":9934,"STREETS":"RYDER CUP LN,SOUTHERN PINES DR"}},{"type":"Feature","geometry":{"type":"Point","coordinates":[-76.15756198924572,36.78074774277221]},"properties":{"OBJECTID":9935,"STREETS":"HERITAGE AVE,APRIL AVE"}},{"type":"Feature","geometry":{"type":"Point","coordinates":[-76.13602500247983,36.81904295664558]},"properties":{"OBJECTID":9936,"STREETS":"BOB JONES DR,SOUTHERN PINES DR"}},{"type":"Feature","geometry":{"type":"Point","coordinates":[-75.95784196320565,36.78120200870667]},"properties":{"OBJECTID":9937,"STREETS":"VIKING AVE,TRITON ST"}},{"type":"Feature","geometry":{"type":"Point","coordinates":[-76.01070335394742,36.76947194464953]},"properties":{"OBJECTID":9938,"STREETS":"AGECROFT RD,TODDSBURY LN"}},{"type":"Feature","geometry":{"type":"Point","coordinates":[-76.1431120848441,36.8250487221272]},"properties":{"OBJECTID":9939,"STREETS":"OPEN GREENS DR,PINNACLE DR"}},{"type":"Feature","geometry":{"type":"Point","coordinates":[-76.16928479798928,36.847168658739186]},"properties":{"OBJECTID":9940,"STREETS":"TOY AVE,CROSS ST"}},{"type":"Feature","geometry":{"type":"Point","coordinates":[-76.02717764867273,36.84002555909206]},"properties":{"OBJECTID":9941,"STREETS":"EGO DR,N STREAMLINE DR"}},{"type":"Feature","geometry":{"type":"Point","coordinates":[-76.10022167575244,36.78879898854438]},"properties":{"OBJECTID":9942,"STREETS":"KELSEY BAY LN,NORFELD CT"}},{"type":"Feature","geometry":{"type":"Point","coordinates":[-76.17774658660586,36.85432965407699]},"properties":{"OBJECTID":9943,"STREETS":"NEWTOWN RD,VIRGINIA BEACH BLVD"}},{"type":"Feature","geometry":{"type":"Point","coordinates":[-76.05860393777154,36.86665581825306]},"properties":{"OBJECTID":9944,"STREETS":"CONSOLVO DR,CONSOLVO CT"}},{"type":"Feature","geometry":{"type":"Point","coordinates":[-76.18822439145107,36.80673364345305]},"properties":{"OBJECTID":9945,"STREETS":"HEARTH DR,HEARTH CT"}},{"type":"Feature","geometry":{"type":"Point","coordinates":[-76.14057075360027,36.76645737464212]},"properties":{"OBJECTID":9946,"STREETS":"GAINES MILL DR,TERRYWOOD DR"}},{"type":"Feature","geometry":{"type":"Point","coordinates":[-76.12280155895247,36.864427915327816]},"properties":{"OBJECTID":9947,"STREETS":"ST CLEMENT RD,TEMPLE CT"}},{"type":"Feature","geometry":{"type":"Point","coordinates":[-76.09062359645485,36.837225406317785]},"properties":{"OBJECTID":9948,"STREETS":"VICTORIA DR,HILBER ST"}},{"type":"Feature","geometry":{"type":"Point","coordinates":[-76.13520280414468,36.81843530491602]},"properties":{"OBJECTID":9949,"STREETS":"NICKLAUS CT,SOUTHERN PINES DR"}},{"type":"Feature","geometry":{"type":"Point","coordinates":[-75.98327861746829,36.85945778336305]},"properties":{"OBJECTID":9950,"STREETS":"32ND ST,HUNTWICK LN"}},{"type":"Feature","geometry":{"type":"Point","coordinates":[-76.13052697158122,36.87099230578197]},"properties":{"OBJECTID":9951,"STREETS":"DEACONS LN,DONATION DR"}},{"type":"Feature","geometry":{"type":"Point","coordinates":[-76.04111358288287,36.90844592599379]},"properties":{"OBJECTID":9952,"STREETS":"LEEWARD SHORE DR,SPINNAKER CIR"}},{"type":"Feature","geometry":{"type":"Point","coordinates":[-76.13012454969011,36.814162663192086]},"properties":{"OBJECTID":9953,"STREETS":"WHISPERING WILLOW CT,PINEBROOK DR"}},{"type":"Feature","geometry":{"type":"Point","coordinates":[-76.12225440768931,36.86401191700703]},"properties":{"OBJECTID":9954,"STREETS":"ST MARTIN DR,TEMPLE CT"}},{"type":"Feature","geometry":{"type":"Point","coordinates":[-76.1078365830248,36.90833721281024]},"properties":{"OBJECTID":9955,"STREETS":"WOODLAWN AVE,SHADY OAKS DR"}},{"type":"Feature","geometry":{"type":"Point","coordinates":[-76.11935161862968,36.8050677351172]},"properties":{"OBJECTID":9956,"STREETS":"WINDSOR OAKS BLVD,BANYAN DR"}},{"type":"Feature","geometry":{"type":"Point","coordinates":[-75.99330039974603,36.75484327012792]},"properties":{"OBJECTID":9957,"STREETS":"MIRASOL DR,MANZANITA DR"}},{"type":"Feature","geometry":{"type":"Point","coordinates":[-76.10930034825441,36.796590757583736]},"properties":{"OBJECTID":9958,"STREETS":"SNUG HARBOR DR,PIERSIDE CT"}},{"type":"Feature","geometry":{"type":"Point","coordinates":[-76.0798307874738,36.828178235315235]},"properties":{"OBJECTID":9959,"STREETS":"DILLON DR,SILINA DR"}},{"type":"Feature","geometry":{"type":"Point","coordinates":[-75.97823850817562,36.85527400950496]},"properties":{"OBJECTID":9960,"STREETS":"27TH ST,PACIFIC AVE"}},{"type":"Feature","geometry":{"type":"Point","coordinates":[-75.98854074268844,36.864005391141816]},"properties":{"OBJECTID":9961,"STREETS":"PINEWOOD RD,WILLOW DR"}},{"type":"Feature","geometry":{"type":"Point","coordinates":[-75.97674320399472,36.85402299023696]},"properties":{"OBJECTID":9962,"STREETS":"ATLANTIC AVE,25TH HALF ST"}},{"type":"Feature","geometry":{"type":"Point","coordinates":[-76.05071154539947,36.916662640594915]},"properties":{"OBJECTID":9963,"STREETS":"TRANQUIL WOODS TRL,CYPRESS SWAMP DR,CONSERVATION  CT"}},{"type":"Feature","geometry":{"type":"Point","coordinates":[-76.17678021944741,36.91013940383372]},"properties":{"OBJECTID":9964,"STREETS":"MURRAY RD,ABBOT RD"}},{"type":"Feature","geometry":{"type":"Point","coordinates":[-76.00356011519982,36.76361862726209]},"properties":{"OBJECTID":9965,"STREETS":"UPTON DR,WARNER HALL DR"}},{"type":"Feature","geometry":{"type":"Point","coordinates":[-76.14342983962133,36.769035425775805]},"properties":{"OBJECTID":9966,"STREETS":"STUMPY LAKE LN,ARCHDALE DR"}},{"type":"Feature","geometry":{"type":"Point","coordinates":[-76.13296665845066,36.76018399545859]},"properties":{"OBJECTID":9967,"STREETS":"FEATHER RIDGE DR,HILLCREST FARMS CIR"}},{"type":"Feature","geometry":{"type":"Point","coordinates":[-76.13439380745095,36.817905557264176]},"properties":{"OBJECTID":9968,"STREETS":"SAM SNEAD LN,SOUTHERN PINES DR"}},{"type":"Feature","geometry":{"type":"Point","coordinates":[-76.14709600263639,36.77215955059142]},"properties":{"OBJECTID":9969,"STREETS":"RAYNOR DR,BAGELWOOD CT"}},{"type":"Feature","geometry":{"type":"Point","coordinates":[-76.19147281450282,36.80967790658428]},"properties":{"OBJECTID":9970,"STREETS":"JOSEPHINE CRES,BARCO DR"}},{"type":"Feature","geometry":{"type":"Point","coordinates":[-76.10722703927361,36.90796966341506]},"properties":{"OBJECTID":9971,"STREETS":"THREE SHIPS LNDG,LEEWAY CT"}},{"type":"Feature","geometry":{"type":"Point","coordinates":[-75.95939714010024,36.78278514805306]},"properties":{"OBJECTID":9972,"STREETS":"BEACH COTTAGE CT,VIKING AVE"}},{"type":"Feature","geometry":{"type":"Point","coordinates":[-76.08907251228469,36.83611080325015]},"properties":{"OBJECTID":9973,"STREETS":"DAYTONA DR,S PLAZA TRL"}},{"type":"Feature","geometry":{"type":"Point","coordinates":[-76.17263553825354,36.90670753010839]},"properties":{"OBJECTID":9974,"STREETS":"SHORE DR,LAKE SMITH DR"}},{"type":"Feature","geometry":{"type":"Point","coordinates":[-76.15754546922764,36.83749814454162]},"properties":{"OBJECTID":9975,"STREETS":"264 ,264  "}},{"type":"Feature","geometry":{"type":"Point","coordinates":[-76.10860754684606,36.909144096539116]},"properties":{"OBJECTID":9976,"STREETS":"MADISON AVE,SHADY OAKS DR"}},{"type":"Feature","geometry":{"type":"Point","coordinates":[-76.04323151657373,36.85386110949069]},"properties":{"OBJECTID":9977,"STREETS":"WINDOM PL,SEDGEWICK DR"}},{"type":"Feature","geometry":{"type":"Point","coordinates":[-76.08144685128003,36.82966728000703]},"properties":{"OBJECTID":9978,"STREETS":"CORVETTE LN,DILLON DR"}},{"type":"Feature","geometry":{"type":"Point","coordinates":[-76.0820127701461,36.83018329841631]},"properties":{"OBJECTID":9979,"STREETS":"DILLON DR,DAUPHIN LN"}},{"type":"Feature","geometry":{"type":"Point","coordinates":[-76.12175586157126,36.750798663608734]},"properties":{"OBJECTID":9980,"STREETS":"DEEPWATER WAY,TRIBELL CT"}},{"type":"Feature","geometry":{"type":"Point","coordinates":[-76.12009521886905,36.74939813326533]},"properties":{"OBJECTID":9981,"STREETS":"MORGANS POINT DR,STERLING COVE CT"}},{"type":"Feature","geometry":{"type":"Point","coordinates":[-76.10030502144448,36.84567465372006]},"properties":{"OBJECTID":9982,"STREETS":"CATALINA AVE,EDINBURGH DR"}},{"type":"Feature","geometry":{"type":"Point","coordinates":[-75.9820378024141,36.85865402856799]},"properties":{"OBJECTID":9983,"STREETS":"LASKIN RD,HOLLY RD,BALTIC AVE"}},{"type":"Feature","geometry":{"type":"Point","coordinates":[-76.10620882944178,36.79416655504839]},"properties":{"OBJECTID":9984,"STREETS":"TUGBOAT RD,LYNNHAVEN PKWY,FAIRFAX DR"}},{"type":"Feature","geometry":{"type":"Point","coordinates":[-76.11519172177154,36.8017793571366]},"properties":{"OBJECTID":9985,"STREETS":"WILMINGTON RD,BANYAN DR"}},{"type":"Feature","geometry":{"type":"Point","coordinates":[-76.10835988222054,36.85250931363373]},"properties":{"OBJECTID":9986,"STREETS":"THALIA DR,PINETREE DR"}},{"type":"Feature","geometry":{"type":"Point","coordinates":[-76.08257408245136,36.8307046578266]},"properties":{"OBJECTID":9987,"STREETS":"DILLON DR,BARCELONA LN"}},{"type":"Feature","geometry":{"type":"Point","coordinates":[-76.10874665456106,36.79633734043676]},"properties":{"OBJECTID":9988,"STREETS":"SNUG HARBOR DR,DOCKSIDE CT"}},{"type":"Feature","geometry":{"type":"Point","coordinates":[-76.10215949453388,36.790772365786665]},"properties":{"OBJECTID":9989,"STREETS":"EAGLE AVE,MASSANUTTEN CT"}},{"type":"Feature","geometry":{"type":"Point","coordinates":[-76.09983552145282,36.7888110322601]},"properties":{"OBJECTID":9990,"STREETS":"KELSEY BAY LN,NORFELD CT"}},{"type":"Feature","geometry":{"type":"Point","coordinates":[-76.13971023493174,36.87902628566376]},"properties":{"OBJECTID":9991,"STREETS":"EWELL RD,PICKWICK RD"}},{"type":"Feature","geometry":{"type":"Point","coordinates":[-76.08313679702681,36.83121771839758]},"properties":{"OBJECTID":9992,"STREETS":"DILLON DR,GARRISON PL"}},{"type":"Feature","geometry":{"type":"Point","coordinates":[-76.14224861431153,36.82471289733702]},"properties":{"OBJECTID":9993,"STREETS":"ENGLEHARD DR,PARTHENON DR"}},{"type":"Feature","geometry":{"type":"Point","coordinates":[-76.0794092521284,36.828083602529546]},"properties":{"OBJECTID":9994,"STREETS":"DODGE DR,SILINA DR"}},{"type":"Feature","geometry":{"type":"Point","coordinates":[-76.07875338764791,36.7710184081581]},"properties":{"OBJECTID":9995,"STREETS":"CHICORY ST,TWINFLOWER LN"}},{"type":"Feature","geometry":{"type":"Point","coordinates":[-75.92568997729111,36.697698579020155]},"properties":{"OBJECTID":9996,"STREETS":"SANDFIDDLER RD,WHITE CAP LN"}},{"type":"Feature","geometry":{"type":"Point","coordinates":[-76.15255735891522,36.77696686554193]},"properties":{"OBJECTID":9997,"STREETS":"CHESTERBROOK DR,LATHAM CT"}},{"type":"Feature","geometry":{"type":"Point","coordinates":[-76.08369745535856,36.83173430659118]},"properties":{"OBJECTID":9998,"STREETS":"LINEBERRY RD,DILLON DR"}},{"type":"Feature","geometry":{"type":"Point","coordinates":[-76.16328688787272,36.78604960926956]},"properties":{"OBJECTID":9999,"STREETS":"MIDDLEBROOK LN,MIDDLEBROOK CT"}},{"type":"Feature","geometry":{"type":"Point","coordinates":[-76.13351328599596,36.81737186214902]},"properties":{"OBJECTID":10000,"STREETS":"MOSSYCUP DR,SOUTHERN PINES DR"}},{"type":"Feature","geometry":{"type":"Point","coordinates":[-76.15519773121574,36.84210229795932]},"properties":{"OBJECTID":1001,"STREETS":"PENNSYLVANIA AVE,CLEVELAND ST"}},{"type":"Feature","geometry":{"type":"Point","coordinates":[-76.13147022329079,36.75959154580657]},"properties":{"OBJECTID":1,"STREETS":"FEATHER RIDGE DR,EAGLES LAKE RD"}},{"type":"Feature","geometry":{"type":"Point","coordinates":[-76.00664337580004,36.608613914400664]},"properties":{"OBJECTID":2001,"STREETS":"CAMPBELLS LANDING RD,STARR DR"}},{"type":"Feature","geometry":{"type":"Point","coordinates":[-75.98187358409196,36.74589546179898]},"properties":{"OBJECTID":2,"STREETS":"LOTUS CREEK DR,BLOSSOM CIR"}},{"type":"Feature","geometry":{"type":"Point","coordinates":[-76.1066840633799,36.90814442125245]},"properties":{"OBJECTID":3,"STREETS":"THREE SHIPS LNDG,LATEENER CT"}},{"type":"Feature","geometry":{"type":"Point","coordinates":[-76.14572615986302,36.83410351781024]},"properties":{"OBJECTID":1002,"STREETS":"CITRINE AVE,GNEISS AVE"}},{"type":"Feature","geometry":{"type":"Point","coordinates":[-76.12882571873996,36.87035070316613]},"properties":{"OBJECTID":4,"STREETS":"CHARITY DR,TRINITY CT"}},{"type":"Feature","geometry":{"type":"Point","coordinates":[-75.98059265117548,36.86397006808991]},"properties":{"OBJECTID":1003,"STREETS":"36TH ST,PACIFIC AVE"}},{"type":"Feature","geometry":{"type":"Point","coordinates":[-76.2045482821467,36.821357855419805]},"properties":{"OBJECTID":5,"STREETS":"SUNNYSIDE DR,MORGAN TRL"}},{"type":"Feature","geometry":{"type":"Point","coordinates":[-76.01730891326827,36.83851003229725]},"properties":{"OBJECTID":1004,"STREETS":"WEST LN,SOUTHERN BLVD"}},{"type":"Feature","geometry":{"type":"Point","coordinates":[-76.10621321771194,36.794738659513975]},"properties":{"OBJECTID":6,"STREETS":"MAINSAIL CT,TUGBOAT RD,HAWSER CT"}},{"type":"Feature","geometry":{"type":"Point","coordinates":[-76.13092933328518,36.82160628977572]},"properties":{"OBJECTID":1005,"STREETS":"GLENEAGLE DR,BOB JONES DR"}},{"type":"Feature","geometry":{"type":"Point","coordinates":[-76.00759989382973,36.88088284236012]},"properties":{"OBJECTID":7,"STREETS":"N BAY SHORE DR,BRANDON RD"}},{"type":"Feature","geometry":{"type":"Point","coordinates":[-76.09424970089644,36.84709851392078]},"properties":{"OBJECTID":1006,"STREETS":"EDINBURGH DR,COCONUT LN"}},{"type":"Feature","geometry":{"type":"Point","coordinates":[-76.07858999308087,36.82788831314861]},"properties":{"OBJECTID":8,"STREETS":"HOSPITAL DR,SILINA DR"}},{"type":"Feature","geometry":{"type":"Point","coordinates":[-76.08969188719836,36.730208094416675]},"properties":{"OBJECTID":1007,"STREETS":"INDIAN RIVER RD,BRIDLEPATH LN"}},{"type":"Feature","geometry":{"type":"Point","coordinates":[-76.00043933825837,36.87482617935565]},"properties":{"OBJECTID":9,"STREETS":"ROTHESAY RD,BAY COLONY DR,S BAY SHORE DR"}},{"type":"Feature","geometry":{"type":"Point","coordinates":[-76.03449759501991,36.85307912036386]},"properties":{"OBJECTID":1008,"STREETS":"REGENCY DR,QUEEN CATHERINE CT"}},{"type":"Feature","geometry":{"type":"Point","coordinates":[-76.14057973854973,36.82380891649224]},"properties":{"OBJECTID":10,"STREETS":"KEMPSVILLE GREENS CT,KEMPSVILLE GREENS PKWY"}},{"type":"Feature","geometry":{"type":"Point","coordinates":[-75.98886843373106,36.871003983712434]},"properties":{"OBJECTID":1009,"STREETS":"PINEWOOD RD,CAVALIER DR"}},{"type":"Feature","geometry":{"type":"Point","coordinates":[-76.13641771268439,36.876783215546126]},"properties":{"OBJECTID":11,"STREETS":"MILES STANDISH RD,MILES STANDISH CT"}},{"type":"Feature","geometry":{"type":"Point","coordinates":[-76.18176950834948,36.8081087999343]},"properties":{"OBJECTID":1010,"STREETS":"FIRESIDE LN,WESTWARD DR"}},{"type":"Feature","geometry":{"type":"Point","coordinates":[-75.97849237656649,36.85623002986025]},"properties":{"OBJECTID":12,"STREETS":"28TH ST,PACIFIC AVE"}},{"type":"Feature","geometry":{"type":"Point","coordinates":[-76.07936436960186,36.83452972671691]},"properties":{"OBJECTID":1011,"STREETS":"HORNBEAM CT,HORNBEAM DR"}},{"type":"Feature","geometry":{"type":"Point","coordinates":[-76.14170982636368,36.82477482998125]},"properties":{"OBJECTID":13,"STREETS":"PASCAL CT,ENGLEHARD DR"}},{"type":"Feature","geometry":{"type":"Point","coordinates":[-76.00354393204998,36.88346736934475]},"properties":{"OBJECTID":1012,"STREETS":"E BAY SHORE DR,BRUTON LN"}},{"type":"Feature","geometry":{"type":"Point","coordinates":[-75.97700168343793,36.854983811960075]},"properties":{"OBJECTID":14,"STREETS":"ATLANTIC AVE,26TH HALF ST"}},{"type":"Feature","geometry":{"type":"Point","coordinates":[-76.04201338847206,36.85948182627972]},"properties":{"OBJECTID":1013,"STREETS":"DUKE OF SUFFOLK DR,LORD SEATON CIR"}},{"type":"Feature","geometry":{"type":"Point","coordinates":[-76.02912887570812,36.84258528992084]},"properties":{"OBJECTID":15,"STREETS":"FIGHTER DR,JET CIR"}},{"type":"Feature","geometry":{"type":"Point","coordinates":[-75.96726314715579,36.79613422270432]},"properties":{"OBJECTID":1014,"STREETS":"BATT ST,REGULUS AVE"}},{"type":"Feature","geometry":{"type":"Point","coordinates":[-76.00916194373455,36.76910438140881]},"properties":{"OBJECTID":16,"STREETS":"KENWOOD DR,TODDSBURY LN"}},{"type":"Feature","geometry":{"type":"Point","coordinates":[-76.1753233182449,36.80270448112855]},"properties":{"OBJECTID":1015,"STREETS":"KEMPSRIVER DR,FORDHAM DR"}},{"type":"Feature","geometry":{"type":"Point","coordinates":[-76.17568427569911,36.8534918285598]},"properties":{"OBJECTID":17,"STREETS":"VIRGINIA BEACH BLVD,FAIR MEADOWS RD"}},{"type":"Feature","geometry":{"type":"Point","coordinates":[-76.12689460318715,36.81826077974637]},"properties":{"OBJECTID":1016,"STREETS":"MINNARD CT,S INDEPENDENCE BLVD"}},{"type":"Feature","geometry":{"type":"Point","coordinates":[-76.12879901002992,36.75738948959015]},"properties":{"OBJECTID":18,"STREETS":"SHREW TRL,EAGLES LAKE RD"}},{"type":"Feature","geometry":{"type":"Point","coordinates":[-76.14779307733056,36.779445495096425]},"properties":{"OBJECTID":1017,"STREETS":"PLEASANT VALLEY RD,NORTHVALE DR"}},{"type":"Feature","geometry":{"type":"Point","coordinates":[-76.13490444758769,36.762557194040234]},"properties":{"OBJECTID":19,"STREETS":"FAITH CT,LAMB  CT"}},{"type":"Feature","geometry":{"type":"Point","coordinates":[-76.11645603855018,36.80945295346125]},"properties":{"OBJECTID":1018,"STREETS":"TOWNE SQUARE DR,RUNEY DR"}},{"type":"Feature","geometry":{"type":"Point","coordinates":[-76.02620156982775,36.840136800973845]},"properties":{"OBJECTID":20,"STREETS":"LAVERGNE LN,EGO DR"}},{"type":"Feature","geometry":{"type":"Point","coordinates":[-76.11645602417715,36.80945297431862]},"properties":{"OBJECTID":1019,"STREETS":"TOWNE SQUARE DR,RUNEY DR"}},{"type":"Feature","geometry":{"type":"Point","coordinates":[-76.136341483446,36.76379877362994]},"properties":{"OBJECTID":21,"STREETS":"ELBOW RD,KUMBAYA CT"}},{"type":"Feature","geometry":{"type":"Point","coordinates":[-76.15064742473851,36.78187907489152]},"properties":{"OBJECTID":1020,"STREETS":"SHARBOT DR,GRAYLYN RD"}},{"type":"Feature","geometry":{"type":"Point","coordinates":[-75.98935131143394,36.80892758989714]},"properties":{"OBJECTID":22,"STREETS":"TREEFERN DR,KELA CRES"}},{"type":"Feature","geometry":{"type":"Point","coordinates":[-76.15511932625775,36.898621424132486]},"properties":{"OBJECTID":1021,"STREETS":"JACK FROST RD,REGINA LN"}},{"type":"Feature","geometry":{"type":"Point","coordinates":[-76.19396450035248,36.76735596475062]},"properties":{"OBJECTID":2002,"STREETS":"GLEN VIEW DR,ARCHIVES CT"}},{"type":"Feature","geometry":{"type":"Point","coordinates":[-76.166001131334,36.78889424398937]},"properties":{"OBJECTID":23,"STREETS":"HAWKS BILL DR,EAGLE RUN RD"}},{"type":"Feature","geometry":{"type":"Point","coordinates":[-76.11699734806905,36.809923928482405]},"properties":{"OBJECTID":1022,"STREETS":"BRITTLEBANK DR,TRADD DR"}},{"type":"Feature","geometry":{"type":"Point","coordinates":[-76.05156281501385,36.91818158365243]},"properties":{"OBJECTID":24,"STREETS":"SHORE DR,CYPRESS SWAMP DR"}},{"type":"Feature","geometry":{"type":"Point","coordinates":[-76.0043841020807,36.771086325091936]},"properties":{"OBJECTID":1023,"STREETS":"BEETHOVEN DR,MOZART DR"}},{"type":"Feature","geometry":{"type":"Point","coordinates":[-76.02788690182723,36.73979202567742]},"properties":{"OBJECTID":2003,"STREETS":"LOCKSLEY WAY,NOTTOWAY LN"}},{"type":"Feature","geometry":{"type":"Point","coordinates":[-76.09904384787103,36.788769334276516]},"properties":{"OBJECTID":25,"STREETS":"MACKENZIE BAY LN,KELSEY BAY LN"}},{"type":"Feature","geometry":{"type":"Point","coordinates":[-76.148142940591,36.892738267199725]},"properties":{"OBJECTID":1024,"STREETS":"DAILEY DR,FARRINGTON DR"}},{"type":"Feature","geometry":{"type":"Point","coordinates":[-76.19441852057516,36.767743814323595]},"properties":{"OBJECTID":2004,"STREETS":"LYNNHAVEN PKWY,GLEN VIEW DR"}},{"type":"Feature","geometry":{"type":"Point","coordinates":[-76.05305552126694,36.862908622455855]},"properties":{"OBJECTID":26,"STREETS":"GENERAL BEAUREGARD DR,GENERAL LONGSTREET DR"}},{"type":"Feature","geometry":{"type":"Point","coordinates":[-76.15711551217646,36.843843314381935]},"properties":{"OBJECTID":1025,"STREETS":"ADMIRAL WRIGHT RD,DENN LN"}},{"type":"Feature","geometry":{"type":"Point","coordinates":[-76.08576933152649,36.83406302147396]},"properties":{"OBJECTID":27,"STREETS":"DILLON DR,STANCIL ST"}},{"type":"Feature","geometry":{"type":"Point","coordinates":[-76.1345717385559,36.8866227119142]},"properties":{"OBJECTID":2005,"STREETS":"FIVE FORKS RD,KEELER LN"}},{"type":"Feature","geometry":{"type":"Point","coordinates":[-76.14731910283045,36.8355671514792]},"properties":{"OBJECTID":1026,"STREETS":"NARRAGANSETT DR,NARRAGANSETT CT"}},{"type":"Feature","geometry":{"type":"Point","coordinates":[-76.15640910757975,36.7808084353273]},"properties":{"OBJECTID":28,"STREETS":"EDDYSTONE DR,THAMESFORD DR"}},{"type":"Feature","geometry":{"type":"Point","coordinates":[-76.20266267973776,36.77472224052109]},"properties":{"OBJECTID":2006,"STREETS":"GRANTHAM CT,LUDINGTON DR"}},{"type":"Feature","geometry":{"type":"Point","coordinates":[-76.07367667290572,36.77327910291115]},"properties":{"OBJECTID":1027,"STREETS":"WINTERBERRY LN,BLOOMFIELD DR"}},{"type":"Feature","geometry":{"type":"Point","coordinates":[-76.18626176659137,36.918966071338296]},"properties":{"OBJECTID":29,"STREETS":"AMPHIBIOUS DR,SUMTER RD"}},{"type":"Feature","geometry":{"type":"Point","coordinates":[-75.98546909730484,36.8735709859333]},"properties":{"OBJECTID":2007,"STREETS":"46TH ST,HOLLY RD"}},{"type":"Feature","geometry":{"type":"Point","coordinates":[-76.13014986960472,36.82107134907737]},"properties":{"OBJECTID":1028,"STREETS":"MOSSYCUP DR,BOB JONES DR"}},{"type":"Feature","geometry":{"type":"Point","coordinates":[-76.09544869398424,36.84228476880139]},"properties":{"OBJECTID":30,"STREETS":"MALIBU DR,MALIBU PALMS DR"}},{"type":"Feature","geometry":{"type":"Point","coordinates":[-76.12665193319462,36.82346089626807]},"properties":{"OBJECTID":2008,"STREETS":"STUDIO DR,S INDEPENDENCE BLVD,HOLLAND RD"}},{"type":"Feature","geometry":{"type":"Point","coordinates":[-76.0933206048391,36.78992205095985]},"properties":{"OBJECTID":1029,"STREETS":"BUCKNER BLVD,CROFTS PRIDE DR"}},{"type":"Feature","geometry":{"type":"Point","coordinates":[-76.1065241677509,36.908166607142746]},"properties":{"OBJECTID":31,"STREETS":"THREE SHIPS LNDG,KNORR CT"}},{"type":"Feature","geometry":{"type":"Point","coordinates":[-76.06170003170391,36.76849574766993]},"properties":{"OBJECTID":2009,"STREETS":"MAPLE SHADE DR,WILD CHERRY CT,MAPLE SHADE CT"}},{"type":"Feature","geometry":{"type":"Point","coordinates":[-76.20831592694107,36.83063464458678]},"properties":{"OBJECTID":1030,"STREETS":"JONATHANS COVE DR,JONATHANS COVE CT"}},{"type":"Feature","geometry":{"type":"Point","coordinates":[-76.05727684492422,36.86652879600706]},"properties":{"OBJECTID":32,"STREETS":"FIVE POINT RD,CONSOLVO DR"}},{"type":"Feature","geometry":{"type":"Point","coordinates":[-76.17892022923637,36.86762897601775]},"properties":{"OBJECTID":2010,"STREETS":"BACCALAUREATE DR,FRATERNITY CT,DIPLOMA CT"}},{"type":"Feature","geometry":{"type":"Point","coordinates":[-76.04540536050955,36.86244688429547]},"properties":{"OBJECTID":1031,"STREETS":"MARSHALL CIR,ST MARSHALL DR"}},{"type":"Feature","geometry":{"type":"Point","coordinates":[-75.9929590722774,36.75547907180527]},"properties":{"OBJECTID":33,"STREETS":"MIRASOL DR,BELLAFINA CT"}},{"type":"Feature","geometry":{"type":"Point","coordinates":[-76.07553017132302,36.78022559127015]},"properties":{"OBJECTID":2011,"STREETS":"GLASTONBURY DR,LAMERTON CT"}},{"type":"Feature","geometry":{"type":"Point","coordinates":[-76.12480637408778,36.816576211372606]},"properties":{"OBJECTID":1032,"STREETS":"KEATS CIR,CHASE ARBOR CMN"}},{"type":"Feature","geometry":{"type":"Point","coordinates":[-76.05908581025962,36.86807215628713]},"properties":{"OBJECTID":34,"STREETS":"LITTLE LAKE DR,LITTLE LAKE CT"}},{"type":"Feature","geometry":{"type":"Point","coordinates":[-76.08034834733316,36.84083497862555]},"properties":{"OBJECTID":2012,"STREETS":"OLD PINE CT,FRANCIS LAND LN"}},{"type":"Feature","geometry":{"type":"Point","coordinates":[-76.0952206404797,36.84806617921996]},"properties":{"OBJECTID":1033,"STREETS":"VIRGINIUS DR,BAMBOO LN"}},{"type":"Feature","geometry":{"type":"Point","coordinates":[-76.14092168855083,36.82424878993076]},"properties":{"OBJECTID":35,"STREETS":"KEMPSVILLE GREENS PKWY,FURMAN CT"}},{"type":"Feature","geometry":{"type":"Point","coordinates":[-76.1792047697043,36.811411978427806]},"properties":{"OBJECTID":2013,"STREETS":"WHITEHURST LANDING RD,HOMEWARD DR"}},{"type":"Feature","geometry":{"type":"Point","coordinates":[-76.12885320718763,36.87649931980082]},"properties":{"OBJECTID":1034,"STREETS":"KINGS WAY DR,OLD ENGLISH CIR"}},{"type":"Feature","geometry":{"type":"Point","coordinates":[-76.11780685859912,36.804714801252764]},"properties":{"OBJECTID":36,"STREETS":"JOSHUA DR,JOSHUA CT"}},{"type":"Feature","geometry":{"type":"Point","coordinates":[-76.13801594942382,36.771266793557764]},"properties":{"OBJECTID":1035,"STREETS":"CREEKVIEW RIDGE CT,CREEKVIEW DR"}},{"type":"Feature","geometry":{"type":"Point","coordinates":[-76.16822847982647,36.80214717439424]},"properties":{"OBJECTID":2014,"STREETS":"ANDOVER RD,BURLINGTON RD"}},{"type":"Feature","geometry":{"type":"Point","coordinates":[-76.11134582203783,36.79925085186739]},"properties":{"OBJECTID":37,"STREETS":"NESBITT DR,NESBITT CT"}},{"type":"Feature","geometry":{"type":"Point","coordinates":[-75.98490335450857,36.86778951818153]},"properties":{"OBJECTID":1036,"STREETS":"OCEAN HILLS RD,HOLLY RD"}},{"type":"Feature","geometry":{"type":"Point","coordinates":[-76.09139383982723,36.85018713539722]},"properties":{"OBJECTID":2015,"STREETS":"PRINCE OF WALES DR,LEMON WAY DR"}},{"type":"Feature","geometry":{"type":"Point","coordinates":[-75.98862257561757,36.808407048763286]},"properties":{"OBJECTID":38,"STREETS":"KELA CRES,BIRDNECK LAKE DR"}},{"type":"Feature","geometry":{"type":"Point","coordinates":[-76.1440048449465,36.77633377043338]},"properties":{"OBJECTID":1037,"STREETS":"BELSPRING DR,PLEASANT VALLEY RD,NORTHVALE DR"}},{"type":"Feature","geometry":{"type":"Point","coordinates":[-75.98799604292772,36.64942499085347]},"properties":{"OBJECTID":2016,"STREETS":"DRUM POINT RD,CATFISH RD"}},{"type":"Feature","geometry":{"type":"Point","coordinates":[-76.05409900250434,36.75080951343683]},"properties":{"OBJECTID":39,"STREETS":"NORTH LANDING RD,LIBERTY WAY"}},{"type":"Feature","geometry":{"type":"Point","coordinates":[-76.04759229289907,36.86431874559845]},"properties":{"OBJECTID":1038,"STREETS":"SOUTHERN POINTS CIR,INLYNNVIEW RD"}},{"type":"Feature","geometry":{"type":"Point","coordinates":[-75.98633027084523,36.87434860103047]},"properties":{"OBJECTID":2017,"STREETS":"BAY COLONY DR,HOLLY RD"}},{"type":"Feature","geometry":{"type":"Point","coordinates":[-76.05861331528479,36.75463651283862]},"properties":{"OBJECTID":40,"STREETS":"PRINCESS ANNE RD,JAMES MADISON BLVD"}},{"type":"Feature","geometry":{"type":"Point","coordinates":[-76.17588655833477,36.80329163817867]},"properties":{"OBJECTID":1039,"STREETS":"GLAMIS CT,MASADA DR"}},{"type":"Feature","geometry":{"type":"Point","coordinates":[-75.98324773788039,36.815155407572526]},"properties":{"OBJECTID":2018,"STREETS":"C ST,7TH ST"}},{"type":"Feature","geometry":{"type":"Point","coordinates":[-76.14886834275936,36.88749144198298]},"properties":{"OBJECTID":41,"STREETS":"CLAUDIA DR,MAHARIS RD"}},{"type":"Feature","geometry":{"type":"Point","coordinates":[-76.07987125208577,36.83511088279991]},"properties":{"OBJECTID":1040,"STREETS":"BIRCH BARK DR,HORNBEAM DR"}},{"type":"Feature","geometry":{"type":"Point","coordinates":[-76.05355098975686,36.761627335642]},"properties":{"OBJECTID":2019,"STREETS":"BUCKLEY ARCH,RINER CT"}},{"type":"Feature","geometry":{"type":"Point","coordinates":[-76.08832171743822,36.83633356713397]},"properties":{"OBJECTID":42,"STREETS":"DAYTONA DR,SEBASTIAN CT"}},{"type":"Feature","geometry":{"type":"Point","coordinates":[-76.14285368624924,36.831865009031844]},"properties":{"OBJECTID":1041,"STREETS":"ALMANDINE AVE,VERDE ST"}},{"type":"Feature","geometry":{"type":"Point","coordinates":[-76.19318074452158,36.76677917260784]},"properties":{"OBJECTID":2020,"STREETS":"GLEN VIEW DR,WYNDHAM CT"}},{"type":"Feature","geometry":{"type":"Point","coordinates":[-76.13742060264735,36.76487934789822]},"properties":{"OBJECTID":43,"STREETS":"MIDDLEWOOD DR,LARCHWOOD DR"}},{"type":"Feature","geometry":{"type":"Point","coordinates":[-76.07399678486227,36.830144326497006]},"properties":{"OBJECTID":1042,"STREETS":"REFLECTIONS DR,COURTVIEW DR"}},{"type":"Feature","geometry":{"type":"Point","coordinates":[-76.05907642645816,36.766315708584926]},"properties":{"OBJECTID":2021,"STREETS":"BUYRN FARM RD,HOLLAND RD,CHRISTOPHER FARMS DR"}},{"type":"Feature","geometry":{"type":"Point","coordinates":[-76.1344828664282,36.8753836085114]},"properties":{"OBJECTID":44,"STREETS":"WISHART RD,INDEPENDENCE BLVD,HAYGOOD RD"}},{"type":"Feature","geometry":{"type":"Point","coordinates":[-76.09704554731812,36.79315405789783]},"properties":{"OBJECTID":1043,"STREETS":"PRIMROSE LN,PONDEROSA ARCH,POINSETTA ARCH"}},{"type":"Feature","geometry":{"type":"Point","coordinates":[-76.14577758751471,36.839679228803]},"properties":{"OBJECTID":2022,"STREETS":"MANDAN RD,OJIBWA LN"}},{"type":"Feature","geometry":{"type":"Point","coordinates":[-76.14628799229284,36.77240231966135]},"properties":{"OBJECTID":45,"STREETS":"RAYNOR DR,SWALLOWBURG CT"}},{"type":"Feature","geometry":{"type":"Point","coordinates":[-76.17188090760082,36.85641596528379]},"properties":{"OBJECTID":1044,"STREETS":"SUMMIT ARCH,FLAGSTAFF CT"}},{"type":"Feature","geometry":{"type":"Point","coordinates":[-76.16235861197724,36.85371407171474]},"properties":{"OBJECTID":2023,"STREETS":"GARNETT POINTE CT,GRAND LAKE CRES,N GARNETT POINT RD"}},{"type":"Feature","geometry":{"type":"Point","coordinates":[-75.98220006240891,36.85962607787095]},"properties":{"OBJECTID":46,"STREETS":"32ND ST,HOLLY RD"}},{"type":"Feature","geometry":{"type":"Point","coordinates":[-76.11804896355133,36.81093769342283]},"properties":{"OBJECTID":1045,"STREETS":"THISTLE CIR,BIRCH RD"}},{"type":"Feature","geometry":{"type":"Point","coordinates":[-76.0881872638947,36.84753237674579]},"properties":{"OBJECTID":2024,"STREETS":"EDINBURGH DR,KINGS GROVE DR,BECTON PL"}},{"type":"Feature","geometry":{"type":"Point","coordinates":[-76.07584469935178,36.82583817132042]},"properties":{"OBJECTID":47,"STREETS":"PHEASANT RUN,LYME REGIS QUAY"}},{"type":"Feature","geometry":{"type":"Point","coordinates":[-75.93163643550146,36.709428473414974]},"properties":{"OBJECTID":1046,"STREETS":"ANGELFISH LN,SANDPIPER RD"}},{"type":"Feature","geometry":{"type":"Point","coordinates":[-76.09830230477367,36.79958009444246]},"properties":{"OBJECTID":2025,"STREETS":"SHAWN CT,SHAWN DR"}},{"type":"Feature","geometry":{"type":"Point","coordinates":[-76.08416397384183,36.77635584637425]},"properties":{"OBJECTID":48,"STREETS":"ALLABEN DR,ALLABEN CT"}},{"type":"Feature","geometry":{"type":"Point","coordinates":[-76.13353846846833,36.824040963611694]},"properties":{"OBJECTID":1047,"STREETS":"EDWIN DR,HOYLAKE DR"}},{"type":"Feature","geometry":{"type":"Point","coordinates":[-76.14229897206974,36.780300097089686]},"properties":{"OBJECTID":2026,"STREETS":"BELSPRING DR,BELSPRING CT"}},{"type":"Feature","geometry":{"type":"Point","coordinates":[-76.10289591723412,36.79221152243975]},"properties":{"OBJECTID":49,"STREETS":"SKI LODGE RD,VAIL CRES"}},{"type":"Feature","geometry":{"type":"Point","coordinates":[-76.03452687740322,36.853335257242364]},"properties":{"OBJECTID":1048,"STREETS":"KING EDWARD CT,REGENCY DR"}},{"type":"Feature","geometry":{"type":"Point","coordinates":[-76.16189607931891,36.85334244819727]},"properties":{"OBJECTID":2027,"STREETS":"COTTAGE CT,COTTAGE WAY"}},{"type":"Feature","geometry":{"type":"Point","coordinates":[-76.15056276391287,36.832519858827474]},"properties":{"OBJECTID":50,"STREETS":"GREAT LAKES DR,RAYCRAFT DR,BONNEY RD"}},{"type":"Feature","geometry":{"type":"Point","coordinates":[-76.19805866298968,36.82208922275447]},"properties":{"OBJECTID":1049,"STREETS":"WOODSTOCK RD,WOODHAVEN CT"}},{"type":"Feature","geometry":{"type":"Point","coordinates":[-76.15291414459324,36.7892757897544]},"properties":{"OBJECTID":2028,"STREETS":"BRIDLE CREEK BLVD,SANGAREE CIR"}},{"type":"Feature","geometry":{"type":"Point","coordinates":[-75.98118739787733,36.858802454103795]},"properties":{"OBJECTID":51,"STREETS":"LASKIN RD,ARCTIC AVE"}},{"type":"Feature","geometry":{"type":"Point","coordinates":[-76.18599310115115,36.81190022227586]},"properties":{"OBJECTID":1050,"STREETS":"N SUNLAND DR,OLD HOMESTEAD LN"}},{"type":"Feature","geometry":{"type":"Point","coordinates":[-76.20355655015787,36.77560424411167]},"properties":{"OBJECTID":2029,"STREETS":"ECHINGHAM DR,BAYNEBRIDGE DR"}},{"type":"Feature","geometry":{"type":"Point","coordinates":[-76.10894388776651,36.91036362765796]},"properties":{"OBJECTID":52,"STREETS":"RALEIGH AVE,W STRATFORD RD"}},{"type":"Feature","geometry":{"type":"Point","coordinates":[-76.184351633887,36.810517375769166]},"properties":{"OBJECTID":1051,"STREETS":"HOMEWARD DR,W GOODVIEW DR"}},{"type":"Feature","geometry":{"type":"Point","coordinates":[-76.1821866841708,36.81401420350645]},"properties":{"OBJECTID":2030,"STREETS":"JAMESTOWN LANDING RD,NEW COLONY DR"}},{"type":"Feature","geometry":{"type":"Point","coordinates":[-76.11966326126974,36.749915145311014]},"properties":{"OBJECTID":53,"STREETS":"MORGANS POINT DR,CANTER CT"}},{"type":"Feature","geometry":{"type":"Point","coordinates":[-76.14004758735521,36.82957354066201]},"properties":{"OBJECTID":1052,"STREETS":"BAXTER RD,CENTRE POINTE DR"}},{"type":"Feature","geometry":{"type":"Point","coordinates":[-76.07272620772441,36.77794209843652]},"properties":{"OBJECTID":2031,"STREETS":"BEAGLE WAY,MAY CT"}},{"type":"Feature","geometry":{"type":"Point","coordinates":[-75.99706786397904,36.75911081825125]},"properties":{"OBJECTID":54,"STREETS":"TOWNFIELD LN,KERR DR"}},{"type":"Feature","geometry":{"type":"Point","coordinates":[-76.16707899469058,36.7959369030928]},"properties":{"OBJECTID":1053,"STREETS":"WESTERLY DR,STONECYPHER CT"}},{"type":"Feature","geometry":{"type":"Point","coordinates":[-76.01675734768382,36.84363982808796]},"properties":{"OBJECTID":2032,"STREETS":"GREEN OAKS DR,TWIN OAKS LN"}},{"type":"Feature","geometry":{"type":"Point","coordinates":[-75.99706667191464,36.759112736233234]},"properties":{"OBJECTID":55,"STREETS":"TOWNFIELD LN,KERR DR"}},{"type":"Feature","geometry":{"type":"Point","coordinates":[-76.18981977154792,36.81514940684396]},"properties":{"OBJECTID":1054,"STREETS":"AVALON AVE,WARNING ST"}},{"type":"Feature","geometry":{"type":"Point","coordinates":[-76.1097245587827,36.86578240605381]},"properties":{"OBJECTID":2033,"STREETS":"COVERDALE LN,COVERDALE CIR"}},{"type":"Feature","geometry":{"type":"Point","coordinates":[-76.17733193864377,36.79869461696634]},"properties":{"OBJECTID":56,"STREETS":"CENTER LN,INDIAN RIVER RD,LILA LN"}},{"type":"Feature","geometry":{"type":"Point","coordinates":[-76.15406349049023,36.897905711228645]},"properties":{"OBJECTID":1055,"STREETS":"KEELING RD,REGINA LN"}},{"type":"Feature","geometry":{"type":"Point","coordinates":[-76.0554704119396,36.763353238309314]},"properties":{"OBJECTID":2034,"STREETS":"CREEKSTONE CT,LAPSTONE CT"}},{"type":"Feature","geometry":{"type":"Point","coordinates":[-76.12151776669847,36.86451383199203]},"properties":{"OBJECTID":57,"STREETS":"ST MARTIN DR,ST MARTIN CT"}},{"type":"Feature","geometry":{"type":"Point","coordinates":[-76.20243271282166,36.82580565872226]},"properties":{"OBJECTID":1056,"STREETS":"OLD POINT FERRY LN,COPPER KETTLE DR"}},{"type":"Feature","geometry":{"type":"Point","coordinates":[-76.03476601611837,36.858915056584145]},"properties":{"OBJECTID":2035,"STREETS":"WILDWOOD DR,CALYPSO LN"}},{"type":"Feature","geometry":{"type":"Point","coordinates":[-76.13033400178008,36.75898319281391]},"properties":{"OBJECTID":58,"STREETS":"CANEBRAKE CT,EAGLES LAKE RD"}},{"type":"Feature","geometry":{"type":"Point","coordinates":[-76.11637531324382,36.809576489541]},"properties":{"OBJECTID":1057,"STREETS":"TOWNE SQUARE DR,TRADD DR"}},{"type":"Feature","geometry":{"type":"Point","coordinates":[-76.17252157977325,36.86235313194344]},"properties":{"OBJECTID":2036,"STREETS":"NEWTOWN RD,DANIEL SMITH RD"}},{"type":"Feature","geometry":{"type":"Point","coordinates":[-76.04232231819994,36.854064639024116]},"properties":{"OBJECTID":59,"STREETS":"BILTMORE DR,CAMBRIDGE DR"}},{"type":"Feature","geometry":{"type":"Point","coordinates":[-76.11382274766903,36.80741631129594]},"properties":{"OBJECTID":1058,"STREETS":"CAINHOY LN,WILLBERRY DR"}},{"type":"Feature","geometry":{"type":"Point","coordinates":[-76.13798101843399,36.88967242314864]},"properties":{"OBJECTID":2037,"STREETS":"CULLEN RD,INDEPENDENCE BLVD"}},{"type":"Feature","geometry":{"type":"Point","coordinates":[-76.00836459998669,36.76873812320468]},"properties":{"OBJECTID":60,"STREETS":"ROSEWELL DR,EPPINGTON DR"}},{"type":"Feature","geometry":{"type":"Point","coordinates":[-76.00080327452606,36.76822729711455]},"properties":{"OBJECTID":1059,"STREETS":"SCHUBERT DR,TEASDALE DR"}},{"type":"Feature","geometry":{"type":"Point","coordinates":[-76.1981600549375,36.77109790890103]},"properties":{"OBJECTID":2038,"STREETS":"POPES HEAD ARCH,CABIN JOHN DR"}},{"type":"Feature","geometry":{"type":"Point","coordinates":[-76.21187275510457,36.82789081830907]},"properties":{"OBJECTID":61,"STREETS":"SALE DR,S CRESTLINE DR"}},{"type":"Feature","geometry":{"type":"Point","coordinates":[-76.20350906072038,36.82672850491834]},"properties":{"OBJECTID":1060,"STREETS":"CHARLECOTE DR,COPPER KETTLE DR"}},{"type":"Feature","geometry":{"type":"Point","coordinates":[-76.13871921710354,36.77732827586985]},"properties":{"OBJECTID":2039,"STREETS":"S INDEPENDENCE BLVD,ROUND HILL DR"}},{"type":"Feature","geometry":{"type":"Point","coordinates":[-76.04133365126286,36.85323891534512]},"properties":{"OBJECTID":62,"STREETS":"CANNON DR,TILDEN PL"}},{"type":"Feature","geometry":{"type":"Point","coordinates":[-76.1440538678082,36.83298783748624]},"properties":{"OBJECTID":1061,"STREETS":"TRAVERTINE AVE,CARNELIAN ST"}},{"type":"Feature","geometry":{"type":"Point","coordinates":[-76.19478808029652,36.81348373699841]},"properties":{"OBJECTID":63,"STREETS":"PROVIDENCE RD,64 "}},{"type":"Feature","geometry":{"type":"Point","coordinates":[-76.17434423363696,36.86391733502944]},"properties":{"OBJECTID":2040,"STREETS":"HAMPSHIRE PL,BANBURY CT,AINSLEY PL"}},{"type":"Feature","geometry":{"type":"Point","coordinates":[-76.10031682351068,36.909030383657935]},"properties":{"OBJECTID":1062,"STREETS":"DUPONT CIR,JEFFERSON BLVD"}},{"type":"Feature","geometry":{"type":"Point","coordinates":[-76.08080079730074,36.83011904194283]},"properties":{"OBJECTID":64,"STREETS":"CORVETTE LN,DODGE DR"}},{"type":"Feature","geometry":{"type":"Point","coordinates":[-76.08964499514052,36.8488558602848]},"properties":{"OBJECTID":2041,"STREETS":"KING RICHARD CT,KING RICHARD DR"}},{"type":"Feature","geometry":{"type":"Point","coordinates":[-75.97958545738399,36.750235064968415]},"properties":{"OBJECTID":1063,"STREETS":"ATWOODTOWN RD,ENTRADA DR"}},{"type":"Feature","geometry":{"type":"Point","coordinates":[-76.10367073482793,36.84946333007413]},"properties":{"OBJECTID":65,"STREETS":"CAREN DR,VIRGINIUS DR"}},{"type":"Feature","geometry":{"type":"Point","coordinates":[-76.05370277988705,36.87498015631554]},"properties":{"OBJECTID":2042,"STREETS":"SLOOP PT,LAUREL COVE DR"}},{"type":"Feature","geometry":{"type":"Point","coordinates":[-76.03726257892171,36.74259935522856]},"properties":{"OBJECTID":1064,"STREETS":"BERNADOTTE ST,ESPLANADE DR"}},{"type":"Feature","geometry":{"type":"Point","coordinates":[-76.10060497700269,36.79036833328854]},"properties":{"OBJECTID":66,"STREETS":"LAKE TAHOE TRL,EAGLE AVE"}},{"type":"Feature","geometry":{"type":"Point","coordinates":[-76.1042521765821,36.80469956506187]},"properties":{"OBJECTID":2043,"STREETS":"WILDE CT,SEDLEY RD"}},{"type":"Feature","geometry":{"type":"Point","coordinates":[-76.03821351482023,36.74340586145231]},"properties":{"OBJECTID":1065,"STREETS":"CHARING CROSS RD,BRACSTON RD"}},{"type":"Feature","geometry":{"type":"Point","coordinates":[-76.10893268038504,36.79742163753579]},"properties":{"OBJECTID":67,"STREETS":"RIVERSIDE DR,RIVERSIDE CIR"}},{"type":"Feature","geometry":{"type":"Point","coordinates":[-75.98257685626325,36.87132218183732]},"properties":{"OBJECTID":2044,"STREETS":"43RD ST,ATLANTIC AVE"}},{"type":"Feature","geometry":{"type":"Point","coordinates":[-76.08951512929316,36.786886660452275]},"properties":{"OBJECTID":1066,"STREETS":"STALLION DR,CRIOLLO DR"}},{"type":"Feature","geometry":{"type":"Point","coordinates":[-75.97713158342128,36.85546060494525]},"properties":{"OBJECTID":68,"STREETS":"27TH ST,ATLANTIC AVE"}},{"type":"Feature","geometry":{"type":"Point","coordinates":[-76.1497838275435,36.78671374900402]},"properties":{"OBJECTID":2045,"STREETS":"LYNNHAVEN PKWY,PLEASANT VALLEY RD"}},{"type":"Feature","geometry":{"type":"Point","coordinates":[-76.00367433868314,36.77070307761757]},"properties":{"OBJECTID":1067,"STREETS":"MOZART DR,FAULKNER RD"}},{"type":"Feature","geometry":{"type":"Point","coordinates":[-76.13241364208702,36.760802144529634]},"properties":{"OBJECTID":69,"STREETS":"FEATHER RIDGE DR,OPUS CT"}},{"type":"Feature","geometry":{"type":"Point","coordinates":[-76.1443054230372,36.89506585434826]},"properties":{"OBJECTID":2046,"STREETS":"SHELL RD,BRADFORD RD"}},{"type":"Feature","geometry":{"type":"Point","coordinates":[-76.1872496591807,36.81303780870325]},"properties":{"OBJECTID":1068,"STREETS":"OLD PROVIDENCE RD,STRICKLAND BLVD"}},{"type":"Feature","geometry":{"type":"Point","coordinates":[-76.1517613994712,36.77717455485538]},"properties":{"OBJECTID":70,"STREETS":"GRAVENHURST DR,CHESTERBROOK DR"}},{"type":"Feature","geometry":{"type":"Point","coordinates":[-76.18292555298356,36.81473370134355]},"properties":{"OBJECTID":2047,"STREETS":"PROVIDENCE RD,WESTPORT PL"}},{"type":"Feature","geometry":{"type":"Point","coordinates":[-76.07947437010503,36.77840250116923]},"properties":{"OBJECTID":1069,"STREETS":"GLASTONBURY DR,MONET DR"}},{"type":"Feature","geometry":{"type":"Point","coordinates":[-76.14129430523913,36.82481376652459]},"properties":{"OBJECTID":71,"STREETS":"KEMPSVILLE GREENS PKWY,ENGLEHARD DR"}},{"type":"Feature","geometry":{"type":"Point","coordinates":[-76.19620784245024,36.82595454567146]},"properties":{"OBJECTID":2048,"STREETS":"STERLING RD,STERLING CT"}},{"type":"Feature","geometry":{"type":"Point","coordinates":[-76.20386525530694,36.770640357186316]},"properties":{"OBJECTID":1070,"STREETS":"BARKIE CT,CORBIN DR"}},{"type":"Feature","geometry":{"type":"Point","coordinates":[-76.10432001106415,36.906568541400354]},"properties":{"OBJECTID":72,"STREETS":"CLIPPER BAY DR,WHISPERING SANDS LN"}},{"type":"Feature","geometry":{"type":"Point","coordinates":[-76.17593130072413,36.808835332645145]},"properties":{"OBJECTID":2049,"STREETS":"HICKERSON DR,WHITEHURST LANDING RD,JEFFREYS LN"}},{"type":"Feature","geometry":{"type":"Point","coordinates":[-76.1158672898995,36.80921644320845]},"properties":{"OBJECTID":1071,"STREETS":"RUNEY DR,BRITTLEBANK DR"}},{"type":"Feature","geometry":{"type":"Point","coordinates":[-76.1141798405709,36.80188814429823]},"properties":{"OBJECTID":73,"STREETS":"LANDVALE RD,HOUSTON CIR"}},{"type":"Feature","geometry":{"type":"Point","coordinates":[-76.05385538748415,36.76206400247804]},"properties":{"OBJECTID":2050,"STREETS":"PRODAN LN,BELLE CT,BUCKLEY ARCH"}},{"type":"Feature","geometry":{"type":"Point","coordinates":[-76.13417360432366,36.82469681158147]},"properties":{"OBJECTID":1072,"STREETS":"BUFFER CT,HOYLAKE DR,BUFFER DR"}},{"type":"Feature","geometry":{"type":"Point","coordinates":[-76.18389000852711,36.86079623874528]},"properties":{"OBJECTID":74,"STREETS":"W HASTINGS ARCH,W HASTINGS CT"}},{"type":"Feature","geometry":{"type":"Point","coordinates":[-76.09313788930694,36.851850294745816]},"properties":{"OBJECTID":2051,"STREETS":"SEA GULL RD,MANGO DR"}},{"type":"Feature","geometry":{"type":"Point","coordinates":[-76.1348307453102,36.76876465063507]},"properties":{"OBJECTID":1073,"STREETS":"SHIPLEY CT,NATOMA DR"}},{"type":"Feature","geometry":{"type":"Point","coordinates":[-76.02394462723655,36.838580739302216]},"properties":{"OBJECTID":75,"STREETS":"MATT LN,SOUTHERN BLVD"}},{"type":"Feature","geometry":{"type":"Point","coordinates":[-76.18744483434584,36.87503670758744]},"properties":{"OBJECTID":2052,"STREETS":"DULCIE AVE,YOULOUS AVE"}},{"type":"Feature","geometry":{"type":"Point","coordinates":[-76.18024252328345,36.80714958443294]},"properties":{"OBJECTID":1074,"STREETS":"THOMPKINS  CT,THOMPKINS LN"}},{"type":"Feature","geometry":{"type":"Point","coordinates":[-76.02812083660193,36.84212064678936]},"properties":{"OBJECTID":76,"STREETS":"RIDDLE AVE,GARDEN DR"}},{"type":"Feature","geometry":{"type":"Point","coordinates":[-75.98378760290827,36.815811049060514]},"properties":{"OBJECTID":2053,"STREETS":"HEADQUARTERS RD,JEFFERSON AVE"}},{"type":"Feature","geometry":{"type":"Point","coordinates":[-76.13562044708993,36.82592674300294]},"properties":{"OBJECTID":1075,"STREETS":"HOYLAKE DR,CADDY CT"}},{"type":"Feature","geometry":{"type":"Point","coordinates":[-76.1299083126248,36.758706081952326]},"properties":{"OBJECTID":77,"STREETS":"EAGLES LAKE RD,SANDUSKY AVE"}},{"type":"Feature","geometry":{"type":"Point","coordinates":[-76.16728668518428,36.85803093257562]},"properties":{"OBJECTID":2054,"STREETS":"CONNIE WAY,CONNIE LN"}},{"type":"Feature","geometry":{"type":"Point","coordinates":[-76.14907971904063,36.83730791406125]},"properties":{"OBJECTID":1076,"STREETS":"HOLLAND DR,POLLOCK DR"}},{"type":"Feature","geometry":{"type":"Point","coordinates":[-76.15182859974266,36.833732415870145]},"properties":{"OBJECTID":78,"STREETS":"RITZCRAFT DR,RAYCRAFT DR"}},{"type":"Feature","geometry":{"type":"Point","coordinates":[-76.15622360996515,36.79221097786729]},"properties":{"OBJECTID":2055,"STREETS":"HEATHROW DR,HALWELL DR"}},{"type":"Feature","geometry":{"type":"Point","coordinates":[-76.12560266950173,36.81746569051392]},"properties":{"OBJECTID":1077,"STREETS":"LINK CT,SAMPSON LN"}},{"type":"Feature","geometry":{"type":"Point","coordinates":[-76.19000232717993,36.80951690795439]},"properties":{"OBJECTID":79,"STREETS":"BERYL AVE,BARCO DR"}},{"type":"Feature","geometry":{"type":"Point","coordinates":[-75.99757906017292,36.77093546125404]},"properties":{"OBJECTID":2056,"STREETS":"WELLSFORD DR,STRAUSS DR,STRAUSS CT"}},{"type":"Feature","geometry":{"type":"Point","coordinates":[-75.98072391569976,36.86444788019467]},"properties":{"OBJECTID":1078,"STREETS":"36TH HALF ST,PACIFIC AVE"}},{"type":"Feature","geometry":{"type":"Point","coordinates":[-76.17270252921756,36.79490929838681]},"properties":{"OBJECTID":80,"STREETS":"FALLING CREEK WAY,PEBBLEBROOK WAY,COOLSPRING WAY"}},{"type":"Feature","geometry":{"type":"Point","coordinates":[-76.02899907094618,36.74101866367708]},"properties":{"OBJECTID":2057,"STREETS":"NOTTOWAY LN,MARTLET LN"}},{"type":"Feature","geometry":{"type":"Point","coordinates":[-76.15917889297674,36.789361613872885]},"properties":{"OBJECTID":1079,"STREETS":"RUGBY RD,SWEET BAY LN"}},{"type":"Feature","geometry":{"type":"Point","coordinates":[-76.10365902888145,36.793027976794114]},"properties":{"OBJECTID":81,"STREETS":"SKI LODGE RD,DEMILLE CT"}},{"type":"Feature","geometry":{"type":"Point","coordinates":[-76.13473949354531,36.825190944746794]},"properties":{"OBJECTID":1080,"STREETS":"BUNKER DR,HOYLAKE DR"}},{"type":"Feature","geometry":{"type":"Point","coordinates":[-76.07090038819766,36.83306362141228]},"properties":{"OBJECTID":2058,"STREETS":"S LYNNHAVEN RD,ROBERT JACKSON DR,GOLDEN OAK CT"}},{"type":"Feature","geometry":{"type":"Point","coordinates":[-75.98683985366488,36.750583918894414]},"properties":{"OBJECTID":82,"STREETS":"BRASILENO DR,VALIENTE CT"}},{"type":"Feature","geometry":{"type":"Point","coordinates":[-75.97922795754532,36.86318986059174]},"properties":{"OBJECTID":1081,"STREETS":"35TH ST,ATLANTIC AVE"}},{"type":"Feature","geometry":{"type":"Point","coordinates":[-76.19640577095174,36.769711740953426]},"properties":{"OBJECTID":2059,"STREETS":"CABIN JOHN DR,CHAIN BRIDGE RD"}},{"type":"Feature","geometry":{"type":"Point","coordinates":[-76.12260429340766,36.80906092050006]},"properties":{"OBJECTID":83,"STREETS":"HARLESDEN DR,LEAMORE SQUARE RD"}},{"type":"Feature","geometry":{"type":"Point","coordinates":[-76.08030923109243,36.84103358729707]},"properties":{"OBJECTID":2060,"STREETS":"FRANCIS LAND LN,GRUMMAN SQ"}},{"type":"Feature","geometry":{"type":"Point","coordinates":[-76.08572641361548,36.84026126886716]},"properties":{"OBJECTID":1082,"STREETS":"ROSEGATE CT,GROVELAND RD"}},{"type":"Feature","geometry":{"type":"Point","coordinates":[-76.03274226988675,36.84608273710221]},"properties":{"OBJECTID":84,"STREETS":"SANDYVILLE DR,MAXEY DR"}},{"type":"Feature","geometry":{"type":"Point","coordinates":[-76.155501898076,36.84810695712228]},"properties":{"OBJECTID":2061,"STREETS":"N WITCHDUCK RD,RICHARD RD"}},{"type":"Feature","geometry":{"type":"Point","coordinates":[-76.12269479507927,36.81502685782548]},"properties":{"OBJECTID":1083,"STREETS":"GADWALL PL,GADWALL CT"}},{"type":"Feature","geometry":{"type":"Point","coordinates":[-76.07878263050533,36.771988365989756]},"properties":{"OBJECTID":85,"STREETS":"CHICORY ST,CHICORY CT"}},{"type":"Feature","geometry":{"type":"Point","coordinates":[-76.12219638281017,36.76347066836005]},"properties":{"OBJECTID":2062,"STREETS":"MARGARET DR,DILLAWAY CT"}},{"type":"Feature","geometry":{"type":"Point","coordinates":[-76.1942056180562,36.81897893244456]},"properties":{"OBJECTID":1084,"STREETS":"CHIPSTEAD LN,AVALON WOODS DR"}},{"type":"Feature","geometry":{"type":"Point","coordinates":[-76.1439702912491,36.8271394253976]},"properties":{"OBJECTID":86,"STREETS":"BAXTER RD,GREENVIEW DR"}},{"type":"Feature","geometry":{"type":"Point","coordinates":[-75.99063169727637,36.87824121053245]},"properties":{"OBJECTID":2063,"STREETS":"LAKESIDE AVE,52ND ST"}},{"type":"Feature","geometry":{"type":"Point","coordinates":[-76.10473311841554,36.79984262747565]},"properties":{"OBJECTID":1085,"STREETS":"WINDMILL DR,NETHERLAND CT"}},{"type":"Feature","geometry":{"type":"Point","coordinates":[-76.10616150888757,36.908191421256404]},"properties":{"OBJECTID":87,"STREETS":"THREE SHIPS LNDG,TIDEWAY CT"}},{"type":"Feature","geometry":{"type":"Point","coordinates":[-76.1527093655394,36.78928506798379]},"properties":{"OBJECTID":2064,"STREETS":"BRIDLE CREEK BLVD,HALTER DR"}},{"type":"Feature","geometry":{"type":"Point","coordinates":[-76.15031991246066,36.838386417102605]},"properties":{"OBJECTID":1086,"STREETS":"POLLOCK DR,MAGNOLIA ST"}},{"type":"Feature","geometry":{"type":"Point","coordinates":[-76.14411935050083,36.77078295431006]},"properties":{"OBJECTID":88,"STREETS":"GAYMONT CT,ARCHDALE DR,RAYNOR DR"}},{"type":"Feature","geometry":{"type":"Point","coordinates":[-76.13225007414513,36.771991983998824]},"properties":{"OBJECTID":2065,"STREETS":"EAGLE ROCK RD,EAGLE ROCK CT"}},{"type":"Feature","geometry":{"type":"Point","coordinates":[-75.98656174693102,36.86943191340381]},"properties":{"OBJECTID":1087,"STREETS":"HOLLY CRES,PORTER CT"}},{"type":"Feature","geometry":{"type":"Point","coordinates":[-76.10799225926694,36.909739870341156]},"properties":{"OBJECTID":89,"STREETS":"MADISON AVE,W STRATFORD RD"}},{"type":"Feature","geometry":{"type":"Point","coordinates":[-76.13449166273148,36.77390291437476]},"properties":{"OBJECTID":2066,"STREETS":"BELSPRING DR,EAGLE POINT DR"}},{"type":"Feature","geometry":{"type":"Point","coordinates":[-76.13631246786234,36.82655795205158]},"properties":{"OBJECTID":1088,"STREETS":"HEATHER DR,HOYLAKE DR"}},{"type":"Feature","geometry":{"type":"Point","coordinates":[-76.1008353787034,36.84718227334087]},"properties":{"OBJECTID":90,"STREETS":"CROSBY RD,MANTLE LN"}},{"type":"Feature","geometry":{"type":"Point","coordinates":[-76.17829474937203,36.81092700025998]},"properties":{"OBJECTID":2067,"STREETS":"WHITEHURST LANDING RD,THOMPSON WAY"}},{"type":"Feature","geometry":{"type":"Point","coordinates":[-76.13698569048908,36.827126961310036]},"properties":{"OBJECTID":1089,"STREETS":"HOYLAKE DR,ROSALIE CT"}},{"type":"Feature","geometry":{"type":"Point","coordinates":[-76.09394340592726,36.85262280305826]},"properties":{"OBJECTID":2068,"STREETS":"SEA HORSE WAY,VIRGINIUS DR"}},{"type":"Feature","geometry":{"type":"Point","coordinates":[-76.10710329095332,36.908993745422286]},"properties":{"OBJECTID":91,"STREETS":"WOODLAWN AVE,W STRATFORD RD"}},{"type":"Feature","geometry":{"type":"Point","coordinates":[-76.15081537286572,36.83881273299236]},"properties":{"OBJECTID":1090,"STREETS":"SPARTAN ST,HOLLAND DR,POLLOCK DR"}},{"type":"Feature","geometry":{"type":"Point","coordinates":[-76.16276078952657,36.79781132177038]},"properties":{"OBJECTID":2069,"STREETS":"MIDHURST CIR,MONTROSE DR,MIDHURST CT"}},{"type":"Feature","geometry":{"type":"Point","coordinates":[-76.0860326115666,36.83466813404185]},"properties":{"OBJECTID":92,"STREETS":"DILLON DR,MAVERICK ST"}},{"type":"Feature","geometry":{"type":"Point","coordinates":[-76.15328378426467,36.89738175409344]},"properties":{"OBJECTID":1091,"STREETS":"MEREDITH RD,REGINA LN"}},{"type":"Feature","geometry":{"type":"Point","coordinates":[-76.12047671630222,36.818553416449]},"properties":{"OBJECTID":2070,"STREETS":"S PLAZA TRL,ACE CT"}},{"type":"Feature","geometry":{"type":"Point","coordinates":[-76.03298712637869,36.846332412461436]},"properties":{"OBJECTID":93,"STREETS":"EASTWOOD VILLA LN,MAXEY DR"}},{"type":"Feature","geometry":{"type":"Point","coordinates":[-76.14977082263312,36.837933217914625]},"properties":{"OBJECTID":1092,"STREETS":"JONAS ST,POLLOCK DR"}},{"type":"Feature","geometry":{"type":"Point","coordinates":[-76.1325285105607,36.885250682634734]},"properties":{"OBJECTID":2071,"STREETS":"EWELL RD,BERTRUM CT"}},{"type":"Feature","geometry":{"type":"Point","coordinates":[-76.02974832697859,36.8436086904022]},"properties":{"OBJECTID":94,"STREETS":"264  ,VIRGINIA BEACH BLVD"}},{"type":"Feature","geometry":{"type":"Point","coordinates":[-76.07535330472169,36.77498912347464]},"properties":{"OBJECTID":1093,"STREETS":"BARBERRY LN,CRESTWOOD LN"}},{"type":"Feature","geometry":{"type":"Point","coordinates":[-76.01319588421346,36.840832005149515]},"properties":{"OBJECTID":2072,"STREETS":"N OCEANA BLVD,OHIO AVE"}},{"type":"Feature","geometry":{"type":"Point","coordinates":[-76.08305062074328,36.83219224696961]},"properties":{"OBJECTID":95,"STREETS":"LINEBERRY RD,DODGE DR"}},{"type":"Feature","geometry":{"type":"Point","coordinates":[-76.12835831092458,36.81984117493652]},"properties":{"OBJECTID":1094,"STREETS":"SILVERLEAF DR,MOUNTAINLEAF CT"}},{"type":"Feature","geometry":{"type":"Point","coordinates":[-76.07772035561388,36.82768565876842]},"properties":{"OBJECTID":96,"STREETS":"S LYNNHAVEN RD,SILINA DR,LYME REGIS QUAY"}},{"type":"Feature","geometry":{"type":"Point","coordinates":[-75.99871396475342,36.77198637853122]},"properties":{"OBJECTID":2073,"STREETS":"UPTON DR,BRAHMS DR"}},{"type":"Feature","geometry":{"type":"Point","coordinates":[-75.99128526206975,36.873449591191076]},"properties":{"OBJECTID":1095,"STREETS":"CRYSTAL LAKE DR,CRYSTAL DR"}},{"type":"Feature","geometry":{"type":"Point","coordinates":[-76.15884147856951,36.83976775786064]},"properties":{"OBJECTID":97,"STREETS":"MAC ST,S WITCHDUCK RD"}},{"type":"Feature","geometry":{"type":"Point","coordinates":[-76.10464966133237,36.8617036477825]},"properties":{"OBJECTID":2074,"STREETS":"SUFFOLK LN,KINGS GRANT RD"}},{"type":"Feature","geometry":{"type":"Point","coordinates":[-76.07499646065318,36.8312261172222]},"properties":{"OBJECTID":1096,"STREETS":"S LYNNHAVEN RD,VINE CT"}},{"type":"Feature","geometry":{"type":"Point","coordinates":[-76.14431912324359,36.827500610533036]},"properties":{"OBJECTID":98,"STREETS":"PADMA CT,GREENVIEW DR"}},{"type":"Feature","geometry":{"type":"Point","coordinates":[-76.12031790493978,36.81845947004095]},"properties":{"OBJECTID":2075,"STREETS":"MATCH POINT DR,ACE CT"}},{"type":"Feature","geometry":{"type":"Point","coordinates":[-76.05332991616207,36.75634273016068]},"properties":{"OBJECTID":1097,"STREETS":"FIRST SETTLERS AVE,COURT CIR"}},{"type":"Feature","geometry":{"type":"Point","coordinates":[-75.98158902296275,36.7462092531629]},"properties":{"OBJECTID":99,"STREETS":"LOTUS CREEK DR,BLOSSOM CIR"}},{"type":"Feature","geometry":{"type":"Point","coordinates":[-76.03892230264738,36.86264546557467]},"properties":{"OBJECTID":2076,"STREETS":"CUTLER RDG,OLD CUTLER RD"}},{"type":"Feature","geometry":{"type":"Point","coordinates":[-76.10732817430323,36.802068363289685]},"properties":{"OBJECTID":1098,"STREETS":"OAKWOOD LN,LINDENWOOD CT"}},{"type":"Feature","geometry":{"type":"Point","coordinates":[-76.20264812074196,36.82030298560222]},"properties":{"OBJECTID":100,"STREETS":"MORGAN TRL,WESTERLY TRL"}},{"type":"Feature","geometry":{"type":"Point","coordinates":[-75.99063001293521,36.878317941952595]},"properties":{"OBJECTID":2077,"STREETS":"LAKESIDE AVE,WILDER RD"}},{"type":"Feature","geometry":{"type":"Point","coordinates":[-76.00260412448118,36.88305317474167]},"properties":{"OBJECTID":1099,"STREETS":"WILTON LN,E BAY SHORE DR"}},{"type":"Feature","geometry":{"type":"Point","coordinates":[-75.98488051753743,36.749015852769084]},"properties":{"OBJECTID":101,"STREETS":"BRASILENO DR,BELLEZA CT"}},{"type":"Feature","geometry":{"type":"Point","coordinates":[-76.07135526181986,36.77703844966084]},"properties":{"OBJECTID":2078,"STREETS":"CHESTNUT OAK WAY,HOLLAND RD"}},{"type":"Feature","geometry":{"type":"Point","coordinates":[-76.00125865300149,36.8819268558409]},"properties":{"OBJECTID":1100,"STREETS":"CRYSTAL PKWY,E BAY SHORE DR,WYTHE LN"}},{"type":"Feature","geometry":{"type":"Point","coordinates":[-76.11046011101546,36.79888952191095]},"properties":{"OBJECTID":102,"STREETS":"NESBITT DR,MEDCAP CT"}},{"type":"Feature","geometry":{"type":"Point","coordinates":[-75.9359174144801,36.71870513650941]},"properties":{"OBJECTID":2079,"STREETS":"LITTLE ISLAND RD,SAGE RD"}},{"type":"Feature","geometry":{"type":"Point","coordinates":[-76.17534049133818,36.85956977106589]},"properties":{"OBJECTID":1101,"STREETS":"NEWTOWN RD,BAKER RD"}},{"type":"Feature","geometry":{"type":"Point","coordinates":[-76.14018746582474,36.88052612799778]},"properties":{"OBJECTID":103,"STREETS":"FIVE FORKS RD,COPPERFIELD RD"}},{"type":"Feature","geometry":{"type":"Point","coordinates":[-76.04532020920377,36.754993720110726]},"properties":{"OBJECTID":2080,"STREETS":"PRINCESS ANNE RD,FENWICK WAY"}},{"type":"Feature","geometry":{"type":"Point","coordinates":[-76.03454356450794,36.85355815927875]},"properties":{"OBJECTID":1102,"STREETS":"REGENCY DR,DUNBARTON DR"}},{"type":"Feature","geometry":{"type":"Point","coordinates":[-76.05635717219421,36.809647361375895]},"properties":{"OBJECTID":104,"STREETS":"HAWKEYE CT,INTERNATIONAL PKWY"}},{"type":"Feature","geometry":{"type":"Point","coordinates":[-76.20080817341072,36.773565950694504]},"properties":{"OBJECTID":2081,"STREETS":"KEMPSVILLE RD,TARLETON OAKS DR"}},{"type":"Feature","geometry":{"type":"Point","coordinates":[-76.0988649259243,36.907971168959115]},"properties":{"OBJECTID":1103,"STREETS":"DINWIDDIE RD,SHORE DR"}},{"type":"Feature","geometry":{"type":"Point","coordinates":[-76.1496689069675,36.88855065644737]},"properties":{"OBJECTID":105,"STREETS":"FARRINGTON DR,MAHARIS RD"}},{"type":"Feature","geometry":{"type":"Point","coordinates":[-76.14040429487981,36.891966688216264]},"properties":{"OBJECTID":2082,"STREETS":"LAKESIDE RD,LAKEVIEW DR"}},{"type":"Feature","geometry":{"type":"Point","coordinates":[-76.14381928624645,36.8329670504948]},"properties":{"OBJECTID":1104,"STREETS":"MICA AVE,TRAVERTINE AVE"}},{"type":"Feature","geometry":{"type":"Point","coordinates":[-76.08998844173489,36.8381150387071]},"properties":{"OBJECTID":106,"STREETS":"S PLAZA TRL,BOYD RD"}},{"type":"Feature","geometry":{"type":"Point","coordinates":[-76.08236935819474,36.72987455229198]},"properties":{"OBJECTID":2083,"STREETS":"CHAMBERS DR,MARENGO DR"}},{"type":"Feature","geometry":{"type":"Point","coordinates":[-75.98449105384431,36.81116480483085]},"properties":{"OBJECTID":1105,"STREETS":"S BIRDNECK RD,C ST"}},{"type":"Feature","geometry":{"type":"Point","coordinates":[-76.18581897980133,36.806152717776996]},"properties":{"OBJECTID":107,"STREETS":"PARKLAND LN,HEARTH DR"}},{"type":"Feature","geometry":{"type":"Point","coordinates":[-76.06450600752875,36.7712889069367]},"properties":{"OBJECTID":2084,"STREETS":"GLASSY LAKE DR,CHESTWOOD DR"}},{"type":"Feature","geometry":{"type":"Point","coordinates":[-76.0394243009911,36.85771314701307]},"properties":{"OBJECTID":1106,"STREETS":"COMMODORE DR,LUDWAY CT"}},{"type":"Feature","geometry":{"type":"Point","coordinates":[-76.16209126526384,36.842582102996836]},"properties":{"OBJECTID":108,"STREETS":"CLEVELAND PL,CLEVELAND ST"}},{"type":"Feature","geometry":{"type":"Point","coordinates":[-76.13133120091574,36.77134376328644]},"properties":{"OBJECTID":2085,"STREETS":"SPRUCE KNOB RD,WARE NECK DR"}},{"type":"Feature","geometry":{"type":"Point","coordinates":[-76.1610640749741,36.847544039571176]},"properties":{"OBJECTID":1107,"STREETS":"NORTHRIDGE DR,VIRGINIA BEACH BLVD"}},{"type":"Feature","geometry":{"type":"Point","coordinates":[-76.10157767908055,36.79143163532311]},"properties":{"OBJECTID":109,"STREETS":"EAGLE AVE,KILLINGTON CV"}},{"type":"Feature","geometry":{"type":"Point","coordinates":[-76.05323575744893,36.8748275590789]},"properties":{"OBJECTID":2086,"STREETS":"LAUREL COVE DR,CUTTER PT"}},{"type":"Feature","geometry":{"type":"Point","coordinates":[-76.13886008821147,36.8287980721702]},"properties":{"OBJECTID":1108,"STREETS":"CENTRE POINTE DR,BABBLING BROOK DR"}},{"type":"Feature","geometry":{"type":"Point","coordinates":[-76.02913814003364,36.84317824239057]},"properties":{"OBJECTID":110,"STREETS":"AIR STATION DR,FIGHTER DR"}},{"type":"Feature","geometry":{"type":"Point","coordinates":[-76.08209308761732,36.842727220413586]},"properties":{"OBJECTID":2087,"STREETS":"VIRGINIA BEACH BLVD,CRANSTON LN"}},{"type":"Feature","geometry":{"type":"Point","coordinates":[-76.06847836939323,36.82578148081654]},"properties":{"OBJECTID":1109,"STREETS":"GUARDIAN LN,PHOENIX DR"}},{"type":"Feature","geometry":{"type":"Point","coordinates":[-76.11323919846721,36.80130682724905]},"properties":{"OBJECTID":111,"STREETS":"DAHLIA DR,LANDVALE RD,CONCORDIA WAY"}},{"type":"Feature","geometry":{"type":"Point","coordinates":[-76.14151122771898,36.83646380301556]},"properties":{"OBJECTID":2088,"STREETS":"ONONDAGA RD,KIOWA LN"}},{"type":"Feature","geometry":{"type":"Point","coordinates":[-76.13652765389874,36.8833186180909]},"properties":{"OBJECTID":1110,"STREETS":"EWELL RD,BROMFIELD AVE"}},{"type":"Feature","geometry":{"type":"Point","coordinates":[-75.9980827500443,36.87345102267971]},"properties":{"OBJECTID":112,"STREETS":"YORK LN,WYE LN"}},{"type":"Feature","geometry":{"type":"Point","coordinates":[-76.10953464055859,36.80943149623567]},"properties":{"OBJECTID":2089,"STREETS":"COLERIDGE CT,CRASHAW ST"}},{"type":"Feature","geometry":{"type":"Point","coordinates":[-76.05970606642057,36.76182718255217]},"properties":{"OBJECTID":1111,"STREETS":"HOLLY FERN DR,CANTWELL RD"}},{"type":"Feature","geometry":{"type":"Point","coordinates":[-76.08096726500436,36.77399756304372]},"properties":{"OBJECTID":113,"STREETS":"BARBERRY LN,NETTLE ST"}},{"type":"Feature","geometry":{"type":"Point","coordinates":[-76.05930607267571,36.818029122852444]},"properties":{"OBJECTID":1112,"STREETS":"INDUSTRY LN,CENTRAL DR"}},{"type":"Feature","geometry":{"type":"Point","coordinates":[-76.10953539783839,36.809431906191456]},"properties":{"OBJECTID":2090,"STREETS":"CRASHAW ST,COLERIDGE CT"}},{"type":"Feature","geometry":{"type":"Point","coordinates":[-76.0763893757563,36.82665443973882]},"properties":{"OBJECTID":114,"STREETS":"RIVERS REACH,LYME REGIS QUAY"}},{"type":"Feature","geometry":{"type":"Point","coordinates":[-76.02527710278908,36.8457661893786]},"properties":{"OBJECTID":1113,"STREETS":"CHASE POINTE CIR,ROCKPORT LN"}},{"type":"Feature","geometry":{"type":"Point","coordinates":[-76.03502704318376,36.746335378167025]},"properties":{"OBJECTID":2091,"STREETS":"BERNADOTTE ST,LEMANS WAY"}},{"type":"Feature","geometry":{"type":"Point","coordinates":[-76.1486077702415,36.83122347555793]},"properties":{"OBJECTID":115,"STREETS":"MOATE CIR,CAVAN CT"}},{"type":"Feature","geometry":{"type":"Point","coordinates":[-76.03274800473152,36.852105463897736]},"properties":{"OBJECTID":1114,"STREETS":"THOMAS LN,HILLTOP RD"}},{"type":"Feature","geometry":{"type":"Point","coordinates":[-76.0509428301441,36.75982536866459]},"properties":{"OBJECTID":2092,"STREETS":"LITCHFIELD WAY,TANNING REEVE WAY"}},{"type":"Feature","geometry":{"type":"Point","coordinates":[-76.10600234448721,36.908219665922594]},"properties":{"OBJECTID":116,"STREETS":"THREE SHIPS LNDG,LONG SHIP CT"}},{"type":"Feature","geometry":{"type":"Point","coordinates":[-76.05252335480105,36.75576447259604]},"properties":{"OBJECTID":1115,"STREETS":"KINGSMAN LN,KINGSMAN ARCH"}},{"type":"Feature","geometry":{"type":"Point","coordinates":[-76.00439581521368,36.77694382417354]},"properties":{"OBJECTID":2093,"STREETS":"GENERAL BOOTH BLVD,GUNN HALL DR"}},{"type":"Feature","geometry":{"type":"Point","coordinates":[-76.10636934580664,36.79551411053466]},"properties":{"OBJECTID":117,"STREETS":"TUGBOAT RD,HALYARD CT"}},{"type":"Feature","geometry":{"type":"Point","coordinates":[-76.01951415871316,36.840902420999946]},"properties":{"OBJECTID":1116,"STREETS":"OHIO AVE,LOUISA AVE"}},{"type":"Feature","geometry":{"type":"Point","coordinates":[-75.98282560425702,36.86053750346726]},"properties":{"OBJECTID":118,"STREETS":"33RD ST,HOLLY RD"}},{"type":"Feature","geometry":{"type":"Point","coordinates":[-75.98269871093494,36.87171756008631]},"properties":{"OBJECTID":2094,"STREETS":"43RD HALF ST,ATLANTIC AVE"}},{"type":"Feature","geometry":{"type":"Point","coordinates":[-76.04385855321846,36.861520912076436]},"properties":{"OBJECTID":1117,"STREETS":"N PLANTATION DR,EARL OF ESSEX ARCH,EARL OF ESSEX DR"}},{"type":"Feature","geometry":{"type":"Point","coordinates":[-76.128868950163,36.871043830953646]},"properties":{"OBJECTID":119,"STREETS":"CHARITY DR,DEACONS LN"}},{"type":"Feature","geometry":{"type":"Point","coordinates":[-76.12461936999847,36.82222177681651]},"properties":{"OBJECTID":2095,"STREETS":"SHORELINE CT,HOLLAND RD,SILVERLEAF DR"}},{"type":"Feature","geometry":{"type":"Point","coordinates":[-76.10058613034802,36.570424219341625]},"properties":{"OBJECTID":1118,"STREETS":"CRAGS CSWY,BAUM RD"}},{"type":"Feature","geometry":{"type":"Point","coordinates":[-76.14488789785393,36.828098331453816]},"properties":{"OBJECTID":120,"STREETS":"PARVATHI CT,GREENVIEW DR"}},{"type":"Feature","geometry":{"type":"Point","coordinates":[-76.15202991758771,36.8453896704534]},"properties":{"OBJECTID":2096,"STREETS":"BROAD ST,DORSET AVE"}},{"type":"Feature","geometry":{"type":"Point","coordinates":[-75.98555847698067,36.8121427604433]},"properties":{"OBJECTID":1119,"STREETS":"B ST,2ND ST"}},{"type":"Feature","geometry":{"type":"Point","coordinates":[-76.1698528252013,36.7927233670415]},"properties":{"OBJECTID":121,"STREETS":"LAKE CHRISTOPHER DR,PARK LAKE CT"}},{"type":"Feature","geometry":{"type":"Point","coordinates":[-76.0657016238494,36.7723654309816]},"properties":{"OBJECTID":2097,"STREETS":"ROSE PETAL DR,ROSE PETAL CT"}},{"type":"Feature","geometry":{"type":"Point","coordinates":[-76.08130059836526,36.83668946761208]},"properties":{"OBJECTID":1120,"STREETS":"GOLDEN MAPLE DR,PERSIMMON CT"}},{"type":"Feature","geometry":{"type":"Point","coordinates":[-76.14114648476416,36.76846223565765]},"properties":{"OBJECTID":122,"STREETS":"STERNCROFT DR,GAINES MILL DR"}},{"type":"Feature","geometry":{"type":"Point","coordinates":[-76.10724065503837,36.80753011361161]},"properties":{"OBJECTID":2098,"STREETS":"CHIMNEY HILL PKWY,CAMPION AVE"}},{"type":"Feature","geometry":{"type":"Point","coordinates":[-76.11602345752006,36.753049411543174]},"properties":{"OBJECTID":1121,"STREETS":"HIGHLAND DR,HIGHLAND CT"}},{"type":"Feature","geometry":{"type":"Point","coordinates":[-76.18758544763728,36.80771554745744]},"properties":{"OBJECTID":123,"STREETS":"STRICKLAND BLVD,TORENIA CT"}},{"type":"Feature","geometry":{"type":"Point","coordinates":[-76.05192272503241,36.76070220289173]},"properties":{"OBJECTID":2099,"STREETS":"LITCHFIELD WAY,RIDGEDALE CT"}},{"type":"Feature","geometry":{"type":"Point","coordinates":[-76.17151342388608,36.85644742336044]},"properties":{"OBJECTID":1122,"STREETS":"SUMMIT ARCH,TREBLE CT,SPIRIT CT"}},{"type":"Feature","geometry":{"type":"Point","coordinates":[-76.11358068403932,36.801662043314394]},"properties":{"OBJECTID":124,"STREETS":"VINCENT CT,LANDVALE RD"}},{"type":"Feature","geometry":{"type":"Point","coordinates":[-76.10327653521662,36.80419452062514]},"properties":{"OBJECTID":2100,"STREETS":"MEDWIN CT,SEDLEY RD"}},{"type":"Feature","geometry":{"type":"Point","coordinates":[-76.06129095958478,36.763233895237406]},"properties":{"OBJECTID":1123,"STREETS":"SPLIT RAIL DR,CHRISTOPHER FARMS DR"}},{"type":"Feature","geometry":{"type":"Point","coordinates":[-76.16904197707977,36.79206606390577]},"properties":{"OBJECTID":125,"STREETS":"COASTVIEW CT,LAKE CHRISTOPHER DR,LONG BEACH CT"}},{"type":"Feature","geometry":{"type":"Point","coordinates":[-76.15001616691026,36.84371110475003]},"properties":{"OBJECTID":2101,"STREETS":"VIRGINIA BEACH BLVD,OPAL AVE"}},{"type":"Feature","geometry":{"type":"Point","coordinates":[-76.12895657453076,36.820504910215554]},"properties":{"OBJECTID":1124,"STREETS":"LEATHERWOOD DR,LEATHERWOOD CT"}},{"type":"Feature","geometry":{"type":"Point","coordinates":[-76.13681176137872,36.764821404707696]},"properties":{"OBJECTID":126,"STREETS":"LARCHWOOD DR,ROUNDTREE CT"}},{"type":"Feature","geometry":{"type":"Point","coordinates":[-76.14403880845076,36.88974635902846]},"properties":{"OBJECTID":1125,"STREETS":"LAKESIDE RD,CULLEN RD"}},{"type":"Feature","geometry":{"type":"Point","coordinates":[-76.19871104380354,36.77191489691094]},"properties":{"OBJECTID":2102,"STREETS":"MASON NECK LN,GLEN VIEW DR,HARPERS FERRY DR"}},{"type":"Feature","geometry":{"type":"Point","coordinates":[-76.16540267459004,36.845483043196246]},"properties":{"OBJECTID":127,"STREETS":"CLEARFIELD AVE,MARIAN LN"}},{"type":"Feature","geometry":{"type":"Point","coordinates":[-76.18033143853026,36.8128504459389]},"properties":{"OBJECTID":2103,"STREETS":"N SUNLAND DR,WHITEHURST LANDING RD"}},{"type":"Feature","geometry":{"type":"Point","coordinates":[-76.06273983254358,36.76447740115]},"properties":{"OBJECTID":1126,"STREETS":"HARVEST MOON CIR,CHRISTOPHER FARMS DR,HARVEST MOON CT"}},{"type":"Feature","geometry":{"type":"Point","coordinates":[-76.02636345253016,36.79561857466757]},"properties":{"OBJECTID":2104,"STREETS":"NIMITZ DR,PORTER RD"}},{"type":"Feature","geometry":{"type":"Point","coordinates":[-76.03421127229446,36.74029983268348]},"properties":{"OBJECTID":1127,"STREETS":"NAVARRE WAY,ST CHARLES AVE"}},{"type":"Feature","geometry":{"type":"Point","coordinates":[-76.1978343976807,36.81640374234333]},"properties":{"OBJECTID":128,"STREETS":"WOODSTOCK RD,WOODSTOCK CT"}},{"type":"Feature","geometry":{"type":"Point","coordinates":[-76.15676738266453,36.84943415217396]},"properties":{"OBJECTID":2105,"STREETS":"WEAVER DR,WILLIAMS CT"}},{"type":"Feature","geometry":{"type":"Point","coordinates":[-76.17142366512121,36.907041874868284]},"properties":{"OBJECTID":129,"STREETS":"SHORE DR,PIER POINT PL"}},{"type":"Feature","geometry":{"type":"Point","coordinates":[-75.98660768318139,36.81308128065391]},"properties":{"OBJECTID":1128,"STREETS":"A ST,3RD ST"}},{"type":"Feature","geometry":{"type":"Point","coordinates":[-76.09928682868065,36.800842712429656]},"properties":{"OBJECTID":2106,"STREETS":"DAHLIA DR,S ROSEMONT RD"}},{"type":"Feature","geometry":{"type":"Point","coordinates":[-76.03447409778703,36.84779841222239]},"properties":{"OBJECTID":130,"STREETS":"LASKIN RD,MAXEY DR"}},{"type":"Feature","geometry":{"type":"Point","coordinates":[-76.20317731558089,36.770305799860346]},"properties":{"OBJECTID":1129,"STREETS":"KEMPSVILLE RD,CORBIN DR"}},{"type":"Feature","geometry":{"type":"Point","coordinates":[-76.04875490960777,36.87115135904139]},"properties":{"OBJECTID":2107,"STREETS":"TANGLEWOOD TRL,MOSSY OAKS CT"}},{"type":"Feature","geometry":{"type":"Point","coordinates":[-76.0560471716745,36.752978561485705]},"properties":{"OBJECTID":131,"STREETS":"PRINCESS ANNE RD,ADMIRAL DEGRASSE WAY"}},{"type":"Feature","geometry":{"type":"Point","coordinates":[-76.15293474206439,36.78431475736727]},"properties":{"OBJECTID":1130,"STREETS":"GRAVENHURST DR,HAFFORD RD"}},{"type":"Feature","geometry":{"type":"Point","coordinates":[-76.15686813231689,36.849533697721014]},"properties":{"OBJECTID":2108,"STREETS":"JASPER CT,WEAVER DR"}},{"type":"Feature","geometry":{"type":"Point","coordinates":[-75.99934533936266,36.823886073614545]},"properties":{"OBJECTID":1131,"STREETS":"S BIRDNECK RD,BROOKLYN AVE"}},{"type":"Feature","geometry":{"type":"Point","coordinates":[-76.05474294454442,36.80842219287422]},"properties":{"OBJECTID":132,"STREETS":"LONDON BRIDGE RD,INTERNATIONAL PKWY"}},{"type":"Feature","geometry":{"type":"Point","coordinates":[-76.02676320732316,36.739434230761994]},"properties":{"OBJECTID":2109,"STREETS":"GASTON LN,NOTTOWAY LN"}},{"type":"Feature","geometry":{"type":"Point","coordinates":[-76.11885051500799,36.86849791281982]},"properties":{"OBJECTID":1132,"STREETS":"SAW PEN POINT TRL,TREE CHOP CIR"}},{"type":"Feature","geometry":{"type":"Point","coordinates":[-76.13747493365405,36.765438014526566]},"properties":{"OBJECTID":133,"STREETS":"GUMWOOD CT,MIDDLEWOOD DR"}},{"type":"Feature","geometry":{"type":"Point","coordinates":[-76.04644660045034,36.75612306223833]},"properties":{"OBJECTID":2110,"STREETS":"CABOT CT,FENWICK WAY"}},{"type":"Feature","geometry":{"type":"Point","coordinates":[-76.07823043699851,36.83414875729164]},"properties":{"OBJECTID":1133,"STREETS":"SILVER MAPLE DR,SILVER MAPLE CIR"}},{"type":"Feature","geometry":{"type":"Point","coordinates":[-76.13288777918218,36.8180505158222]},"properties":{"OBJECTID":134,"STREETS":"MOSSYCUP DR,MOSSYCUP CT"}},{"type":"Feature","geometry":{"type":"Point","coordinates":[-75.99222786429738,36.766723175990194]},"properties":{"OBJECTID":2111,"STREETS":"CULVER LN,BIERCE DR"}},{"type":"Feature","geometry":{"type":"Point","coordinates":[-75.98444262656565,36.867848314157314]},"properties":{"OBJECTID":1134,"STREETS":"OCEAN HILLS RD,OCEAN CUT LN"}},{"type":"Feature","geometry":{"type":"Point","coordinates":[-76.1174789546558,36.805026347353284]},"properties":{"OBJECTID":135,"STREETS":"APPLEBY CT,FOXWOOD DR,JOSHUA DR"}},{"type":"Feature","geometry":{"type":"Point","coordinates":[-76.07912689007503,36.72729936392432]},"properties":{"OBJECTID":2112,"STREETS":"RIDDICK LN,INDIAN RIVER RD"}},{"type":"Feature","geometry":{"type":"Point","coordinates":[-76.13663891473826,36.770562743441936]},"properties":{"OBJECTID":1135,"STREETS":"FARMWOOD CT,ROUND HILL DR,STUMPY LAKE LN"}},{"type":"Feature","geometry":{"type":"Point","coordinates":[-75.97875967297422,36.85720951549709]},"properties":{"OBJECTID":136,"STREETS":"29TH ST,PACIFIC AVE"}},{"type":"Feature","geometry":{"type":"Point","coordinates":[-76.18112024289306,36.87005412663621]},"properties":{"OBJECTID":2113,"STREETS":"CAMPUS DR,BAKER RD"}},{"type":"Feature","geometry":{"type":"Point","coordinates":[-76.1186161346689,36.80600292560643]},"properties":{"OBJECTID":137,"STREETS":"FOXWOOD DR,THORNHILL PL"}},{"type":"Feature","geometry":{"type":"Point","coordinates":[-76.18969423108865,36.815424316536706]},"properties":{"OBJECTID":1136,"STREETS":"AVALON AVE,WARING CT"}},{"type":"Feature","geometry":{"type":"Point","coordinates":[-76.06581444146933,36.88563304205549]},"properties":{"OBJECTID":2114,"STREETS":"RIVER CT,FOREST HILLS CT"}},{"type":"Feature","geometry":{"type":"Point","coordinates":[-76.08641272649255,36.83529683148129]},"properties":{"OBJECTID":138,"STREETS":"DILLON DR,CONTINENTAL ST"}},{"type":"Feature","geometry":{"type":"Point","coordinates":[-76.0738958995643,36.773996370743816]},"properties":{"OBJECTID":1137,"STREETS":"RAMBLEWOODS CT,BLOOMFIELD DR"}},{"type":"Feature","geometry":{"type":"Point","coordinates":[-76.13493147430133,36.88753986078542]},"properties":{"OBJECTID":2115,"STREETS":"BISCAYNE DR,KEELER LN"}},{"type":"Feature","geometry":{"type":"Point","coordinates":[-76.03861248179072,36.7382737691395]},"properties":{"OBJECTID":139,"STREETS":"NAVARRE WAY,RENAISSANCE WAY,CACHET CT"}},{"type":"Feature","geometry":{"type":"Point","coordinates":[-76.1396687094094,36.886132014990025]},"properties":{"OBJECTID":1138,"STREETS":"LAKEVIEW DR,BROMFIELD AVE"}},{"type":"Feature","geometry":{"type":"Point","coordinates":[-76.15402302947155,36.84717796086447]},"properties":{"OBJECTID":2116,"STREETS":"SOUTHGATE AVE,JEANNE ST"}},{"type":"Feature","geometry":{"type":"Point","coordinates":[-76.14162008107355,36.82547305509207]},"properties":{"OBJECTID":140,"STREETS":"OPEN GREENS DR,KEMPSVILLE GREENS PKWY"}},{"type":"Feature","geometry":{"type":"Point","coordinates":[-76.15817216990246,36.78881452717472]},"properties":{"OBJECTID":1139,"STREETS":"OAK KNOLL CT,SWEET BAY LN,OAK KNOLL LN"}},{"type":"Feature","geometry":{"type":"Point","coordinates":[-76.10880340383251,36.80896367702176]},"properties":{"OBJECTID":2117,"STREETS":"DRYDEN ST,BURNS CT"}},{"type":"Feature","geometry":{"type":"Point","coordinates":[-75.92832214976973,36.70120994933986]},"properties":{"OBJECTID":141,"STREETS":"SANDPIPER RD,CORBETT RD"}},{"type":"Feature","geometry":{"type":"Point","coordinates":[-76.15480230720073,36.898942293056606]},"properties":{"OBJECTID":1140,"STREETS":"JACK FROST RD,LAKE SHORES RD"}},{"type":"Feature","geometry":{"type":"Point","coordinates":[-76.01597423863993,36.84346527989094]},"properties":{"OBJECTID":2118,"STREETS":"TWIN OAKS LN,GREEN OAKS DR"}},{"type":"Feature","geometry":{"type":"Point","coordinates":[-76.11813448496302,36.80562493500577]},"properties":{"OBJECTID":142,"STREETS":"WINDSOR OAKS BLVD,FOXWOOD DR"}},{"type":"Feature","geometry":{"type":"Point","coordinates":[-75.98513680688798,36.868524131884904]},"properties":{"OBJECTID":1141,"STREETS":"HOLLY RD,HOLLY CRES"}},{"type":"Feature","geometry":{"type":"Point","coordinates":[-76.10032933434766,36.85831791359546]},"properties":{"OBJECTID":2119,"STREETS":"KINGSGROVE CIR,PRINCE PHILLIP DR,S QUEENSGROVE CIR"}},{"type":"Feature","geometry":{"type":"Point","coordinates":[-76.04008771311662,36.7395353216741]},"properties":{"OBJECTID":143,"STREETS":"ESPLANADE DR,RENAISSANCE WAY"}},{"type":"Feature","geometry":{"type":"Point","coordinates":[-76.11722292581666,36.87261237987708]},"properties":{"OBJECTID":2120,"STREETS":"RICHARDSON RD,BRIDGEHAMPTON LN"}},{"type":"Feature","geometry":{"type":"Point","coordinates":[-76.02114846999777,36.84246182868981]},"properties":{"OBJECTID":1142,"STREETS":"VIRGINIA BEACH BLVD,FIRST COLONIAL RD"}},{"type":"Feature","geometry":{"type":"Point","coordinates":[-76.11888038848276,36.8062598192762]},"properties":{"OBJECTID":144,"STREETS":"FOXMOORE CT,FOXWOOD DR"}},{"type":"Feature","geometry":{"type":"Point","coordinates":[-76.03756931496369,36.86177086475474]},"properties":{"OBJECTID":2121,"STREETS":"ST MARSHALL DR,COMMODORE DR"}},{"type":"Feature","geometry":{"type":"Point","coordinates":[-76.09970361193818,36.908924817395274]},"properties":{"OBJECTID":1143,"STREETS":"DUPONT CIR,ROCKBRIDGE RD"}},{"type":"Feature","geometry":{"type":"Point","coordinates":[-76.12018846130059,36.8073786670068]},"properties":{"OBJECTID":145,"STREETS":"CHRISTA CT,FOXWOOD DR"}},{"type":"Feature","geometry":{"type":"Point","coordinates":[-76.059443275064,36.82374357244063]},"properties":{"OBJECTID":2122,"STREETS":"CENTRAL DR,PROGRESS LN"}},{"type":"Feature","geometry":{"type":"Point","coordinates":[-76.07260951387407,36.77835824253317]},"properties":{"OBJECTID":2123,"STREETS":"BEAGLE WAY,CERETA WAY"}},{"type":"Feature","geometry":{"type":"Point","coordinates":[-76.11952928562994,36.8068211878663]},"properties":{"OBJECTID":146,"STREETS":"FEDERAL CT,FOXWOOD DR"}},{"type":"Feature","geometry":{"type":"Point","coordinates":[-76.1320027787272,36.879709726863666]},"properties":{"OBJECTID":1144,"STREETS":"WAKEFIELD DR,CAPTAIN ADAMS CT"}},{"type":"Feature","geometry":{"type":"Point","coordinates":[-76.1743337107717,36.90960561486696]},"properties":{"OBJECTID":147,"STREETS":"GRAHAM RD,MURRAY RD"}},{"type":"Feature","geometry":{"type":"Point","coordinates":[-76.03172922087622,36.85683182669911]},"properties":{"OBJECTID":2124,"STREETS":"LONG BRIDGE LN,EASTERN SHORE RD"}},{"type":"Feature","geometry":{"type":"Point","coordinates":[-76.14475205910826,36.83401204009061]},"properties":{"OBJECTID":1145,"STREETS":"CITRINE AVE,COLTAN AVE"}},{"type":"Feature","geometry":{"type":"Point","coordinates":[-76.20111641323247,36.77408196876568]},"properties":{"OBJECTID":2125,"STREETS":"TARLETON OAKS DR,LUDINGTON DR"}},{"type":"Feature","geometry":{"type":"Point","coordinates":[-76.11462475816481,36.80269324591433]},"properties":{"OBJECTID":148,"STREETS":"WILMINGTON RD,WILMINGTON CT"}},{"type":"Feature","geometry":{"type":"Point","coordinates":[-75.98122845268244,36.808654237736654]},"properties":{"OBJECTID":1146,"STREETS":"CORNING CT,HUDSON DR"}},{"type":"Feature","geometry":{"type":"Point","coordinates":[-76.12374431928359,36.82164707099969]},"properties":{"OBJECTID":2126,"STREETS":"HOLLAND RD,COMMUTER DR"}},{"type":"Feature","geometry":{"type":"Point","coordinates":[-76.21185873060635,36.82837744273853]},"properties":{"OBJECTID":149,"STREETS":"BROCKMAN AVE,SALE DR"}},{"type":"Feature","geometry":{"type":"Point","coordinates":[-75.98122861617584,36.80865420680986]},"properties":{"OBJECTID":1147,"STREETS":"CORNING CT,HUDSON DR"}},{"type":"Feature","geometry":{"type":"Point","coordinates":[-75.98308450321348,36.81563746504384]},"properties":{"OBJECTID":2127,"STREETS":"JEFFERSON AVE,C ST"}},{"type":"Feature","geometry":{"type":"Point","coordinates":[-76.16168449462847,36.898960467322425]},"properties":{"OBJECTID":150,"STREETS":"SHENSTONE CIR,SHENSTONE DR"}},{"type":"Feature","geometry":{"type":"Point","coordinates":[-76.09678437203074,36.90648518540597]},"properties":{"OBJECTID":1148,"STREETS":"TAZEWELL RD,PIEDMONT CIR"}},{"type":"Feature","geometry":{"type":"Point","coordinates":[-76.18111017367703,36.81365550205615]},"properties":{"OBJECTID":2128,"STREETS":"OLD PROVIDENCE RD,WHITEHURST LANDING RD"}},{"type":"Feature","geometry":{"type":"Point","coordinates":[-76.15555819010495,36.7808393251609]},"properties":{"OBJECTID":151,"STREETS":"EDDYSTONE DR,MARMORA RD"}},{"type":"Feature","geometry":{"type":"Point","coordinates":[-75.98520684763237,36.75544344026524]},"properties":{"OBJECTID":1149,"STREETS":"ALBUQUERQUE DR,VALLE RIO WAY"}},{"type":"Feature","geometry":{"type":"Point","coordinates":[-76.17474134199314,36.86474844212206]},"properties":{"OBJECTID":2129,"STREETS":"FANSHAW CT,HAMPSHIRE PL,CAXTON CT"}},{"type":"Feature","geometry":{"type":"Point","coordinates":[-76.0483124875337,36.85966389555061]},"properties":{"OBJECTID":152,"STREETS":"N WOLFSNARE DR,SIMPKINS LN"}},{"type":"Feature","geometry":{"type":"Point","coordinates":[-76.16228981000963,36.79235716989479]},"properties":{"OBJECTID":1150,"STREETS":"RAND CT,OLIVEWOOD CT"}},{"type":"Feature","geometry":{"type":"Point","coordinates":[-76.1435748402846,36.89492561953393]},"properties":{"OBJECTID":2130,"STREETS":"INDEPENDENCE BLVD,SHELL RD"}},{"type":"Feature","geometry":{"type":"Point","coordinates":[-76.14849916751693,36.774878825925676]},"properties":{"OBJECTID":153,"STREETS":"TESLIN CT,SOUTHAVEN DR"}},{"type":"Feature","geometry":{"type":"Point","coordinates":[-76.14285122576369,36.775927652863125]},"properties":{"OBJECTID":1151,"STREETS":"BEAVER FALLS CT,BEAVER POND CT,BEAVER CREEK CT"}},{"type":"Feature","geometry":{"type":"Point","coordinates":[-75.98386012300283,36.87290191330256]},"properties":{"OBJECTID":2131,"STREETS":"45TH ST,MYRTLE AVE"}},{"type":"Feature","geometry":{"type":"Point","coordinates":[-76.0050703880083,36.766475932307]},"properties":{"OBJECTID":154,"STREETS":"EPPINGTON DR,EPPINGTON CT"}},{"type":"Feature","geometry":{"type":"Point","coordinates":[-75.98085331711812,36.864934561650166]},"properties":{"OBJECTID":1152,"STREETS":"37TH ST,PACIFIC AVE"}},{"type":"Feature","geometry":{"type":"Point","coordinates":[-76.13785991385559,36.765898542728976]},"properties":{"OBJECTID":155,"STREETS":"MIDDLEWOOD CT,MIDDLEWOOD DR"}},{"type":"Feature","geometry":{"type":"Point","coordinates":[-76.02946665932295,36.854963928719386]},"properties":{"OBJECTID":2132,"STREETS":"WOLFSNARE RD,MAE PL"}},{"type":"Feature","geometry":{"type":"Point","coordinates":[-75.9793623616815,36.863675562551386]},"properties":{"OBJECTID":1153,"STREETS":"ATLANTIC AVE,35TH HALF ST"}},{"type":"Feature","geometry":{"type":"Point","coordinates":[-76.09649580890697,36.8439226992884]},"properties":{"OBJECTID":156,"STREETS":"ALCOTT RD,PELICAN LN"}},{"type":"Feature","geometry":{"type":"Point","coordinates":[-76.17105766721994,36.80518661171027]},"properties":{"OBJECTID":2133,"STREETS":"CHATMOSS DR,CHATMOSS CT"}},{"type":"Feature","geometry":{"type":"Point","coordinates":[-76.1772587717622,36.805023619192404]},"properties":{"OBJECTID":1154,"STREETS":"BIRNAM WOODS DR,DONALBAINE DR"}},{"type":"Feature","geometry":{"type":"Point","coordinates":[-76.00751931494874,36.76857894259837]},"properties":{"OBJECTID":157,"STREETS":"AGECROFT RD,EPPINGTON DR"}},{"type":"Feature","geometry":{"type":"Point","coordinates":[-76.0151070311158,36.84280675026015]},"properties":{"OBJECTID":2134,"STREETS":"VIRGINIA BEACH BLVD,OAKSHIRE DR,MIDDLE LN"}},{"type":"Feature","geometry":{"type":"Point","coordinates":[-76.01733824595725,36.83928760589088]},"properties":{"OBJECTID":1155,"STREETS":"NEW YORK AVE,WEST LN"}},{"type":"Feature","geometry":{"type":"Point","coordinates":[-76.1811575139942,36.8025189632189]},"properties":{"OBJECTID":158,"STREETS":"THOMPKINS LN,LARISSA CT"}},{"type":"Feature","geometry":{"type":"Point","coordinates":[-76.04593099532502,36.86890810508449]},"properties":{"OBJECTID":2135,"STREETS":"PARKSIDE PL,MEADOW LAKE RD,MISTY HOLLOW WAY"}},{"type":"Feature","geometry":{"type":"Point","coordinates":[-76.14340305814777,36.83293183461072]},"properties":{"OBJECTID":1156,"STREETS":"TRAVERTINE AVE,VERDE ST"}},{"type":"Feature","geometry":{"type":"Point","coordinates":[-75.999970901872,36.77340638363444]},"properties":{"OBJECTID":2136,"STREETS":"MULLHOLAND DR,CULVER LN"}},{"type":"Feature","geometry":{"type":"Point","coordinates":[-76.04270699926249,36.85496014427579]},"properties":{"OBJECTID":159,"STREETS":"WOLFSNARE RD,CAMBRIDGE DR"}},{"type":"Feature","geometry":{"type":"Point","coordinates":[-76.09025691852892,36.844502544631524]},"properties":{"OBJECTID":1157,"STREETS":"ALCOTT RD,KING JAMES CT"}},{"type":"Feature","geometry":{"type":"Point","coordinates":[-76.16160011497551,36.79720516318132]},"properties":{"OBJECTID":2137,"STREETS":"MONTROSE DR,MERTON CT"}},{"type":"Feature","geometry":{"type":"Point","coordinates":[-76.11657350495169,36.804423311385975]},"properties":{"OBJECTID":160,"STREETS":"FOXWOOD CT,FOXWOOD DR"}},{"type":"Feature","geometry":{"type":"Point","coordinates":[-76.14804290330264,36.780367828085744]},"properties":{"OBJECTID":1158,"STREETS":"SYDENHAM TRL,PLEASANT VALLEY RD"}},{"type":"Feature","geometry":{"type":"Point","coordinates":[-76.10258839786121,36.80380686125553]},"properties":{"OBJECTID":2138,"STREETS":"TEALWOOD DR,SEDLEY RD"}},{"type":"Feature","geometry":{"type":"Point","coordinates":[-76.08308829967957,36.781921724178424]},"properties":{"OBJECTID":1159,"STREETS":"DAM NECK RD,PURPOSE DR"}},{"type":"Feature","geometry":{"type":"Point","coordinates":[-76.00892171805792,36.76978839850073]},"properties":{"OBJECTID":161,"STREETS":"KENWOOD DR,KENWOOD CT"}},{"type":"Feature","geometry":{"type":"Point","coordinates":[-76.15868706446037,36.79475880155327]},"properties":{"OBJECTID":2139,"STREETS":"CLIFFONY DR,CANNICH CT"}},{"type":"Feature","geometry":{"type":"Point","coordinates":[-76.17153394140716,36.800229798362345]},"properties":{"OBJECTID":1160,"STREETS":"BONNEYDALE RD,ACREDALE RD"}},{"type":"Feature","geometry":{"type":"Point","coordinates":[-76.05185803914544,36.86273991903827]},"properties":{"OBJECTID":162,"STREETS":"GENERAL LONGSTREET DR,GENERAL STUART DR"}},{"type":"Feature","geometry":{"type":"Point","coordinates":[-76.1768666463609,36.86659281706228]},"properties":{"OBJECTID":2140,"STREETS":"WEBLIN DR,DEVONSHIRE CT,CURRY CIR"}},{"type":"Feature","geometry":{"type":"Point","coordinates":[-76.01722456505635,36.84464017619956]},"properties":{"OBJECTID":2141,"STREETS":"WEST LN,HILL MEADOW DR"}},{"type":"Feature","geometry":{"type":"Point","coordinates":[-76.17310742866219,36.85802961508151]},"properties":{"OBJECTID":1161,"STREETS":"SUMMIT ARCH,SUMMIT CT"}},{"type":"Feature","geometry":{"type":"Point","coordinates":[-76.03224755957494,36.84614479550236]},"properties":{"OBJECTID":163,"STREETS":"KRISTE CT,SANDYVILLE DR"}},{"type":"Feature","geometry":{"type":"Point","coordinates":[-76.1698925262453,36.804243833029766]},"properties":{"OBJECTID":2142,"STREETS":"OLD KEMPSVILLE RD,OLIVE RD,CASTLE RD"}},{"type":"Feature","geometry":{"type":"Point","coordinates":[-76.09338947418037,36.847160044567616]},"properties":{"OBJECTID":1162,"STREETS":"EDINBURGH DR,BIG PINE DR"}},{"type":"Feature","geometry":{"type":"Point","coordinates":[-76.07704507494681,36.8275251999115]},"properties":{"OBJECTID":164,"STREETS":"ABBOT MUSE,LYME REGIS QUAY,RIVERS REACH"}},{"type":"Feature","geometry":{"type":"Point","coordinates":[-76.12566158910292,36.87444491415971]},"properties":{"OBJECTID":1163,"STREETS":"WISHART RD,BAILEYWICK DR"}},{"type":"Feature","geometry":{"type":"Point","coordinates":[-76.04745676407217,36.75714651825132]},"properties":{"OBJECTID":2143,"STREETS":"RAYBURN LN,FENWICK WAY"}},{"type":"Feature","geometry":{"type":"Point","coordinates":[-75.98300181868146,36.860992081617475]},"properties":{"OBJECTID":165,"STREETS":"33RD HALF ST,HOLLY RD"}},{"type":"Feature","geometry":{"type":"Point","coordinates":[-76.08528509197764,36.84032198112182]},"properties":{"OBJECTID":1164,"STREETS":"ROSEGATE CT,ROSEGATE PL"}},{"type":"Feature","geometry":{"type":"Point","coordinates":[-76.10433263149557,36.85061498490433]},"properties":{"OBJECTID":166,"STREETS":"HARTON CIR,HARTON RD"}},{"type":"Feature","geometry":{"type":"Point","coordinates":[-76.16185307966121,36.797465085263475]},"properties":{"OBJECTID":2144,"STREETS":"MALDON CIR,MONTROSE DR"}},{"type":"Feature","geometry":{"type":"Point","coordinates":[-75.93018431692951,36.708792828959524]},"properties":{"OBJECTID":1165,"STREETS":"SANDFIDDLER RD,MOLLY COOPER RD"}},{"type":"Feature","geometry":{"type":"Point","coordinates":[-76.14196064946574,36.76944132368158]},"properties":{"OBJECTID":167,"STREETS":"STUMPY LAKE LN,STUMPY LAKE CT,GAINES MILL DR"}},{"type":"Feature","geometry":{"type":"Point","coordinates":[-76.02750689829237,36.8533635509577]},"properties":{"OBJECTID":2145,"STREETS":"MABLE LN,JOSEPH PL"}},{"type":"Feature","geometry":{"type":"Point","coordinates":[-76.11681005831545,36.866989100889235]},"properties":{"OBJECTID":1166,"STREETS":"DUCKING POINT TRL,WHEELGATE LN"}},{"type":"Feature","geometry":{"type":"Point","coordinates":[-76.15047100639649,36.88960072306603]},"properties":{"OBJECTID":168,"STREETS":"MADEIRA RD,MAHARIS RD"}},{"type":"Feature","geometry":{"type":"Point","coordinates":[-76.04680159758261,36.869698842842936]},"properties":{"OBJECTID":2146,"STREETS":"SHADOWLAKE CT,MEADOW LAKE RD,MOSSY HOLLOW PL"}},{"type":"Feature","geometry":{"type":"Point","coordinates":[-76.15417116166189,36.8420739648495]},"properties":{"OBJECTID":1167,"STREETS":"SOUTHGATE AVE,CLEVELAND ST"}},{"type":"Feature","geometry":{"type":"Point","coordinates":[-76.17744458738039,36.810644640669885]},"properties":{"OBJECTID":2147,"STREETS":"BIRNAM LNDG,WHITEHURST LANDING RD"}},{"type":"Feature","geometry":{"type":"Point","coordinates":[-76.1049524097528,36.90766797793558]},"properties":{"OBJECTID":169,"STREETS":"SHORE DR,POWHATAN AVE,OCEAN TIDES DR"}},{"type":"Feature","geometry":{"type":"Point","coordinates":[-76.182794635209,36.80978091368278]},"properties":{"OBJECTID":1168,"STREETS":"HILLVIEW BLVD,HILLVIEW CT"}},{"type":"Feature","geometry":{"type":"Point","coordinates":[-75.97884498418013,36.755537472602775]},"properties":{"OBJECTID":2148,"STREETS":"PEREZ WAY,PEREZ CT"}},{"type":"Feature","geometry":{"type":"Point","coordinates":[-76.0294688610937,36.61759654802265]},"properties":{"OBJECTID":170,"STREETS":"CAMDEN CT,WILLIAMS FARM RD"}},{"type":"Feature","geometry":{"type":"Point","coordinates":[-76.15616361328397,36.843767336250565]},"properties":{"OBJECTID":1169,"STREETS":"ADMIRAL WRIGHT RD,JERSEY AVE"}},{"type":"Feature","geometry":{"type":"Point","coordinates":[-76.10116974602518,36.80266071413368]},"properties":{"OBJECTID":2149,"STREETS":"TIMBERHILL PL,NORTHWOOD DR"}},{"type":"Feature","geometry":{"type":"Point","coordinates":[-76.15030624728854,36.83301168884608]},"properties":{"OBJECTID":171,"STREETS":"GREAT LAKES DR,VINDALE DR"}},{"type":"Feature","geometry":{"type":"Point","coordinates":[-76.06393332884019,36.76575187492545]},"properties":{"OBJECTID":1170,"STREETS":"PLEASANT ACRES DR,SAW MILL CT"}},{"type":"Feature","geometry":{"type":"Point","coordinates":[-75.98103824699746,36.87058901220887]},"properties":{"OBJECTID":2150,"STREETS":"OCEAN FRONT AVE,42ND ST"}},{"type":"Feature","geometry":{"type":"Point","coordinates":[-76.02880186918178,36.67359618641925]},"properties":{"OBJECTID":172,"STREETS":"VAUGHAN RD,PUNGO RIDGE CT"}},{"type":"Feature","geometry":{"type":"Point","coordinates":[-76.20273200901646,36.826626732240406]},"properties":{"OBJECTID":1171,"STREETS":"RIVERTON PT,COPPER KETTLE DR"}},{"type":"Feature","geometry":{"type":"Point","coordinates":[-76.15216258348383,36.90226338417891]},"properties":{"OBJECTID":2151,"STREETS":"FRIZZELL DR,MOSBY RD"}},{"type":"Feature","geometry":{"type":"Point","coordinates":[-76.10265663658515,36.84923753208537]},"properties":{"OBJECTID":173,"STREETS":"VIRGINIUS DR,SWEENEY RD"}},{"type":"Feature","geometry":{"type":"Point","coordinates":[-75.9910869428011,36.87371731216039]},"properties":{"OBJECTID":1172,"STREETS":"CRYSTAL LAKE DR,GOLF LN"}},{"type":"Feature","geometry":{"type":"Point","coordinates":[-76.04684513533117,36.75667208584209]},"properties":{"OBJECTID":2152,"STREETS":"KNOX CT,FENWICK WAY"}},{"type":"Feature","geometry":{"type":"Point","coordinates":[-76.06325187674713,36.81590317996405]},"properties":{"OBJECTID":174,"STREETS":"INTERNATIONAL PKWY,SEAHAWK CIR"}},{"type":"Feature","geometry":{"type":"Point","coordinates":[-75.9924513426822,36.874900482446925]},"properties":{"OBJECTID":1173,"STREETS":"BAY COLONY DR,CEDAR POINT DR"}},{"type":"Feature","geometry":{"type":"Point","coordinates":[-76.15709912600737,36.849961085077]},"properties":{"OBJECTID":2153,"STREETS":"WEAVER DR,DUNWAY CT"}},{"type":"Feature","geometry":{"type":"Point","coordinates":[-76.14431421754382,36.77147473433569]},"properties":{"OBJECTID":175,"STREETS":"ARCHDALE DR,ARCHDALE CT"}},{"type":"Feature","geometry":{"type":"Point","coordinates":[-76.20234870057966,36.769899081878705]},"properties":{"OBJECTID":1174,"STREETS":"FORT BELVOIR DR,FORT BELVOIR CT"}},{"type":"Feature","geometry":{"type":"Point","coordinates":[-76.08617179474008,36.84652304678512]},"properties":{"OBJECTID":2154,"STREETS":"COURTNEY ARCH,PHILBATE TER"}},{"type":"Feature","geometry":{"type":"Point","coordinates":[-76.04634553189604,36.8581489046318]},"properties":{"OBJECTID":176,"STREETS":"EARL OF CHESTERFIELD LN,EARL OF BALFON CT,EARL OF BALFON CIR"}},{"type":"Feature","geometry":{"type":"Point","coordinates":[-75.98280829641644,36.87211993000918]},"properties":{"OBJECTID":2155,"STREETS":"44TH ST,ATLANTIC AVE"}},{"type":"Feature","geometry":{"type":"Point","coordinates":[-76.11672793612881,36.81049265650239]},"properties":{"OBJECTID":1175,"STREETS":"MISSION AVE,POINT WAY"}},{"type":"Feature","geometry":{"type":"Point","coordinates":[-76.07665011536079,36.82726427612493]},"properties":{"OBJECTID":177,"STREETS":"GLENN REGIS WAY,LYME REGIS QUAY"}},{"type":"Feature","geometry":{"type":"Point","coordinates":[-76.19796962826693,36.771569945832766]},