{"type":"FeatureCollection","features":[{"type":"Feature","geometry":{"type":"Point","coordinates":[-76.5475,37.4103]},"properties":{"name":"ST RT 616 .2KM W","styleUrl":"#towerStyle","styleHash":"1d01e409","county":"Gloucester County","lat":37.4103,"lng":-76.5475,"structure_type":null,"structure_name":null,"structure_address":"ST RT 616 .2KM W","height":86.6,"base_elevation":20.583072,"structure_owner_name":"WXGM INC","structure_manager_name":null,"data_source":"FCC: Antenna Structure Registration (GIS)"}},{"type":"Feature","geometry":{"type":"Point","coordinates":[-76.4923,37.380299]},"properties":{"name":"ON RT 628 3 MI SE","styleUrl":"#towerStyle","styleHash":"1d01e409","county":"Gloucester County","lat":37.380299,"lng":-76.4923,"structure_type":null,"structure_name":null,"structure_address":"ON RT 628 3 MI SE","height":102.4,"base_elevation":4.527275,"structure_owner_name":"CROWN CASTLE GT COMPANY LLC","structure_manager_name":null,"data_source":"FCC: Antenna Structure Registration (GIS)"}},{"type":"Feature","geometry":{"type":"Point","coordinates":[-76.4953,37.2794]},"properties":{"name":"7611 Guinea Road","styleUrl":"#towerStyle","styleHash":"1d01e409","county":"Gloucester County","lat":37.2794,"lng":-76.4953,"structure_type":null,"structure_name":null,"structure_address":"7611 Guinea Road","height":59.4,"base_elevation":2.381467,"structure_owner_name":"Alltel Communications, LLC","structure_manager_name":null,"data_source":"FCC: Antenna Structure Registration (GIS)"}},{"type":"Feature","geometry":{"type":"Point","coordinates":[-76.5072,37.3408]},"properties":{"name":"SR 614 NEAR FEATHERBED LANE","styleUrl":"#towerStyle","styleHash":"1d01e409","county":"Gloucester County","lat":37.3408,"lng":-76.5072,"structure_type":null,"structure_name":null,"structure_address":"SR 614 NEAR FEATHERBED LANE","height":91.4,"base_elevation":6.453139,"structure_owner_name":"Alltel Communications, LLC","structure_manager_name":null,"data_source":"FCC: Antenna Structure Registration (GIS)"}},{"type":"Feature","geometry":{"type":"Point","coordinates":[-76.5644,37.5028]},"properties":{"name":"RT 607 AT BUCANNON","styleUrl":"#towerStyle","styleHash":"1d01e409","county":"Gloucester County","lat":37.5028,"lng":-76.5644,"structure_type":null,"structure_name":null,"structure_address":"RT 607 AT BUCANNON","height":91.4,"base_elevation":36.365177,"structure_owner_name":"Alltel Communications, LLC","structure_manager_name":null,"data_source":"FCC: Antenna Structure Registration (GIS)"}},{"type":"Feature","geometry":{"type":"Point","coordinates":[-76.5536,37.4225]},"properties":{"name":"5845 Crany Creek Drive","styleUrl":"#towerStyle","styleHash":"1d01e409","county":"Gloucester County","lat":37.4225,"lng":-76.5536,"structure_type":null,"structure_name":null,"structure_address":"5845 Crany Creek Drive","height":68.6,"base_elevation":24.11322,"structure_owner_name":"Alltel Communications, LLC","structure_manager_name":null,"data_source":"FCC: Antenna Structure Registration (GIS)"}},{"type":"Feature","geometry":{"type":"Point","coordinates":[-76.5008,37.250299]},"properties":{"name":"Us 17, 0.5km N Of York River","styleUrl":"#towerStyle","styleHash":"1d01e409","county":"Gloucester County","lat":37.250299,"lng":-76.5008,"structure_type":"BANT","structure_name":null,"structure_address":"Us 17, 0.5km N Of York River","height":7,"base_elevation":34.218494,"structure_owner_name":"Virginia Department of Transportation","structure_manager_name":"Edward G Roach","data_source":"MPPDC"}},{"type":"Feature","geometry":{"type":"Point","coordinates":[-76.4997,37.259199]},"properties":{"name":"Int Of Rt 1250 & Rt 1261","styleUrl":"#towerStyle","styleHash":"1d01e409","county":"Gloucester County","lat":37.259199,"lng":-76.4997,"structure_type":"TANK","structure_name":null,"structure_address":"Int Of Rt 1250 & Rt 1261","height":31,"base_elevation":34.329278,"structure_owner_name":"Gloucester, County of","structure_manager_name":"Christine A Verre","data_source":"MPPDC"}},{"type":"Feature","geometry":{"type":"Point","coordinates":[-76.4997,37.259199]},"properties":{"name":"Int Of Rt 1250 And Rt 1261","styleUrl":"#towerStyle","styleHash":"1d01e409","county":"Gloucester County","lat":37.259199,"lng":-76.4997,"structure_type":"TANK","structure_name":null,"structure_address":"Int Of Rt 1250 And Rt 1261","height":31,"base_elevation":34.329278,"structure_owner_name":"Gloucester, County of","structure_manager_name":null,"data_source":"MPPDC"}},{"type":"Feature","geometry":{"type":"Point","coordinates":[-76.4955,37.267799]},"properties":{"name":" ","styleUrl":"#towerStyle","styleHash":"1d01e409","county":"Gloucester County","lat":37.267799,"lng":-76.4955,"structure_type":" ","structure_name":null,"structure_address":" ","height":0,"base_elevation":17.704882,"structure_owner_name":"The College Of William & Mary","structure_manager_name":null,"data_source":"MPPDC"}},{"type":"Feature","geometry":{"type":"Point","coordinates":[-76.4553,37.270299]},"properties":{"name":"Int Rt 216 And Rt 643","styleUrl":"#towerStyle","styleHash":"1d01e409","county":"Gloucester County","lat":37.270299,"lng":-76.4553,"structure_type":" ","structure_name":null,"structure_address":"Int Rt 216 And Rt 643","height":15,"base_elevation":5.588811,"structure_owner_name":"Gloucester, County of","structure_manager_name":"Edward G Roach","data_source":"MPPDC"}},{"type":"Feature","geometry":{"type":"Point","coordinates":[-76.4553,37.270299]},"properties":{"name":"Int Rt 216 And Rt 643","styleUrl":"#towerStyle","styleHash":"1d01e409","county":"Gloucester County","lat":37.270299,"lng":-76.4553,"structure_type":" ","structure_name":null,"structure_address":"Int Rt 216 And Rt 643","height":15,"base_elevation":5.588811,"structure_owner_name":"Gloucester, County of","structure_manager_name":null,"data_source":"MPPDC"}},{"type":"Feature","geometry":{"type":"Point","coordinates":[-76.4711,37.272499]},"properties":{"name":"2117 Belvin Lane","styleUrl":"#towerStyle","styleHash":"1d01e409","county":"Gloucester County","lat":37.272499,"lng":-76.4711,"structure_type":"TOWER","structure_name":null,"structure_address":"2117 Belvin Lane","height":61,"base_elevation":10.195538,"structure_owner_name":"Nextel Communications of The Mid Atlantic Inc","structure_manager_name":"Richard B Archer","data_source":"MPPDC"}},{"type":"Feature","geometry":{"type":"Point","coordinates":[-76.4708,37.272799]},"properties":{"name":"2117 Belvin Lane","styleUrl":"#towerStyle","styleHash":"1d01e409","county":"Gloucester County","lat":37.272799,"lng":-76.4708,"structure_type":"TOWER","structure_name":null,"structure_address":"2117 Belvin Lane","height":87,"base_elevation":10.062083,"structure_owner_name":"Nextel Communications of The Mid Atlantic Inc","structure_manager_name":"Bob  Pectelidis","data_source":"MPPDC"}},{"type":"Feature","geometry":{"type":"Point","coordinates":[-76.4711,37.273099]},"properties":{"name":"Belvin Pl .8 Mi E Int St Rts 16 & 641","styleUrl":"#towerStyle","styleHash":"1d01e409","county":"Gloucester County","lat":37.273099,"lng":-76.4711,"structure_type":"TOWER","structure_name":null,"structure_address":"Belvin Pl .8 Mi E Int St Rts 16 & 641","height":86.8,"base_elevation":10.091805,"structure_owner_name":"Crown Castle GT Company LLC","structure_manager_name":"Christine A Verre","data_source":"MPPDC"}},{"type":"Feature","geometry":{"type":"Point","coordinates":[-76.4953,37.279399]},"properties":{"name":"7611 Guinea Road","styleUrl":"#towerStyle","styleHash":"1d01e409","county":"Gloucester County","lat":37.279399,"lng":-76.4953,"structure_type":"MAST","structure_name":null,"structure_address":"7611 Guinea Road","height":59.4,"base_elevation":7.743575,"structure_owner_name":"Alltel Communications, LLC","structure_manager_name":null,"data_source":"MPPDC"}},{"type":"Feature","geometry":{"type":"Point","coordinates":[-76.4805,37.282499]},"properties":{"name":"Hwy 17, Pob 240","styleUrl":"#towerStyle","styleHash":"1d01e409","county":"Gloucester County","lat":37.282499,"lng":-76.4805,"structure_type":" ","structure_name":null,"structure_address":"Hwy 17, Pob 240","height":0,"base_elevation":4.330305,"structure_owner_name":"Burger Busters V, LLC","structure_manager_name":"Regulatory  Department","data_source":"MPPDC"}},{"type":"Feature","geometry":{"type":"Point","coordinates":[-76.5067,37.283299]},"properties":{"name":"Int Of Rt Us 17 And Rt 1216","styleUrl":"#towerStyle","styleHash":"1d01e409","county":"Gloucester County","lat":37.283299,"lng":-76.5067,"structure_type":" ","structure_name":null,"structure_address":"Int Of Rt Us 17 And Rt 1216","height":24,"base_elevation":29.225712,"structure_owner_name":"Gloucester, County of","structure_manager_name":"Regulatory  Department","data_source":"MPPDC"}},{"type":"Feature","geometry":{"type":"Point","coordinates":[-76.5067,37.283299]},"properties":{"name":"Near Int Rt Us 17 & Rt 1216","styleUrl":"#towerStyle","styleHash":"1d01e409","county":"Gloucester County","lat":37.283299,"lng":-76.5067,"structure_type":" ","structure_name":null,"structure_address":"Near Int Rt Us 17 & Rt 1216","height":24,"base_elevation":29.225712,"structure_owner_name":"Gloucester, County of","structure_manager_name":"Regulatory  Department","data_source":"MPPDC"}},{"type":"Feature","geometry":{"type":"Point","coordinates":[-76.5086,37.283599]},"properties":{"name":" ","styleUrl":"#towerStyle","styleHash":"1d01e409","county":"Gloucester County","lat":37.283599,"lng":-76.5086,"structure_type":" ","structure_name":null,"structure_address":" ","height":0,"base_elevation":28.914817,"structure_owner_name":"Virginia Department of Transportation","structure_manager_name":"Regulatory  Department","data_source":"MPPDC"}},{"type":"Feature","geometry":{"type":"Point","coordinates":[-76.5136,37.285799]},"properties":{"name":"Mararet Dr & Rt 305","styleUrl":"#towerStyle","styleHash":"1d01e409","county":"Gloucester County","lat":37.285799,"lng":-76.5136,"structure_type":"TOWER","structure_name":null,"structure_address":"Mararet Dr & Rt 305","height":148,"base_elevation":34.111522,"structure_owner_name":"Pinnacle Towers LLC","structure_manager_name":"Regulatory  Department","data_source":"MPPDC"}},{"type":"Feature","geometry":{"type":"Point","coordinates":[-76.5136,37.285799]},"properties":{"name":" ","styleUrl":"#towerStyle","styleHash":"1d01e409","county":"Gloucester County","lat":37.285799,"lng":-76.5136,"structure_type":" ","structure_name":null,"structure_address":" ","height":0,"base_elevation":34.111522,"structure_owner_name":"Tcs Materials, Inc.","structure_manager_name":null,"data_source":"MPPDC"}},{"type":"Feature","geometry":{"type":"Point","coordinates":[-76.5136,37.285799]},"properties":{"name":"Star Rt 1","styleUrl":"#towerStyle","styleHash":"1d01e409","county":"Gloucester County","lat":37.285799,"lng":-76.5136,"structure_type":" ","structure_name":null,"structure_address":"Star Rt 1","height":0,"base_elevation":34.111522,"structure_owner_name":"Nextel Communications of The Mid Atlantic Inc","structure_manager_name":null,"data_source":"MPPDC"}},{"type":"Feature","geometry":{"type":"Point","coordinates":[-76.5136,37.285799]},"properties":{"name":"Star Rt. 1","styleUrl":"#towerStyle","styleHash":"1d01e409","county":"Gloucester County","lat":37.285799,"lng":-76.5136,"structure_type":" ","structure_name":null,"structure_address":"Star Rt. 1","height":152,"base_elevation":34.111522,"structure_owner_name":"Buttner Holdings LLC","structure_manager_name":"John J Heimerl","data_source":"MPPDC"}},{"type":"Feature","geometry":{"type":"Point","coordinates":[-76.5144,37.286999]},"properties":{"name":"Rt 1305 .25 Mi S 1305 & 1304","styleUrl":"#towerStyle","styleHash":"1d01e409","county":"Gloucester County","lat":37.286999,"lng":-76.5144,"structure_type":" ","structure_name":null,"structure_address":"Rt 1305 .25 Mi S 1305 & 1304","height":146,"base_elevation":35.613093,"structure_owner_name":"Equidata Inc.","structure_manager_name":"Christine  Verre","data_source":"MPPDC"}},{"type":"Feature","geometry":{"type":"Point","coordinates":[-76.5136,37.291699]},"properties":{"name":" ","styleUrl":"#towerStyle","styleHash":"1d01e409","county":"Gloucester County","lat":37.291699,"lng":-76.5136,"structure_type":" ","structure_name":null,"structure_address":" ","height":0,"base_elevation":41.038508,"structure_owner_name":"Gloucester County Public Schools","structure_manager_name":"Regulatory  Department","data_source":"MPPDC"}},{"type":"Feature","geometry":{"type":"Point","coordinates":[-76.5134,37.293399]},"properties":{"name":"7087 Powhatan Drive","styleUrl":"#towerStyle","styleHash":"1d01e409","county":"Gloucester County","lat":37.293399,"lng":-76.5134,"structure_type":"TOWER","structure_name":null,"structure_address":"7087 Powhatan Drive","height":91.4,"base_elevation":34.715422,"structure_owner_name":"York, County of","structure_manager_name":"Jerri L Janjua","data_source":"MPPDC"}},{"type":"Feature","geometry":{"type":"Point","coordinates":[-76.5111,37.298299]},"properties":{"name":"Des Region Iii Rt 17 & Rt 1301","styleUrl":"#towerStyle","styleHash":"1d01e409","county":"Gloucester County","lat":37.298299,"lng":-76.5111,"structure_type":" ","structure_name":null,"structure_address":"Des Region Iii Rt 17 & Rt 1301","height":11,"base_elevation":30.781255,"structure_owner_name":"Virginia Department of Emergency Management","structure_manager_name":"Regulatory  Department","data_source":"MPPDC"}},{"type":"Feature","geometry":{"type":"Point","coordinates":[-76.51,37.308299]},"properties":{"name":"Rt 17","styleUrl":"#towerStyle","styleHash":"1d01e409","county":"Gloucester County","lat":37.308299,"lng":-76.51,"structure_type":"B","structure_name":null,"structure_address":"Rt 17","height":12,"base_elevation":12.880325,"structure_owner_name":"Hampton Roads Sanitation District","structure_manager_name":null,"data_source":"MPPDC"}},{"type":"Feature","geometry":{"type":"Point","coordinates":[-76.5217,37.310599]},"properties":{"name":"3239 Providence Rd","styleUrl":"#towerStyle","styleHash":"1d01e409","county":"Gloucester County","lat":37.310599,"lng":-76.5217,"structure_type":" ","structure_name":null,"structure_address":"3239 Providence Rd","height":12,"base_elevation":30.1195,"structure_owner_name":"Gloucester, County of","structure_manager_name":"Richard B Archer","data_source":"MPPDC"}},{"type":"Feature","geometry":{"type":"Point","coordinates":[-76.5217,37.310599]},"properties":{"name":"3239 Providence","styleUrl":"#towerStyle","styleHash":"1d01e409","county":"Gloucester County","lat":37.310599,"lng":-76.5217,"structure_type":" ","structure_name":null,"structure_address":"3239 Providence","height":12,"base_elevation":30.1195,"structure_owner_name":"Gloucester, County of","structure_manager_name":"FAA/FCC Compliance  ","data_source":"MPPDC"}},{"type":"Feature","geometry":{"type":"Point","coordinates":[-76.4278,37.314499]},"properties":{"name":"5.6 Mi Ne","styleUrl":"#towerStyle","styleHash":"1d01e409","county":"Gloucester County","lat":37.314499,"lng":-76.4278,"structure_type":"TOWER","structure_name":null,"structure_address":"5.6 Mi Ne","height":0,"base_elevation":0,"structure_owner_name":"Nextel License Holdings 3, Inc.","structure_manager_name":"C W Eure","data_source":"MPPDC"}},{"type":"Feature","geometry":{"type":"Point","coordinates":[-76.5236,37.338099]},"properties":{"name":"Norfolk","styleUrl":"#towerStyle","styleHash":"1d01e409","county":"Gloucester County","lat":37.338099,"lng":-76.5236,"structure_type":"TOWER","structure_name":null,"structure_address":"Norfolk","height":56,"base_elevation":48.983278,"structure_owner_name":"Nextel Communications of The Mid Atlantic Inc","structure_manager_name":"Regulatory  Department","data_source":"MPPDC"}},{"type":"Feature","geometry":{"type":"Point","coordinates":[-76.5072,37.340799]},"properties":{"name":"Sr 614 Near Featherbed Lane","styleUrl":"#towerStyle","styleHash":"1d01e409","county":"Gloucester County","lat":37.340799,"lng":-76.5072,"structure_type":"TOWER","structure_name":null,"structure_address":"Sr 614 Near Featherbed Lane","height":91.4,"base_elevation":21.220489,"structure_owner_name":"Alltel Communications, LLC","structure_manager_name":null,"data_source":"MPPDC"}},{"type":"Feature","geometry":{"type":"Point","coordinates":[-76.5272,37.358599]},"properties":{"name":".7 Mi W Of White Marsh Va","styleUrl":"#towerStyle","styleHash":"1d01e409","county":"Gloucester County","lat":37.358599,"lng":-76.5272,"structure_type":"TANK","structure_name":null,"structure_address":".7 Mi W Of White Marsh Va","height":55,"base_elevation":60.586491,"structure_owner_name":"Gloucester, County of","structure_manager_name":"Monica G Gambino","data_source":"MPPDC"}},{"type":"Feature","geometry":{"type":"Point","coordinates":[-76.5272,37.358599]},"properties":{"name":".7 Mi Nw Of White Marsh Va","styleUrl":"#towerStyle","styleHash":"1d01e409","county":"Gloucester County","lat":37.358599,"lng":-76.5272,"structure_type":"TANK","structure_name":null,"structure_address":".7 Mi Nw Of White Marsh Va","height":55,"base_elevation":60.586491,"structure_owner_name":"Gloucester, County of","structure_manager_name":null,"data_source":"MPPDC"}},{"type":"Feature","geometry":{"type":"Point","coordinates":[-76.5272,37.358599]},"properties":{"name":".7 Mi Nw Of White Marsh","styleUrl":"#towerStyle","styleHash":"1d01e409","county":"Gloucester County","lat":37.358599,"lng":-76.5272,"structure_type":"TANK","structure_name":null,"structure_address":".7 Mi Nw Of White Marsh","height":55,"base_elevation":60.586491,"structure_owner_name":"Gloucester, County of","structure_manager_name":null,"data_source":"MPPDC"}},{"type":"Feature","geometry":{"type":"Point","coordinates":[-76.5272,37.364399]},"properties":{"name":" ","styleUrl":"#towerStyle","styleHash":"1d01e409","county":"Gloucester County","lat":37.364399,"lng":-76.5272,"structure_type":" ","structure_name":null,"structure_address":" ","height":0,"base_elevation":73.984389,"structure_owner_name":"Roadview Container Nursery","structure_manager_name":"Monica G Gambino","data_source":"MPPDC"}},{"type":"Feature","geometry":{"type":"Point","coordinates":[-76.5325,37.367199]},"properties":{"name":"6000 Industrial Dr","styleUrl":"#towerStyle","styleHash":"1d01e409","county":"Gloucester County","lat":37.367199,"lng":-76.5325,"structure_type":"B","structure_name":null,"structure_address":"6000 Industrial Dr","height":12,"base_elevation":70.481582,"structure_owner_name":"Industrial Resource Technologies Inc","structure_manager_name":"Monica G Gambino","data_source":"MPPDC"}},{"type":"Feature","geometry":{"type":"Point","coordinates":[-76.5314,37.369999]},"properties":{"name":"E Side Hwy 17 3.7 Mi S","styleUrl":"#towerStyle","styleHash":"1d01e409","county":"Gloucester County","lat":37.369999,"lng":-76.5314,"structure_type":"SILO","structure_name":null,"structure_address":"E Side Hwy 17 3.7 Mi S","height":26,"base_elevation":71.733461,"structure_owner_name":"Finney, John L","structure_manager_name":"Monica G Gambino","data_source":"MPPDC"}},{"type":"Feature","geometry":{"type":"Point","coordinates":[-76.4923,37.380299]},"properties":{"name":"On Rt 628 3 Mi Se","styleUrl":"#towerStyle","styleHash":"1d01e409","county":"Gloucester County","lat":37.380299,"lng":-76.4923,"structure_type":"TOWER","structure_name":null,"structure_address":"On Rt 628 3 Mi Se","height":102.4,"base_elevation":13.867974,"structure_owner_name":"Crown Castle GT Company LLC","structure_manager_name":null,"data_source":"MPPDC"}},{"type":"Feature","geometry":{"type":"Point","coordinates":[-76.5311,37.384699]},"properties":{"name":"6267 Professional Drive","styleUrl":"#towerStyle","styleHash":"1d01e409","county":"Gloucester County","lat":37.384699,"lng":-76.5311,"structure_type":"B","structure_name":null,"structure_address":"6267 Professional Drive","height":14,"base_elevation":78.143741,"structure_owner_name":"Wxgm, Inc.","structure_manager_name":"Christine A Verre","data_source":"MPPDC"}},{"type":"Feature","geometry":{"type":"Point","coordinates":[-76.5308,37.384899]},"properties":{"name":"6267 Professional Dr","styleUrl":"#towerStyle","styleHash":"1d01e409","county":"Gloucester County","lat":37.384899,"lng":-76.5308,"structure_type":" ","structure_name":null,"structure_address":"6267 Professional Dr","height":14,"base_elevation":78.143741,"structure_owner_name":"Wxgm, Inc.","structure_manager_name":"Christine A Verre","data_source":"MPPDC"}},{"type":"Feature","geometry":{"type":"Point","coordinates":[-76.5238,37.391799]},"properties":{"name":"6584 Beehive Drive","styleUrl":"#towerStyle","styleHash":"1d01e409","county":"Gloucester County","lat":37.391799,"lng":-76.5238,"structure_type":"TOWER","structure_name":null,"structure_address":"6584 Beehive Drive","height":91.4,"base_elevation":73.306873,"structure_owner_name":"York, County of","structure_manager_name":"Christine A Verre","data_source":"MPPDC"}},{"type":"Feature","geometry":{"type":"Point","coordinates":[-76.5219,37.394699]},"properties":{"name":"Rt 17 & 17 Bus","styleUrl":"#towerStyle","styleHash":"1d01e409","county":"Gloucester County","lat":37.394699,"lng":-76.5219,"structure_type":"POLE","structure_name":null,"structure_address":"Rt 17 & 17 Bus","height":0,"base_elevation":53.195114,"structure_owner_name":"Virginia, Commonwealth of","structure_manager_name":null,"data_source":"MPPDC"}},{"type":"Feature","geometry":{"type":"Point","coordinates":[-76.5528,37.404199]},"properties":{"name":"Rt 17 I Mi S","styleUrl":"#towerStyle","styleHash":"1d01e409","county":"Gloucester County","lat":37.404199,"lng":-76.5528,"structure_type":"POLE","structure_name":null,"structure_address":"Rt 17 I Mi S","height":24,"base_elevation":31.527765,"structure_owner_name":"Middlesex Bottled Gas Inc","structure_manager_name":null,"data_source":"MPPDC"}},{"type":"Feature","geometry":{"type":"Point","coordinates":[-76.5422,37.408599]},"properties":{"name":"Cable Tv Head End","styleUrl":"#towerStyle","styleHash":"1d01e409","county":"Gloucester County","lat":37.408599,"lng":-76.5422,"structure_type":" ","structure_name":null,"structure_address":"Cable Tv Head End","height":49,"base_elevation":71.330496,"structure_owner_name":"Hello Pager Company Inc.","structure_manager_name":"Keith L Massie","data_source":"MPPDC"}},{"type":"Feature","geometry":{"type":"Point","coordinates":[-76.5122,37.408599]},"properties":{"name":"Rt 621 Off Rt 17 .5 Mi Se","styleUrl":"#towerStyle","styleHash":"1d01e409","county":"Gloucester County","lat":37.408599,"lng":-76.5122,"structure_type":"UPOLE","structure_name":null,"structure_address":"Rt 621 Off Rt 17 .5 Mi Se","height":20,"base_elevation":53.965626,"structure_owner_name":"Virginia, Commonwealth of","structure_manager_name":"Regulatory  Department","data_source":"MPPDC"}},{"type":"Feature","geometry":{"type":"Point","coordinates":[-76.6022,37.409399]},"properties":{"name":"Int Of Rt 606 And Rt 615","styleUrl":"#towerStyle","styleHash":"1d01e409","county":"Gloucester County","lat":37.409399,"lng":-76.6022,"structure_type":" ","structure_name":null,"structure_address":"Int Of Rt 606 And Rt 615","height":21,"base_elevation":83.878816,"structure_owner_name":"Gloucester, County of","structure_manager_name":"Amanda V Fry","data_source":"MPPDC"}},{"type":"Feature","geometry":{"type":"Point","coordinates":[-76.6022,37.409399]},"properties":{"name":"Int Of Rt 605 And Rt 615","styleUrl":"#towerStyle","styleHash":"1d01e409","county":"Gloucester County","lat":37.409399,"lng":-76.6022,"structure_type":" ","structure_name":null,"structure_address":"Int Of Rt 605 And Rt 615","height":21,"base_elevation":83.878816,"structure_owner_name":"Gloucester, County of","structure_manager_name":"Ryan F Pearson","data_source":"MPPDC"}},{"type":"Feature","geometry":{"type":"Point","coordinates":[-76.5471,37.409799]},"properties":{"name":"Norfolk","styleUrl":"#towerStyle","styleHash":"1d01e409","county":"Gloucester County","lat":37.409799,"lng":-76.5471,"structure_type":"TOWER","structure_name":null,"structure_address":"Norfolk","height":56.4,"base_elevation":62.176417,"structure_owner_name":"Spectrasite Communications, Inc. through American Tower, Inc.","structure_manager_name":"John E Furlough","data_source":"MPPDC"}},{"type":"Feature","geometry":{"type":"Point","coordinates":[-76.5469,37.409899]},"properties":{"name":"Woody Road","styleUrl":"#towerStyle","styleHash":"1d01e409","county":"Gloucester County","lat":37.409899,"lng":-76.5469,"structure_type":"POLE","structure_name":null,"structure_address":"Woody Road","height":59.7,"base_elevation":60.895678,"structure_owner_name":"STC Two LLC","structure_manager_name":"Christine A Verre","data_source":"MPPDC"}},{"type":"Feature","geometry":{"type":"Point","coordinates":[-76.5475,37.410299]},"properties":{"name":"St Rt 616 .2km W","styleUrl":"#towerStyle","styleHash":"1d01e409","county":"Gloucester County","lat":37.410299,"lng":-76.5475,"structure_type":"TOWER","structure_name":null,"structure_address":"St Rt 616 .2km W","height":86.6,"base_elevation":67.141412,"structure_owner_name":"Wxgm, Inc.","structure_manager_name":"Christine A Verre","data_source":"MPPDC"}},{"type":"Feature","geometry":{"type":"Point","coordinates":[-76.5133,37.412499]},"properties":{"name":"Dept Of Forestry Ofc Rt 629","styleUrl":"#towerStyle","styleHash":"1d01e409","county":"Gloucester County","lat":37.412499,"lng":-76.5133,"structure_type":"BMAST","structure_name":null,"structure_address":"Dept Of Forestry Ofc Rt 629","height":15,"base_elevation":12.993624,"structure_owner_name":"Virginia Department of Forestry","structure_manager_name":"LISA  NICOL","data_source":"MPPDC"}},{"type":"Feature","geometry":{"type":"Point","coordinates":[-76.5264,37.414199]},"properties":{"name":"Int Main St And Walker St","styleUrl":"#towerStyle","styleHash":"1d01e409","county":"Gloucester County","lat":37.414199,"lng":-76.5264,"structure_type":" ","structure_name":null,"structure_address":"Int Main St And Walker St","height":15,"base_elevation":71.609057,"structure_owner_name":"Gloucester, County of","structure_manager_name":"LISA  NICOL","data_source":"MPPDC"}},{"type":"Feature","geometry":{"type":"Point","coordinates":[-76.5264,37.414199]},"properties":{"name":"Main St Walker St","styleUrl":"#towerStyle","styleHash":"1d01e409","county":"Gloucester County","lat":37.414199,"lng":-76.5264,"structure_type":" ","structure_name":null,"structure_address":"Main St Walker St","height":15,"base_elevation":71.609057,"structure_owner_name":"Gloucester, County of","structure_manager_name":"LISA  NICOL","data_source":"MPPDC"}},{"type":"Feature","geometry":{"type":"Point","coordinates":[-76.5294,37.414399]},"properties":{"name":"6921 Walton Lane","styleUrl":"#towerStyle","styleHash":"1d01e409","county":"Gloucester County","lat":37.414399,"lng":-76.5294,"structure_type":" ","structure_name":null,"structure_address":"6921 Walton Lane","height":0,"base_elevation":72.724324,"structure_owner_name":"Home Depot U.S.A., Inc.","structure_manager_name":"Jerri L Janjua","data_source":"MPPDC"}},{"type":"Feature","geometry":{"type":"Point","coordinates":[-76.5272,37.414699]},"properties":{"name":"Rt 602 On Virginia St","styleUrl":"#towerStyle","styleHash":"1d01e409","county":"Gloucester County","lat":37.414699,"lng":-76.5272,"structure_type":"TANK","structure_name":null,"structure_address":"Rt 602 On Virginia St","height":29,"base_elevation":67.958293,"structure_owner_name":"Bay Aging","structure_manager_name":"Jerri L Janjua","data_source":"MPPDC"}},{"type":"Feature","geometry":{"type":"Point","coordinates":[-76.5183,37.415299]},"properties":{"name":"997 John Clayton Highway","styleUrl":"#towerStyle","styleHash":"1d01e409","county":"Gloucester County","lat":37.415299,"lng":-76.5183,"structure_type":"TANK","structure_name":null,"structure_address":"997 John Clayton Highway","height":36.5,"base_elevation":8.866654,"structure_owner_name":"Bay Aging","structure_manager_name":"Jerri L Janjua","data_source":"MPPDC"}},{"type":"Feature","geometry":{"type":"Point","coordinates":[-76.543,37.416699]},"properties":{"name":"Us 17 Gloucester Dist At Int Of Sr 619","styleUrl":"#towerStyle","styleHash":"1d01e409","county":"Gloucester County","lat":37.416699,"lng":-76.543,"structure_type":" ","structure_name":null,"structure_address":"Us 17 Gloucester Dist At Int Of Sr 619","height":45,"base_elevation":81.421897,"structure_owner_name":"Virginia Electric & Power Company","structure_manager_name":"Jerri L Janjua","data_source":"MPPDC"}},{"type":"Feature","geometry":{"type":"Point","coordinates":[-76.543,37.416699]},"properties":{"name":"Vepco Dist Ofc Int St Rt 619 & Us Rt 17","styleUrl":"#towerStyle","styleHash":"1d01e409","county":"Gloucester County","lat":37.416699,"lng":-76.543,"structure_type":" ","structure_name":null,"structure_address":"Vepco Dist Ofc Int St Rt 619 & Us Rt 17","height":45,"base_elevation":81.421897,"structure_owner_name":"Virginia Electric & Power Company","structure_manager_name":"Richard B Archer","data_source":"MPPDC"}},{"type":"Feature","geometry":{"type":"Point","coordinates":[-76.5433,37.416799]},"properties":{"name":"Gloucester Dist Ofc On Rt 17 At Int Of St Rt 619","styleUrl":"#towerStyle","styleHash":"1d01e409","county":"Gloucester County","lat":37.416799,"lng":-76.5433,"structure_type":"TOWER","structure_name":null,"structure_address":"Gloucester Dist Ofc On Rt 17 At Int Of St Rt 619","height":45,"base_elevation":80.291173,"structure_owner_name":"Virginia Electric & Power Company","structure_manager_name":null,"data_source":"MPPDC"}},{"type":"Feature","geometry":{"type":"Point","coordinates":[-76.5286,37.417699]},"properties":{"name":"Justice Drive","styleUrl":"#towerStyle","styleHash":"1d01e409","county":"Gloucester County","lat":37.417699,"lng":-76.5286,"structure_type":"TOWER","structure_name":null,"structure_address":"Justice Drive","height":57.9,"base_elevation":39.753066,"structure_owner_name":"York, County of","structure_manager_name":"Kathy S Brown","data_source":"MPPDC"}},{"type":"Feature","geometry":{"type":"Point","coordinates":[-76.6258,37.419699]},"properties":{"name":"4 Mi Nw Of Int Rt 17 Byp And Rt 17","styleUrl":"#towerStyle","styleHash":"1d01e409","county":"Gloucester County","lat":37.419699,"lng":-76.6258,"structure_type":"TOWER","structure_name":null,"structure_address":"4 Mi Nw Of Int Rt 17 Byp And Rt 17","height":57.9,"base_elevation":69.132195,"structure_owner_name":"York, County of","structure_manager_name":"Jerri L Janjua","data_source":"MPPDC"}},{"type":"Feature","geometry":{"type":"Point","coordinates":[-76.5425,37.419699]},"properties":{"name":"4 Mi Nw Of Int Of Us 17 & Bus 17","styleUrl":"#towerStyle","styleHash":"1d01e409","county":"Gloucester County","lat":37.419699,"lng":-76.5425,"structure_type":" ","structure_name":null,"structure_address":"4 Mi Nw Of Int Of Us 17 & Bus 17","height":55,"base_elevation":80.945848,"structure_owner_name":"Gloucester County Sheriff's Office","structure_manager_name":"Jerri L Janjua","data_source":"MPPDC"}},{"type":"Feature","geometry":{"type":"Point","coordinates":[-76.5425,37.419699]},"properties":{"name":"St Rt 17 Walter Reed Hospital","styleUrl":"#towerStyle","styleHash":"1d01e409","county":"Gloucester County","lat":37.419699,"lng":-76.5425,"structure_type":"TOWER","structure_name":null,"structure_address":"St Rt 17 Walter Reed Hospital","height":54,"base_elevation":80.945848,"structure_owner_name":"Riverside Health System Inc","structure_manager_name":"Jerri L Janjua","data_source":"MPPDC"}},{"type":"Feature","geometry":{"type":"Point","coordinates":[-76.5425,37.419699]},"properties":{"name":"Walter Reed Hospital .4 Mi Nw Int Us Rt 17 & Bus 17","styleUrl":"#towerStyle","styleHash":"1d01e409","county":"Gloucester County","lat":37.419699,"lng":-76.5425,"structure_type":" ","structure_name":null,"structure_address":"Walter Reed Hospital .4 Mi Nw Int Us Rt 17 & Bus 17","height":0,"base_elevation":80.945848,"structure_owner_name":"Gloucester Volunteer Fire Department And Rescue Squad Inc","structure_manager_name":"Edward G Roach","data_source":"MPPDC"}},{"type":"Feature","geometry":{"type":"Point","coordinates":[-76.5425,37.419699]},"properties":{"name":"Rt 17 1 Mi From","styleUrl":"#towerStyle","styleHash":"1d01e409","county":"Gloucester County","lat":37.419699,"lng":-76.5425,"structure_type":" ","structure_name":null,"structure_address":"Rt 17 1 Mi From","height":0,"base_elevation":80.945848,"structure_owner_name":"Riverside Healthcare Services Inc","structure_manager_name":null,"data_source":"MPPDC"}},{"type":"Feature","geometry":{"type":"Point","coordinates":[-76.5427,37.419899]},"properties":{"name":"0.4 Mi Nw Intersection Us 17 & Bus 17","styleUrl":"#towerStyle","styleHash":"1d01e409","county":"Gloucester County","lat":37.419899,"lng":-76.5427,"structure_type":"TOWER","structure_name":null,"structure_address":"0.4 Mi Nw Intersection Us 17 & Bus 17","height":53.3,"base_elevation":81.204761,"structure_owner_name":"York, County of - HRPDC - Hospital System","structure_manager_name":"Monica G Gambino","data_source":"MPPDC"}},{"type":"Feature","geometry":{"type":"Point","coordinates":[-76.4542,37.420299]},"properties":{"name":" ","styleUrl":"#towerStyle","styleHash":"1d01e409","county":"Gloucester County","lat":37.420299,"lng":-76.4542,"structure_type":" ","structure_name":null,"structure_address":" ","height":0,"base_elevation":5.933407,"structure_owner_name":"Virginia Baptist Homes Inc. dba = The Chesapeake","structure_manager_name":"Amanda V Fry","data_source":"MPPDC"}},{"type":"Feature","geometry":{"type":"Point","coordinates":[-76.5436,37.420599]},"properties":{"name":".4 Mi Nw Of Int Of Us Rt 17 & Bus 17","styleUrl":"#towerStyle","styleHash":"1d01e409","county":"Gloucester County","lat":37.420599,"lng":-76.5436,"structure_type":"TOWER","structure_name":null,"structure_address":".4 Mi Nw Of Int Of Us Rt 17 & Bus 17","height":37,"base_elevation":81.250461,"structure_owner_name":"Gloucester, County of","structure_manager_name":null,"data_source":"MPPDC"}},{"type":"Feature","geometry":{"type":"Point","coordinates":[-76.5436,37.420599]},"properties":{"name":".4 Mi Nw Of Int Of Us Rt 17 & Bus 17","styleUrl":"#towerStyle","styleHash":"1d01e409","county":"Gloucester County","lat":37.420599,"lng":-76.5436,"structure_type":"TOWER","structure_name":null,"structure_address":".4 Mi Nw Of Int Of Us Rt 17 & Bus 17","height":37,"base_elevation":81.250461,"structure_owner_name":"Gloucester, County of","structure_manager_name":"Amanda V Fry","data_source":"MPPDC"}},{"type":"Feature","geometry":{"type":"Point","coordinates":[-76.5436,37.420599]},"properties":{"name":".4 Mi Nw Of Int Of Us Rt 17 & Bus 17","styleUrl":"#towerStyle","styleHash":"1d01e409","county":"Gloucester County","lat":37.420599,"lng":-76.5436,"structure_type":"TOWER","structure_name":null,"structure_address":".4 Mi Nw Of Int Of Us Rt 17 & Bus 17","height":55,"base_elevation":81.250461,"structure_owner_name":"Gloucester, County of","structure_manager_name":null,"data_source":"MPPDC"}},{"type":"Feature","geometry":{"type":"Point","coordinates":[-76.5436,37.420599]},"properties":{"name":".4 Mi Nw Of Int Of Us Rt 17 & Bus 17","styleUrl":"#towerStyle","styleHash":"1d01e409","county":"Gloucester County","lat":37.420599,"lng":-76.5436,"structure_type":"TOWER","structure_name":null,"structure_address":".4 Mi Nw Of Int Of Us Rt 17 & Bus 17","height":55,"base_elevation":81.250461,"structure_owner_name":"Gloucester, County of","structure_manager_name":null,"data_source":"MPPDC"}},{"type":"Feature","geometry":{"type":"Point","coordinates":[-76.5486,37.422199]},"properties":{"name":"5950 Craney Creek Dr","styleUrl":"#towerStyle","styleHash":"1d01e409","county":"Gloucester County","lat":37.422199,"lng":-76.5486,"structure_type":"POLE","structure_name":null,"structure_address":"5950 Craney Creek Dr","height":25.9,"base_elevation":78.719851,"structure_owner_name":"Cox Communications Hampton Roads LLC","structure_manager_name":null,"data_source":"MPPDC"}},{"type":"Feature","geometry":{"type":"Point","coordinates":[-76.5536,37.422499]},"properties":{"name":"5845 Crany Creek Drive","styleUrl":"#towerStyle","styleHash":"1d01e409","county":"Gloucester County","lat":37.422499,"lng":-76.5536,"structure_type":"TOWER","structure_name":null,"structure_address":"5845 Crany Creek Drive","height":68.6,"base_elevation":78.861425,"structure_owner_name":"Alltel Communications, LLC","structure_manager_name":null,"data_source":"MPPDC"}},{"type":"Feature","geometry":{"type":"Point","coordinates":[-76.5,37.424199]},"properties":{"name":" ","styleUrl":"#towerStyle","styleHash":"1d01e409","county":"Gloucester County","lat":37.424199,"lng":-76.5,"structure_type":" ","structure_name":null,"structure_address":" ","height":0,"base_elevation":41.780809,"structure_owner_name":"Gloucester, County of","structure_manager_name":null,"data_source":"MPPDC"}},{"type":"Feature","geometry":{"type":"Point","coordinates":[-76.5989,37.437499]},"properties":{"name":"Fire Tower Rt 17 & Rt 606","styleUrl":"#towerStyle","styleHash":"1d01e409","county":"Gloucester County","lat":37.437499,"lng":-76.5989,"structure_type":" ","structure_name":null,"structure_address":"Fire Tower Rt 17 & Rt 606","height":0,"base_elevation":87.322944,"structure_owner_name":"Virginia Department of Forestry","structure_manager_name":null,"data_source":"MPPDC"}},{"type":"Feature","geometry":{"type":"Point","coordinates":[-76.593899,37.4541]},"properties":{"name":"10271 George Washington Memorial Hwy (029474)","styleUrl":"#towerStyle","styleHash":"1d01e409","county":"Gloucester County","lat":37.4541,"lng":-76.593899,"structure_type":null,"structure_name":null,"structure_address":"10271 George Washington Memorial Hwy (029474)","height":59.7,"base_elevation":27.143199,"structure_owner_name":"American Towers, LLC.","structure_manager_name":null,"data_source":"FCC: Antenna Structure Registration (GIS)"}},{"type":"Feature","geometry":{"type":"Point","coordinates":[-76.5471,37.4098]},"properties":{"name":"7177 Woody Road (310435)","styleUrl":"#towerStyle","styleHash":"1d01e409","county":"Gloucester County","lat":37.4098,"lng":-76.5471,"structure_type":null,"structure_name":null,"structure_address":"7177 Woody Road (310435)","height":56.4,"base_elevation":18.608608,"structure_owner_name":"SpectraSite Communications, LLC. through American Towers, LLC.","structure_manager_name":null,"data_source":"FCC: Antenna Structure Registration (GIS)"}},{"type":"Feature","geometry":{"type":"Point","coordinates":[-76.5469,37.4099]},"properties":{"name":"Woody Road","styleUrl":"#towerStyle","styleHash":"1d01e409","county":"Gloucester County","lat":37.4099,"lng":-76.5469,"structure_type":null,"structure_name":null,"structure_address":"Woody Road","height":59.7,"base_elevation":19.20362,"structure_owner_name":"STC Two LLC","structure_manager_name":null,"data_source":"FCC: Antenna Structure Registration (GIS)"}},{"type":"Feature","geometry":{"type":"Point","coordinates":[-76.4711,37.2731]},"properties":{"name":"BELVIN PL .8 MI E INT ST RTS 16 & 641","styleUrl":"#towerStyle","styleHash":"1d01e409","county":"Gloucester County","lat":37.2731,"lng":-76.4711,"structure_type":null,"structure_name":null,"structure_address":"BELVIN PL .8 MI E INT ST RTS 16 & 641","height":86.8,"base_elevation":3.081236,"structure_owner_name":"CROWN CASTLE GT COMPANY LLC","structure_manager_name":null,"data_source":"FCC: Antenna Structure Registration (GIS)"}},{"type":"Feature","geometry":{"type":"Point","coordinates":[-76.528599,37.4177]},"properties":{"name":"Justice Drive","styleUrl":"#towerStyle","styleHash":"1d01e409","county":"Gloucester County","lat":37.4177,"lng":-76.528599,"structure_type":null,"structure_name":null,"structure_address":"Justice Drive","height":57.9,"base_elevation":12.026673,"structure_owner_name":"York County","structure_manager_name":null,"data_source":"FCC: Antenna Structure Registration (GIS)"}},{"type":"Feature","geometry":{"type":"Point","coordinates":[-76.5238,37.3918]},"properties":{"name":"6584 Beehive Drive","styleUrl":"#towerStyle","styleHash":"1d01e409","county":"Gloucester County","lat":37.3918,"lng":-76.5238,"structure_type":null,"structure_name":null,"structure_address":"6584 Beehive Drive","height":91.4,"base_elevation":22.363945,"structure_owner_name":"York County","structure_manager_name":null,"data_source":"FCC: Antenna Structure Registration (GIS)"}},{"type":"Feature","geometry":{"type":"Point","coordinates":[-76.6295,37.5143]},"properties":{"name":"12885 George Washington Memorial Hwy","styleUrl":"#towerStyle","styleHash":"1d01e409","county":"Gloucester County","lat":37.5143,"lng":-76.6295,"structure_type":null,"structure_name":null,"structure_address":"12885 George Washington Memorial Hwy","height":91.4,"base_elevation":33.373554,"structure_owner_name":"York County","structure_manager_name":null,"data_source":"FCC: Antenna Structure Registration (GIS)"}},{"type":"Feature","geometry":{"type":"Point","coordinates":[-76.5642,37.473]},"properties":{"name":"Beaver Dam Park, Farys Mill Rd","styleUrl":"#towerStyle","styleHash":"1d01e409","county":"Gloucester County","lat":37.473,"lng":-76.5642,"structure_type":null,"structure_name":null,"structure_address":"Beaver Dam Park, Farys Mill Rd","height":91.4,"base_elevation":18.394655,"structure_owner_name":"York County","structure_manager_name":null,"data_source":"FCC: Antenna Structure Registration (GIS)"}},{"type":"Feature","geometry":{"type":"Point","coordinates":[-76.513399,37.2934]},"properties":{"name":"7087 Powhatan Drive","styleUrl":"#towerStyle","styleHash":"1d01e409","county":"Gloucester County","lat":37.2934,"lng":-76.513399,"structure_type":null,"structure_name":null,"structure_address":"7087 Powhatan Drive","height":91.4,"base_elevation":10.822783,"structure_owner_name":"York County","structure_manager_name":null,"data_source":"FCC: Antenna Structure Registration (GIS)"}},{"type":"Feature","geometry":{"type":"Point","coordinates":[-76.5136,37.2858]},"properties":{"name":"MARARET DR & RT 305","styleUrl":"#towerStyle","styleHash":"1d01e409","county":"Gloucester County","lat":37.2858,"lng":-76.5136,"structure_type":null,"structure_name":null,"structure_address":"MARARET DR & RT 305","height":148,"base_elevation":10.337972,"structure_owner_name":"Pinnacle Towers LLC","structure_manager_name":null,"data_source":"FCC: Antenna Structure Registration (GIS)"}},{"type":"Feature","geometry":{"type":"Point","coordinates":[-76.6413,37.5323]},"properties":{"name":"Lees Neck Farm Road","styleUrl":"#towerStyle","styleHash":"1d01e409","county":"Gloucester County","lat":37.5323,"lng":-76.6413,"structure_type":null,"structure_name":null,"structure_address":"Lees Neck Farm Road","height":91.4,"base_elevation":32.905334,"structure_owner_name":"SBA Towers, Inc.","structure_manager_name":null,"data_source":"FCC: Antenna Structure Registration (GIS)"}},{"type":"Feature","geometry":{"type":"Point","coordinates":[-76.5294,37.4144]},"properties":{"name":"6921 Walton Lane","styleUrl":"#towerStyle","styleHash":"1d01e409","county":"Gloucester County","lat":37.4144,"lng":-76.5294,"structure_type":null,"structure_name":null,"structure_address":"6921 Walton Lane","height":0,"base_elevation":22.177719,"structure_owner_name":"HOME DEPOT U.S.A., INC.","structure_manager_name":null,"data_source":"FCC: Land Mobile - Private (GIS)"}},{"type":"Feature","geometry":{"type":"Point","coordinates":[-76.5,37.424199]},"properties":{"name":"Vertical Asset","styleUrl":"#towerStyle","styleHash":"1d01e409","county":"Gloucester County","lat":37.424199,"lng":-76.5,"structure_type":null,"structure_name":null,"structure_address":null,"height":0,"base_elevation":12.637234,"structure_owner_name":"GLOUCESTER, COUNTY OF","structure_manager_name":null,"data_source":"FCC: Land Mobile - Private (GIS)"}},{"type":"Feature","geometry":{"type":"Point","coordinates":[-76.5008,37.2503]},"properties":{"name":"US 17, 0.5KM N OF YORK RIVER","styleUrl":"#towerStyle","styleHash":"1d01e409","county":"Gloucester County","lat":37.2503,"lng":-76.5008,"structure_type":"BANT","structure_name":null,"structure_address":"US 17, 0.5KM N OF YORK RIVER","height":7,"base_elevation":10.382927,"structure_owner_name":"VIRGINIA, COMMONWEALTH OF, DEPT OF TRANSPORTATION","structure_manager_name":null,"data_source":"FCC: Land Mobile - Private (GIS)"}},{"type":"Feature","geometry":{"type":"Point","coordinates":[-76.6258,37.419699]},"properties":{"name":"4 MI NW OF INT RT 17 BYP AND RT 17","styleUrl":"#towerStyle","styleHash":"1d01e409","county":"Gloucester County","lat":37.419699,"lng":-76.6258,"structure_type":"TOWER","structure_name":null,"structure_address":"4 MI NW OF INT RT 17 BYP AND RT 17","height":57.9,"base_elevation":21.000774,"structure_owner_name":"YORK COUNTY","structure_manager_name":null,"data_source":"FCC: Land Mobile - Private (GIS)"}},{"type":"Feature","geometry":{"type":"Point","coordinates":[-76.5136,37.2858]},"properties":{"name":"Vertical Asset","styleUrl":"#towerStyle","styleHash":"1d01e409","county":"Gloucester County","lat":37.2858,"lng":-76.5136,"structure_type":null,"structure_name":null,"structure_address":null,"height":0,"base_elevation":10.337972,"structure_owner_name":"TCS MATERIALS, INC.","structure_manager_name":null,"data_source":"FCC: Land Mobile - Private (GIS)"}},{"type":"Feature","geometry":{"type":"Point","coordinates":[-76.5136,37.2858]},"properties":{"name":"Margaret Drive & Route 305","styleUrl":"#towerStyle","styleHash":"1d01e409","county":"Gloucester County","lat":37.2858,"lng":-76.5136,"structure_type":"TOWER","structure_name":null,"structure_address":"Margaret Drive & Route 305","height":153.6,"base_elevation":10.337972,"structure_owner_name":"TCS MATERIALS, INC.","structure_manager_name":null,"data_source":"FCC: Land Mobile - Private (GIS)"}},{"type":"Feature","geometry":{"type":"Point","coordinates":[-76.4805,37.2825]},"properties":{"name":"HWY 17, POB 240","styleUrl":"#towerStyle","styleHash":"1d01e409","county":"Gloucester County","lat":37.2825,"lng":-76.4805,"structure_type":null,"structure_name":null,"structure_address":"HWY 17, POB 240","height":0,"base_elevation":1.29986,"structure_owner_name":"BURGER BUSTERS V, LLC","structure_manager_name":null,"data_source":"FCC: Land Mobile - Private (GIS)"}},{"type":"Feature","geometry":{"type":"Point","coordinates":[-76.5183,37.4153]},"properties":{"name":"997 JOHN CLAYTON HIGHWAY","styleUrl":"#towerStyle","styleHash":"1d01e409","county":"Gloucester County","lat":37.4153,"lng":-76.5183,"structure_type":"TANK","structure_name":null,"structure_address":"997 JOHN CLAYTON HIGHWAY","height":36.5,"base_elevation":2.799999,"structure_owner_name":"Bay Aging","structure_manager_name":null,"data_source":"FCC: Land Mobile - Private (GIS)"}},{"type":"Feature","geometry":{"type":"Point","coordinates":[-76.5272,37.3644]},"properties":{"name":"Vertical Asset","styleUrl":"#towerStyle","styleHash":"1d01e409","county":"Gloucester County","lat":37.3644,"lng":-76.5272,"structure_type":null,"structure_name":null,"structure_address":null,"height":0,"base_elevation":22.53495,"structure_owner_name":"ROADVIEW CONTAINER NURSERY","structure_manager_name":null,"data_source":"FCC: Land Mobile - Private (GIS)"}},{"type":"Feature","geometry":{"type":"Point","coordinates":[-76.5989,37.4375]},"properties":{"name":"Vertical Asset","styleUrl":"#towerStyle","styleHash":"1d01e409","county":"Gloucester County","lat":37.4375,"lng":-76.5989,"structure_type":null,"structure_name":null,"structure_address":null,"height":0,"base_elevation":26.286893,"structure_owner_name":"Virginia Department of Forestry","structure_manager_name":null,"data_source":"FCC: Land Mobile - Private (GIS)"}},{"type":"Feature","geometry":{"type":"Point","coordinates":[-76.5436,37.4206]},"properties":{"name":".4 MI NW OF INT OF US RT 17 & BUS 17","styleUrl":"#towerStyle","styleHash":"1d01e409","county":"Gloucester County","lat":37.4206,"lng":-76.5436,"structure_type":"TOWER","structure_name":null,"structure_address":".4 MI NW OF INT OF US RT 17 & BUS 17","height":55,"base_elevation":24.475826,"structure_owner_name":"GLOUCESTER, COUNTY OF","structure_manager_name":null,"data_source":"FCC: Land Mobile - Private (GIS)"}},{"type":"Feature","geometry":{"type":"Point","coordinates":[-76.504399,37.5008]},"properties":{"name":"2401 G AVE","styleUrl":"#towerStyle","styleHash":"1d01e409","county":"Gloucester County","lat":37.5008,"lng":-76.504399,"structure_type":null,"structure_name":null,"structure_address":"2401 G AVE","height":0,"base_elevation":21.298435,"structure_owner_name":"HAMPTON ROADS SANITATION DISTRICT","structure_manager_name":null,"data_source":"FCC: Land Mobile - Private (GIS)"}},{"type":"Feature","geometry":{"type":"Point","coordinates":[-76.4955,37.2678]},"properties":{"name":"Vertical Asset","styleUrl":"#towerStyle","styleHash":"1d01e409","county":"Gloucester County","lat":37.2678,"lng":-76.4955,"structure_type":null,"structure_name":null,"structure_address":null,"height":0,"base_elevation":5.570682,"structure_owner_name":"THE COLLEGE OF WILLIAM & MARY","structure_manager_name":null,"data_source":"FCC: Land Mobile - Private (GIS)"}},{"type":"Feature","geometry":{"type":"Point","coordinates":[-76.5086,37.2836]},"properties":{"name":"Vertical Asset","styleUrl":"#towerStyle","styleHash":"1d01e409","county":"Gloucester County","lat":37.2836,"lng":-76.5086,"structure_type":null,"structure_name":null,"structure_address":null,"height":0,"base_elevation":8.776556,"structure_owner_name":"VIRGINIA, COMMONWEALTH OF, DEPT OF TRANSPORTATION","structure_manager_name":null,"data_source":"FCC: Land Mobile - Private (GIS)"}},{"type":"Feature","geometry":{"type":"Point","coordinates":[-76.543,37.4167]},"properties":{"name":"VEPCO DIST OFC INT ST RT 619 & US RT 17","styleUrl":"#towerStyle","styleHash":"1d01e409","county":"Gloucester County","lat":37.4167,"lng":-76.543,"structure_type":null,"structure_name":null,"structure_address":"VEPCO DIST OFC INT ST RT 619 & US RT 17","height":45,"base_elevation":24.683237,"structure_owner_name":"VIRGINIA ELECTRIC AND POWER COMPANY","structure_manager_name":null,"data_source":"FCC: Land Mobile - Private (GIS)"}},{"type":"Feature","geometry":{"type":"Point","coordinates":[-76.543,37.4167]},"properties":{"name":"US 17 GLOUCESTER DIST AT INT OF SR 619","styleUrl":"#towerStyle","styleHash":"1d01e409","county":"Gloucester County","lat":37.4167,"lng":-76.543,"structure_type":null,"structure_name":null,"structure_address":"US 17 GLOUCESTER DIST AT INT OF SR 619","height":45,"base_elevation":24.683237,"structure_owner_name":"VIRGINIA ELECTRIC AND POWER COMPANY","structure_manager_name":null,"data_source":"FCC: Land Mobile - Private (GIS)"}},{"type":"Feature","geometry":{"type":"Point","coordinates":[-76.5133,37.2856]},"properties":{"name":"MARGARET DR & RT 305","styleUrl":"#towerStyle","styleHash":"1d01e409","county":"Gloucester County","lat":37.2856,"lng":-76.5133,"structure_type":"TOWER","structure_name":null,"structure_address":"MARGARET DR & RT 305","height":154,"base_elevation":10.036355,"structure_owner_name":"GATELY COMMUNICATION CO","structure_manager_name":null,"data_source":"FCC: Land Mobile - Private (GIS)"}},{"type":"Feature","geometry":{"type":"Point","coordinates":[-76.5325,37.3672]},"properties":{"name":"6000 INDUSTRIAL DR","styleUrl":"#towerStyle","styleHash":"1d01e409","county":"Gloucester County","lat":37.3672,"lng":-76.5325,"structure_type":"B","structure_name":null,"structure_address":"6000 INDUSTRIAL DR","height":12,"base_elevation":21.425205,"structure_owner_name":"INDUSTRIAL RESOURCE TECHNOLOGIES INC","structure_manager_name":null,"data_source":"FCC: Land Mobile - Private (GIS)"}},{"type":"Feature","geometry":{"type":"Point","coordinates":[-76.5133,37.2856]},"properties":{"name":"RT 1305 25 MI S","styleUrl":"#towerStyle","styleHash":"1d01e409","county":"Gloucester County","lat":37.2856,"lng":-76.5133,"structure_type":"TOWER","structure_name":null,"structure_address":"RT 1305 25 MI S","height":154,"base_elevation":10.036355,"structure_owner_name":"COMMTRONICS OF VA INC","structure_manager_name":null,"data_source":"FCC: Land Mobile - Private (GIS)"}},{"type":"Feature","geometry":{"type":"Point","coordinates":[-76.5314,37.37]},"properties":{"name":"E SIDE HWY 17 3.7 MI S","styleUrl":"#towerStyle","styleHash":"1d01e409","county":"Gloucester County","lat":37.37,"lng":-76.5314,"structure_type":"SILO","structure_name":null,"structure_address":"E SIDE HWY 17 3.7 MI S","height":26,"base_elevation":21.302158,"structure_owner_name":"FINNEY, JOHN L","structure_manager_name":null,"data_source":"FCC: Land Mobile - Private (GIS)"}},{"type":"Feature","geometry":{"type":"Point","coordinates":[-76.552799,37.4042]},"properties":{"name":"RT 17 I MI S","styleUrl":"#towerStyle","styleHash":"1d01e409","county":"Gloucester County","lat":37.4042,"lng":-76.552799,"structure_type":"POLE","structure_name":null,"structure_address":"RT 17 I MI S","height":24,"base_elevation":9.43037,"structure_owner_name":"MIDDLESEX BOTTLED GAS INC","structure_manager_name":null,"data_source":"FCC: Land Mobile - Private (GIS)"}},{"type":"Feature","geometry":{"type":"Point","coordinates":[-76.5486,37.4222]},"properties":{"name":"5950 CRANEY CREEK DR","styleUrl":"#towerStyle","styleHash":"1d01e409","county":"Gloucester County","lat":37.4222,"lng":-76.5486,"structure_type":"POLE","structure_name":null,"structure_address":"5950 CRANEY CREEK DR","height":25.9,"base_elevation":24.013383,"structure_owner_name":"COX COMMUNICATIONS HAMPTON ROADS LLC","structure_manager_name":null,"data_source":"FCC: Land Mobile - Private (GIS)"}},{"type":"Feature","geometry":{"type":"Point","coordinates":[-76.6175,37.556399]},"properties":{"name":"3714 WASTE MANAGEMENT WAY","styleUrl":"#towerStyle","styleHash":"1d01e409","county":"Gloucester County","lat":37.556399,"lng":-76.6175,"structure_type":"B","structure_name":null,"structure_address":"3714 WASTE MANAGEMENT WAY","height":8,"base_elevation":24.224781,"structure_owner_name":"WASTE MANAGEMENT HOLDINGS INC.","structure_manager_name":null,"data_source":"FCC: Land Mobile - Private (GIS)"}},{"type":"Feature","geometry":{"type":"Point","coordinates":[-76.6169,37.556399]},"properties":{"name":"3714 WASTE MANAGEMENT WAY","styleUrl":"#towerStyle","styleHash":"1d01e409","county":"Gloucester County","lat":37.556399,"lng":-76.6169,"structure_type":"POLE","structure_name":null,"structure_address":"3714 WASTE MANAGEMENT WAY","height":15,"base_elevation":30.220512,"structure_owner_name":"WASTE MANAGEMENT HOLDINGS INC.","structure_manager_name":null,"data_source":"FCC: Land Mobile - Private (GIS)"}},{"type":"Feature","geometry":{"type":"Point","coordinates":[-76.6239,37.5642]},"properties":{"name":"Vertical Asset","styleUrl":"#towerStyle","styleHash":"1d01e409","county":"Gloucester County","lat":37.5642,"lng":-76.6239,"structure_type":null,"structure_name":null,"structure_address":null,"height":0,"base_elevation":33.650978,"structure_owner_name":"Commonwealth of Virginia","structure_manager_name":null,"data_source":"FCC: Land Mobile - Private (GIS)"}},{"type":"Feature","geometry":{"type":"Point","coordinates":[-76.5425,37.419699]},"properties":{"name":"RT 17 1 MI FROM","styleUrl":"#towerStyle","styleHash":"1d01e409","county":"Gloucester County","lat":37.419699,"lng":-76.5425,"structure_type":null,"structure_name":null,"structure_address":"RT 17 1 MI FROM","height":0,"base_elevation":24.653257,"structure_owner_name":"RIVERSIDE HEALTHCARE SERVICES INC","structure_manager_name":null,"data_source":"FCC: Land Mobile - Private (GIS)"}},{"type":"Feature","geometry":{"type":"Point","coordinates":[-76.4542,37.4203]},"properties":{"name":"Vertical Asset","styleUrl":"#towerStyle","styleHash":"1d01e409","county":"Gloucester County","lat":37.4203,"lng":-76.4542,"structure_type":null,"structure_name":null,"structure_address":null,"height":0,"base_elevation":1.83745,"structure_owner_name":"VIRGINIA BAPTIST HOMES INC DBA THE CHESAPEAKE","structure_manager_name":null,"data_source":"FCC: Land Mobile - Private (GIS)"}},{"type":"Feature","geometry":{"type":"Point","coordinates":[-76.6239,37.5642]},"properties":{"name":"RT 33","styleUrl":"#towerStyle","styleHash":"1d01e409","county":"Gloucester County","lat":37.5642,"lng":-76.6239,"structure_type":"B","structure_name":null,"structure_address":"RT 33","height":11,"base_elevation":33.650978,"structure_owner_name":"VIRGINIA, COMMONWEATLH OF","structure_manager_name":null,"data_source":"FCC: Land Mobile - Private (GIS)"}},{"type":"Feature","geometry":{"type":"Point","coordinates":[-76.51,37.3083]},"properties":{"name":"RT 17","styleUrl":"#towerStyle","styleHash":"1d01e409","county":"Gloucester County","lat":37.3083,"lng":-76.51,"structure_type":"B","structure_name":null,"structure_address":"RT 17","height":12,"base_elevation":3.882034,"structure_owner_name":"HAMPTON ROADS SANITATION DISTRICT","structure_manager_name":null,"data_source":"FCC: Land Mobile - Private (GIS)"}},{"type":"Feature","geometry":{"type":"Point","coordinates":[-76.5272,37.3586]},"properties":{"name":".7 MI NW OF WHITE MARSH","styleUrl":"#towerStyle","styleHash":"1d01e409","county":"Gloucester County","lat":37.3586,"lng":-76.5272,"structure_type":"TANK","structure_name":null,"structure_address":".7 MI NW OF WHITE MARSH","height":55,"base_elevation":18.530443,"structure_owner_name":"GLOUCESTER, COUNTY OF","structure_manager_name":null,"data_source":"FCC: Land Mobile - Private (GIS)"}},{"type":"Feature","geometry":{"type":"Point","coordinates":[-76.5436,37.4206]},"properties":{"name":".4 MI NW OF INT OF US RT 17 & BUS 17","styleUrl":"#towerStyle","styleHash":"1d01e409","county":"Gloucester County","lat":37.4206,"lng":-76.5436,"structure_type":"TOWER","structure_name":null,"structure_address":".4 MI NW OF INT OF US RT 17 & BUS 17","height":55,"base_elevation":24.475826,"structure_owner_name":"GLOUCESTER, COUNTY OF","structure_manager_name":null,"data_source":"FCC: Land Mobile - Private (GIS)"}},{"type":"Feature","geometry":{"type":"Point","coordinates":[-76.5425,37.419699]},"properties":{"name":"WALTER REED HOSPITAL .4 MI NW INT US RT 17 & BUS 17","styleUrl":"#towerStyle","styleHash":"1d01e409","county":"Gloucester County","lat":37.419699,"lng":-76.5425,"structure_type":null,"structure_name":null,"structure_address":"WALTER REED HOSPITAL .4 MI NW INT US RT 17 & BUS 17","height":0,"base_elevation":24.653257,"structure_owner_name":"GLOUCESTER VOLUNTEER FIRE DEPARTMENT AND RESCUE SQUAD INC","structure_manager_name":null,"data_source":"FCC: Land Mobile - Private (GIS)"}},{"type":"Feature","geometry":{"type":"Point","coordinates":[-76.5425,37.419699]},"properties":{"name":"ST RT 17 WALTER REED HOSPITAL","styleUrl":"#towerStyle","styleHash":"1d01e409","county":"Gloucester County","lat":37.419699,"lng":-76.5425,"structure_type":"TOWER","structure_name":null,"structure_address":"ST RT 17 WALTER REED HOSPITAL","height":54,"base_elevation":24.653257,"structure_owner_name":"RIVERSIDE HEALTH SYSTEM INC","structure_manager_name":null,"data_source":"FCC: Land Mobile - Private (GIS)"}},{"type":"Feature","geometry":{"type":"Point","coordinates":[-76.4553,37.2703]},"properties":{"name":"INT RT 216 AND RT 643","styleUrl":"#towerStyle","styleHash":"1d01e409","county":"Gloucester County","lat":37.2703,"lng":-76.4553,"structure_type":null,"structure_name":null,"structure_address":"INT RT 216 AND RT 643","height":15,"base_elevation":1.702894,"structure_owner_name":"GLOUCESTER, COUNTY OF","structure_manager_name":null,"data_source":"FCC: Land Mobile - Private (GIS)"}},{"type":"Feature","geometry":{"type":"Point","coordinates":[-76.5067,37.2833]},"properties":{"name":"NEAR INT RT US 17 & RT 1216","styleUrl":"#towerStyle","styleHash":"1d01e409","county":"Gloucester County","lat":37.2833,"lng":-76.5067,"structure_type":null,"structure_name":null,"structure_address":"NEAR INT RT US 17 & RT 1216","height":24,"base_elevation":8.825458,"structure_owner_name":"GLOUCESTER, COUNTY OF","structure_manager_name":null,"data_source":"FCC: Land Mobile - Private (GIS)"}},{"type":"Feature","geometry":{"type":"Point","coordinates":[-76.5217,37.3106]},"properties":{"name":"3239 PROVIDENCE","styleUrl":"#towerStyle","styleHash":"1d01e409","county":"Gloucester County","lat":37.3106,"lng":-76.5217,"structure_type":null,"structure_name":null,"structure_address":"3239 PROVIDENCE","height":12,"base_elevation":9.215065,"structure_owner_name":"GLOUCESTER, COUNTY OF","structure_manager_name":null,"data_source":"FCC: Land Mobile - Private (GIS)"}},{"type":"Feature","geometry":{"type":"Point","coordinates":[-76.6022,37.4094]},"properties":{"name":"INT OF RT 605 AND RT 615","styleUrl":"#towerStyle","styleHash":"1d01e409","county":"Gloucester County","lat":37.4094,"lng":-76.6022,"structure_type":null,"structure_name":null,"structure_address":"INT OF RT 605 AND RT 615","height":21,"base_elevation":24.913856,"structure_owner_name":"GLOUCESTER, COUNTY OF","structure_manager_name":null,"data_source":"FCC: Land Mobile - Private (GIS)"}},{"type":"Feature","geometry":{"type":"Point","coordinates":[-76.498,37.5236]},"properties":{"name":"RT 606 ONE MI N","styleUrl":"#towerStyle","styleHash":"1d01e409","county":"Gloucester County","lat":37.5236,"lng":-76.498,"structure_type":null,"structure_name":null,"structure_address":"RT 606 ONE MI N","height":12,"base_elevation":21.71396,"structure_owner_name":"GLOUCESTER, COUNTY OF","structure_manager_name":null,"data_source":"FCC: Land Mobile - Private (GIS)"}},{"type":"Feature","geometry":{"type":"Point","coordinates":[-76.5264,37.4142]},"properties":{"name":"MAIN ST WALKER ST","styleUrl":"#towerStyle","styleHash":"1d01e409","county":"Gloucester County","lat":37.4142,"lng":-76.5264,"structure_type":null,"structure_name":null,"structure_address":"MAIN ST WALKER ST","height":15,"base_elevation":21.696388,"structure_owner_name":"GLOUCESTER, COUNTY OF","structure_manager_name":null,"data_source":"FCC: Land Mobile - Private (GIS)"}},{"type":"Feature","geometry":{"type":"Point","coordinates":[-76.5425,37.419699]},"properties":{"name":"4 MI NW OF INT OF US 17 & BUS 17","styleUrl":"#towerStyle","styleHash":"1d01e409","county":"Gloucester County","lat":37.419699,"lng":-76.5425,"structure_type":null,"structure_name":null,"structure_address":"4 MI NW OF INT OF US 17 & BUS 17","height":55,"base_elevation":24.653257,"structure_owner_name":"Gloucester County Sheriff's Office","structure_manager_name":null,"data_source":"FCC: Land Mobile - Private (GIS)"}},{"type":"Feature","geometry":{"type":"Point","coordinates":[-76.5133,37.4125]},"properties":{"name":"DEPT OF FORESTRY OFC RT 629","styleUrl":"#towerStyle","styleHash":"1d01e409","county":"Gloucester County","lat":37.4125,"lng":-76.5133,"structure_type":"BMAST","structure_name":null,"structure_address":"DEPT OF FORESTRY OFC RT 629","height":15,"base_elevation":2.470442,"structure_owner_name":"Virginia Department of Forestry","structure_manager_name":null,"data_source":"FCC: Land Mobile - Private (GIS)"}},{"type":"Feature","geometry":{"type":"Point","coordinates":[-76.5989,37.4375]},"properties":{"name":"FIRE TOWER RT 17 & RT 606","styleUrl":"#towerStyle","styleHash":"1d01e409","county":"Gloucester County","lat":37.4375,"lng":-76.5989,"structure_type":null,"structure_name":null,"structure_address":"FIRE TOWER RT 17 & RT 606","height":0,"base_elevation":26.286893,"structure_owner_name":"Virginia Department of Forestry","structure_manager_name":null,"data_source":"FCC: Land Mobile - Private (GIS)"}},{"type":"Feature","geometry":{"type":"Point","coordinates":[-76.5219,37.3947]},"properties":{"name":"RT 17 & 17 BUS","styleUrl":"#towerStyle","styleHash":"1d01e409","county":"Gloucester County","lat":37.3947,"lng":-76.5219,"structure_type":"POLE","structure_name":null,"structure_address":"RT 17 & 17 BUS","height":0,"base_elevation":19.578117,"structure_owner_name":"VIRGINIA, COMMONWEALTH OF","structure_manager_name":null,"data_source":"FCC: Land Mobile - Private (GIS)"}},{"type":"Feature","geometry":{"type":"Point","coordinates":[-76.5111,37.2983]},"properties":{"name":"DES REGION III RT 17 & RT 1301","styleUrl":"#towerStyle","styleHash":"1d01e409","county":"Gloucester County","lat":37.2983,"lng":-76.5111,"structure_type":null,"structure_name":null,"structure_address":"DES REGION III RT 17 & RT 1301","height":11,"base_elevation":9.252763,"structure_owner_name":"Commonwealth of Virginia, Department of Emergency Management","structure_manager_name":null,"data_source":"FCC: Land Mobile - Private (GIS)"}},{"type":"Feature","geometry":{"type":"Point","coordinates":[-76.5055,37.5011]},"properties":{"name":"215 AVE G","styleUrl":"#towerStyle","styleHash":"1d01e409","county":"Gloucester County","lat":37.5011,"lng":-76.5055,"structure_type":"B","structure_name":null,"structure_address":"215 AVE G","height":6,"base_elevation":20.951343,"structure_owner_name":"HAMPTON ROADS SANITATION DISTRICT","structure_manager_name":null,"data_source":"FCC: Land Mobile - Private (GIS)"}},{"type":"Feature","geometry":{"type":"Point","coordinates":[-76.503899,37.5008]},"properties":{"name":"2401 G AVE","styleUrl":"#towerStyle","styleHash":"1d01e409","county":"Gloucester County","lat":37.5008,"lng":-76.503899,"structure_type":"BPIPE","structure_name":null,"structure_address":"2401 G AVE","height":9.3,"base_elevation":18.760063,"structure_owner_name":"HAMPTON ROADS SANITATION DISTRICT","structure_manager_name":null,"data_source":"FCC: Land Mobile - Private (GIS)"}},{"type":"Feature","geometry":{"type":"Point","coordinates":[-76.5122,37.4086]},"properties":{"name":"RT 621 OFF RT 17 .5 MI SE","styleUrl":"#towerStyle","styleHash":"1d01e409","county":"Gloucester County","lat":37.4086,"lng":-76.5122,"structure_type":"UPOLE","structure_name":null,"structure_address":"RT 621 OFF RT 17 .5 MI SE","height":20,"base_elevation":15.725156,"structure_owner_name":"VIRGINIA, COMMONWEALTH OF","structure_manager_name":null,"data_source":"FCC: Land Mobile - Private (GIS)"}},{"type":"Feature","geometry":{"type":"Point","coordinates":[-76.5067,37.2833]},"properties":{"name":"INT OF RT US 17 AND RT 1216","styleUrl":"#towerStyle","styleHash":"1d01e409","county":"Gloucester County","lat":37.2833,"lng":-76.5067,"structure_type":null,"structure_name":null,"structure_address":"INT OF RT US 17 AND RT 1216","height":24,"base_elevation":8.825458,"structure_owner_name":"GLOUCESTER, COUNTY OF","structure_manager_name":null,"data_source":"FCC: Land Mobile - Private (GIS)"}},{"type":"Feature","geometry":{"type":"Point","coordinates":[-76.5217,37.3106]},"properties":{"name":"3239 PROVIDENCE RD","styleUrl":"#towerStyle","styleHash":"1d01e409","county":"Gloucester County","lat":37.3106,"lng":-76.5217,"structure_type":null,"structure_name":null,"structure_address":"3239 PROVIDENCE RD","height":12,"base_elevation":9.215065,"structure_owner_name":"GLOUCESTER, COUNTY OF","structure_manager_name":null,"data_source":"FCC: Land Mobile - Private (GIS)"}},{"type":"Feature","geometry":{"type":"Point","coordinates":[-76.6022,37.4094]},"properties":{"name":"INT OF RT 606 AND RT 615","styleUrl":"#towerStyle","styleHash":"1d01e409","county":"Gloucester County","lat":37.4094,"lng":-76.6022,"structure_type":null,"structure_name":null,"structure_address":"INT OF RT 606 AND RT 615","height":21,"base_elevation":24.913856,"structure_owner_name":"GLOUCESTER, COUNTY OF","structure_manager_name":null,"data_source":"FCC: Land Mobile - Private (GIS)"}},{"type":"Feature","geometry":{"type":"Point","coordinates":[-76.498,37.5236]},"properties":{"name":"RT 606 ONE MI N","styleUrl":"#towerStyle","styleHash":"1d01e409","county":"Gloucester County","lat":37.5236,"lng":-76.498,"structure_type":null,"structure_name":null,"structure_address":"RT 606 ONE MI N","height":12,"base_elevation":21.71396,"structure_owner_name":"GLOUCESTER, COUNTY OF","structure_manager_name":null,"data_source":"FCC: Land Mobile - Private (GIS)"}},{"type":"Feature","geometry":{"type":"Point","coordinates":[-76.5264,37.4142]},"properties":{"name":"INT MAIN ST AND WALKER ST","styleUrl":"#towerStyle","styleHash":"1d01e409","county":"Gloucester County","lat":37.4142,"lng":-76.5264,"structure_type":null,"structure_name":null,"structure_address":"INT MAIN ST AND WALKER ST","height":15,"base_elevation":21.696388,"structure_owner_name":"GLOUCESTER, COUNTY OF","structure_manager_name":null,"data_source":"FCC: Land Mobile - Private (GIS)"}},{"type":"Feature","geometry":{"type":"Point","coordinates":[-76.4553,37.2703]},"properties":{"name":"INT RT 216 AND RT 643","styleUrl":"#towerStyle","styleHash":"1d01e409","county":"Gloucester County","lat":37.2703,"lng":-76.4553,"structure_type":null,"structure_name":null,"structure_address":"INT RT 216 AND RT 643","height":15,"base_elevation":1.702894,"structure_owner_name":"GLOUCESTER, COUNTY OF","structure_manager_name":null,"data_source":"FCC: Land Mobile - Private (GIS)"}},{"type":"Feature","geometry":{"type":"Point","coordinates":[-76.4711,37.2725]},"properties":{"name":"2117 BELVIN LANE","styleUrl":"#towerStyle","styleHash":"1d01e409","county":"Gloucester County","lat":37.2725,"lng":-76.4711,"structure_type":"TOWER","structure_name":null,"structure_address":"2117 BELVIN LANE","height":61,"base_elevation":3.114392,"structure_owner_name":"NEXTEL COMMUNICATIONS OF THE MID-ATLANTIC, INC.","structure_manager_name":null,"data_source":"FCC: Land Mobile - Commercial (GIS)"}},{"type":"Feature","geometry":{"type":"Point","coordinates":[-76.5469,37.4094]},"properties":{"name":"NORFOLK","styleUrl":"#towerStyle","styleHash":"1d01e409","county":"Gloucester County","lat":37.4094,"lng":-76.5469,"structure_type":"TOWER","structure_name":null,"structure_address":"NORFOLK","height":56,"base_elevation":16.559736,"structure_owner_name":"NEXTEL COMMUNICATIONS OF THE MID-ATLANTIC, INC.","structure_manager_name":null,"data_source":"FCC: Land Mobile - Commercial (GIS)"}},{"type":"Feature","geometry":{"type":"Point","coordinates":[-76.523599,37.3381]},"properties":{"name":"NORFOLK","styleUrl":"#towerStyle","styleHash":"1d01e409","county":"Gloucester County","lat":37.3381,"lng":-76.523599,"structure_type":"TOWER","structure_name":null,"structure_address":"NORFOLK","height":56,"base_elevation":14.997956,"structure_owner_name":"NEXTEL COMMUNICATIONS OF THE MID-ATLANTIC, INC.","structure_manager_name":null,"data_source":"FCC: Land Mobile - Commercial (GIS)"}},{"type":"Feature","geometry":{"type":"Point","coordinates":[-76.5136,37.2858]},"properties":{"name":"STAR RT 1","styleUrl":"#towerStyle","styleHash":"1d01e409","county":"Gloucester County","lat":37.2858,"lng":-76.5136,"structure_type":null,"structure_name":null,"structure_address":"STAR RT 1","height":0,"base_elevation":10.337972,"structure_owner_name":"NEXTEL COMMUNICATIONS OF THE MID-ATLANTIC, INC.","structure_manager_name":null,"data_source":"FCC: Land Mobile - Commercial (GIS)"}},{"type":"Feature","geometry":{"type":"Point","coordinates":[-76.4922,37.380299]},"properties":{"name":"ON RT 628 3 MI SE","styleUrl":"#towerStyle","styleHash":"1d01e409","county":"Gloucester County","lat":37.380299,"lng":-76.4922,"structure_type":"TOWER","structure_name":null,"structure_address":"ON RT 628 3 MI SE","height":106.1,"base_elevation":4.385053,"structure_owner_name":"Alltel Communications, LLC","structure_manager_name":null,"data_source":"FCC: Cellular (GIS)"}},{"type":"Feature","geometry":{"type":"Point","coordinates":[-76.5072,37.3408]},"properties":{"name":"White Marsh Cell Site 7219 Featherbed Lane","styleUrl":"#towerStyle","styleHash":"1d01e409","county":"Gloucester County","lat":37.3408,"lng":-76.5072,"structure_type":"TOWER","structure_name":null,"structure_address":"White Marsh Cell Site 7219 Featherbed Lane","height":96.3,"base_elevation":6.453139,"structure_owner_name":"Alltel Communications, LLC","structure_manager_name":null,"data_source":"FCC: Cellular (GIS)"}},{"type":"Feature","geometry":{"type":"Point","coordinates":[-76.5642,37.5028]},"properties":{"name":"APPROX. 1.2 MILES NW OF","styleUrl":"#towerStyle","styleHash":"1d01e409","county":"Gloucester County","lat":37.5028,"lng":-76.5642,"structure_type":null,"structure_name":null,"structure_address":"APPROX. 1.2 MILES NW OF","height":0,"base_elevation":36.621349,"structure_owner_name":"Alltel Communications, LLC","structure_manager_name":null,"data_source":"FCC: Cellular (GIS)"}},{"type":"Feature","geometry":{"type":"Point","coordinates":[-76.6239,37.53]},"properties":{"name":"GLOUCESTER CO. VOLUNTEER FIRE DEPT. RT. 610","styleUrl":"#towerStyle","styleHash":"1d01e409","county":"Gloucester County","lat":37.53,"lng":-76.6239,"structure_type":"TOWER","structure_name":null,"structure_address":"GLOUCESTER CO. VOLUNTEER FIRE DEPT. RT. 610","height":59,"base_elevation":31.639598,"structure_owner_name":"Cellco Partnership","structure_manager_name":null,"data_source":"FCC: Cellular (GIS)"}},{"type":"Feature","geometry":{"type":"Point","coordinates":[-76.4711,37.2731]},"properties":{"name":"BELVIN PL .8 MI E INT ST RTS 16 & 641","styleUrl":"#towerStyle","styleHash":"1d01e409","county":"Gloucester County","lat":37.2731,"lng":-76.4711,"structure_type":"TOWER","structure_name":null,"structure_address":"BELVIN PL .8 MI E INT ST RTS 16 & 641","height":90.8,"base_elevation":3.081236,"structure_owner_name":"Cellco Partnership","structure_manager_name":null,"data_source":"FCC: Cellular (GIS)"}},{"type":"Feature","geometry":{"type":"Point","coordinates":[-76.4922,37.380299]},"properties":{"name":"ON RT 628 3 MI SE","styleUrl":"#towerStyle","styleHash":"1d01e409","county":"Gloucester County","lat":37.380299,"lng":-76.4922,"structure_type":"TOWER","structure_name":null,"structure_address":"ON RT 628 3 MI SE","height":106.1,"base_elevation":4.385053,"structure_owner_name":"Cellco Partnership","structure_manager_name":null,"data_source":"FCC: Cellular (GIS)"}},{"type":"Feature","geometry":{"type":"Point","coordinates":[-76.513399,37.2934]},"properties":{"name":"7087 Powhatan Drive","styleUrl":"#towerStyle","styleHash":"1d01e409","county":"Gloucester County","lat":37.2934,"lng":-76.513399,"structure_type":"TOWER","structure_name":null,"structure_address":"7087 Powhatan Drive","height":97.5,"base_elevation":10.822783,"structure_owner_name":"YORK COUNTY","structure_manager_name":null,"data_source":"FCC: Microwave (GIS)"}},{"type":"Feature","geometry":{"type":"Point","coordinates":[-76.528599,37.4177]},"properties":{"name":"Justice Drive","styleUrl":"#towerStyle","styleHash":"1d01e409","county":"Gloucester County","lat":37.4177,"lng":-76.528599,"structure_type":"TOWER","structure_name":null,"structure_address":"Justice Drive","height":60.7,"base_elevation":12.026673,"structure_owner_name":"YORK COUNTY","structure_manager_name":null,"data_source":"FCC: Microwave (GIS)"}},{"type":"Feature","geometry":{"type":"Point","coordinates":[-76.5237,37.3918]},"properties":{"name":"6584 Beehive Drive","styleUrl":"#towerStyle","styleHash":"1d01e409","county":"Gloucester County","lat":37.3918,"lng":-76.5237,"structure_type":"TOWER","structure_name":null,"structure_address":"6584 Beehive Drive","height":97.5,"base_elevation":22.178161,"structure_owner_name":"YORK COUNTY","structure_manager_name":null,"data_source":"FCC: Microwave (GIS)"}},{"type":"Feature","geometry":{"type":"Point","coordinates":[-76.5642,37.473]},"properties":{"name":"Beaver Dam Park, Farys Mill Rd","styleUrl":"#towerStyle","styleHash":"1d01e409","county":"Gloucester County","lat":37.473,"lng":-76.5642,"structure_type":"TOWER","structure_name":null,"structure_address":"Beaver Dam Park, Farys Mill Rd","height":97.5,"base_elevation":18.394655,"structure_owner_name":"YORK COUNTY","structure_manager_name":null,"data_source":"FCC: Microwave (GIS)"}},{"type":"Feature","geometry":{"type":"Point","coordinates":[-76.6295,37.5143]},"properties":{"name":"12885 George Washington Memorial Hwy","styleUrl":"#towerStyle","styleHash":"1d01e409","county":"Gloucester County","lat":37.5143,"lng":-76.6295,"structure_type":"TOWER","structure_name":null,"structure_address":"12885 George Washington Memorial Hwy","height":97.5,"base_elevation":33.373554,"structure_owner_name":"YORK COUNTY","structure_manager_name":null,"data_source":"FCC: Microwave (GIS)"}},{"type":"Feature","geometry":{"type":"Point","coordinates":[-76.542699,37.4199]},"properties":{"name":"0.4 MI NW Intersection US 17 & BUS 17","styleUrl":"#towerStyle","styleHash":"1d01e409","county":"Gloucester County","lat":37.4199,"lng":-76.542699,"structure_type":"TOWER","structure_name":null,"structure_address":"0.4 MI NW Intersection US 17 & BUS 17","height":53.3,"base_elevation":24.738622,"structure_owner_name":"York, County of - HRPDC - Hospital System","structure_manager_name":null,"data_source":"FCC: Microwave (GIS)"}},{"type":"Feature","geometry":{"type":"Point","coordinates":[-76.5311,37.3847]},"properties":{"name":"6267 Professional Drive","styleUrl":"#towerStyle","styleHash":"1d01e409","county":"Gloucester County","lat":37.3847,"lng":-76.5311,"structure_type":"B","structure_name":null,"structure_address":"6267 Professional Drive","height":14,"base_elevation":23.839862,"structure_owner_name":"WXGM, INC.","structure_manager_name":null,"data_source":"FCC: Microwave (GIS)"}},{"type":"Feature","geometry":{"type":"Point","coordinates":[-76.543299,37.4168]},"properties":{"name":"GLOUCESTER DIST OFC ON RT 17 AT INT OF ST RT 619","styleUrl":"#towerStyle","styleHash":"1d01e409","county":"Gloucester County","lat":37.4168,"lng":-76.543299,"structure_type":"TOWER","structure_name":null,"structure_address":"GLOUCESTER DIST OFC ON RT 17 AT INT OF ST RT 619","height":45,"base_elevation":24.134529,"structure_owner_name":"VIRGINIA ELECTRIC AND POWER COMPANY","structure_manager_name":null,"data_source":"FCC: Microwave (GIS)"}},{"type":"Feature","geometry":{"type":"Point","coordinates":[-76.5308,37.3847]},"properties":{"name":"6267 PROFESSIONAL DR","styleUrl":"#towerStyle","styleHash":"1d01e409","county":"Gloucester County","lat":37.3847,"lng":-76.5308,"structure_type":"TOWER","structure_name":null,"structure_address":"6267 PROFESSIONAL DR","height":14,"base_elevation":23.800552,"structure_owner_name":"WXGM, INC.","structure_manager_name":null,"data_source":"FCC: Microwave (GIS)"}},{"type":"Feature","geometry":{"type":"Point","coordinates":[-76.4923,37.380299]},"properties":{"name":"ON RT 628 3 MI SE","styleUrl":"#towerStyle","styleHash":"1d01e409","county":"Gloucester County","lat":37.380299,"lng":-76.4923,"structure_type":"TOWER","structure_name":null,"structure_address":"ON RT 628 3 MI SE","height":110,"base_elevation":4.527275,"structure_owner_name":"Cellco Partnership","structure_manager_name":null,"data_source":"FCC: Microwave (GIS)"}},{"type":"Feature","geometry":{"type":"Point","coordinates":[-76.5136,37.2917]},"properties":{"name":"Vertical Asset","styleUrl":"#towerStyle","styleHash":"1d01e409","county":"Gloucester County","lat":37.2917,"lng":-76.5136,"structure_type":null,"structure_name":null,"structure_address":null,"height":0,"base_elevation":12.503667,"structure_owner_name":"Gloucester County Public Schools","structure_manager_name":null,"data_source":"FCC: Land Mobile - Private (GIS)"}},{"type":"Feature","geometry":{"type":"Point","coordinates":[-76.6294,37.5142]},"properties":{"name":"12885 GEORGE WASHINGTON MEMORIAL HWY","styleUrl":"#towerStyle","styleHash":"1d01e409","county":"Gloucester County","lat":37.5142,"lng":-76.6294,"structure_type":"TOWER","structure_name":null,"structure_address":"12885 GEORGE WASHINGTON MEMORIAL HWY","height":97.5,"base_elevation":33.108444,"structure_owner_name":"GLOUCESTER, COUNTY OF","structure_manager_name":null,"data_source":"FCC: Land Mobile - Private (GIS)"}},{"type":"Feature","geometry":{"type":"Point","coordinates":[-76.5133,37.2933]},"properties":{"name":"7087 POWHATAN DRIVE","styleUrl":"#towerStyle","styleHash":"1d01e409","county":"Gloucester County","lat":37.2933,"lng":-76.5133,"structure_type":"TOWER","structure_name":null,"structure_address":"7087 POWHATAN DRIVE","height":97.5,"base_elevation":10.455604,"structure_owner_name":"GLOUCESTER, COUNTY OF","structure_manager_name":null,"data_source":"FCC: Land Mobile - Private (GIS)"}},{"type":"Feature","geometry":{"type":"Point","coordinates":[-76.5642,37.4728]},"properties":{"name":"BEAVER DAM PARK, FARYS MILL RD","styleUrl":"#towerStyle","styleHash":"1d01e409","county":"Gloucester County","lat":37.4728,"lng":-76.5642,"structure_type":"TOWER","structure_name":null,"structure_address":"BEAVER DAM PARK, FARYS MILL RD","height":97.5,"base_elevation":18.130762,"structure_owner_name":"GLOUCESTER, COUNTY OF","structure_manager_name":null,"data_source":"FCC: Land Mobile - Private (GIS)"}},{"type":"Feature","geometry":{"type":"Point","coordinates":[-76.523599,37.3917]},"properties":{"name":"6584 BEEHIVE DRIVE","styleUrl":"#towerStyle","styleHash":"1d01e409","county":"Gloucester County","lat":37.3917,"lng":-76.523599,"structure_type":"TOWER","structure_name":null,"structure_address":"6584 BEEHIVE DRIVE","height":97.5,"base_elevation":21.925138,"structure_owner_name":"GLOUCESTER, COUNTY OF","structure_manager_name":null,"data_source":"FCC: Land Mobile - Private (GIS)"}},{"type":"Feature","geometry":{"type":"Point","coordinates":[-76.5133,37.2933]},"properties":{"name":"7087 POWHATAN DRIVE","styleUrl":"#towerStyle","styleHash":"1d01e409","county":"Gloucester County","lat":37.2933,"lng":-76.5133,"structure_type":"TOWER","structure_name":null,"structure_address":"7087 POWHATAN DRIVE","height":97.5,"base_elevation":10.455604,"structure_owner_name":"YORK, COUNTY OF","structure_manager_name":null,"data_source":"FCC: Land Mobile - Private (GIS)"}},{"type":"Feature","geometry":{"type":"Point","coordinates":[-76.5642,37.4728]},"properties":{"name":"BEAVER DAM PARK, FARYS MILL RD","styleUrl":"#towerStyle","styleHash":"1d01e409","county":"Gloucester County","lat":37.4728,"lng":-76.5642,"structure_type":"TOWER","structure_name":null,"structure_address":"BEAVER DAM PARK, FARYS MILL RD","height":97.5,"base_elevation":18.130762,"structure_owner_name":"YORK, COUNTY OF","structure_manager_name":null,"data_source":"FCC: Land Mobile - Private (GIS)"}},{"type":"Feature","geometry":{"type":"Point","coordinates":[-76.6294,37.5142]},"properties":{"name":"12885 GEORGE WASHINGTON MEMORIAL HWY","styleUrl":"#towerStyle","styleHash":"1d01e409","county":"Gloucester County","lat":37.5142,"lng":-76.6294,"structure_type":"TOWER","structure_name":null,"structure_address":"12885 GEORGE WASHINGTON MEMORIAL HWY","height":97.5,"base_elevation":33.108444,"structure_owner_name":"YORK, COUNTY OF","structure_manager_name":null,"data_source":"FCC: Land Mobile - Private (GIS)"}},{"type":"Feature","geometry":{"type":"Point","coordinates":[-76.523599,37.3917]},"properties":{"name":"6584 BEEHIVE DRIVE","styleUrl":"#towerStyle","styleHash":"1d01e409","county":"Gloucester County","lat":37.3917,"lng":-76.523599,"structure_type":"TOWER","structure_name":null,"structure_address":"6584 BEEHIVE DRIVE","height":97.5,"base_elevation":21.925138,"structure_owner_name":"YORK, COUNTY OF","structure_manager_name":null,"data_source":"FCC: Land Mobile - Private (GIS)"}},{"type":"Feature","geometry":{"type":"Point","coordinates":[-76.523599,37.3917]},"properties":{"name":"6584 BEEHIVE DRIVE","styleUrl":"#towerStyle","styleHash":"1d01e409","county":"Gloucester County","lat":37.3917,"lng":-76.523599,"structure_type":"TOWER","structure_name":null,"structure_address":"6584 BEEHIVE DRIVE","height":97.5,"base_elevation":21.925138,"structure_owner_name":"YORK, COUNTY OF","structure_manager_name":null,"data_source":"FCC: Land Mobile - Private (GIS)"}},{"type":"Feature","geometry":{"type":"Point","coordinates":[-76.6239,37.5642]},"properties":{"name":"Vertical Asset","styleUrl":"#towerStyle","styleHash":"1d01e409","county":"Gloucester County","lat":37.5642,"lng":-76.6239,"structure_type":null,"structure_name":null,"structure_address":null,"height":0,"base_elevation":33.650978,"structure_owner_name":"Rappahannock Community College","structure_manager_name":null,"data_source":"FCC: Land Mobile - Private (GIS)"}},{"type":"Feature","geometry":{"type":"Point","coordinates":[-76.5264,37.3581]},"properties":{"name":"PAGE MIDDLE SCHOOLPAGE 5628 GEORGE WASHINGTON MEM HWY, GLOUCESTER, VA","styleUrl":"#towerStyle","styleHash":"1d01e409","county":"Gloucester County","lat":37.3581,"lng":-76.5264,"structure_type":"TANK","structure_name":null,"structure_address":"PAGE MIDDLE SCHOOLPAGE 5628 GEORGE WASHINGTON MEM HWY, GLOUCESTER, VA","height":59.4,"base_elevation":21.401576,"structure_owner_name":"HAMPTON ROADS SANITATION DISTRICT","structure_manager_name":null,"data_source":"FCC: Land Mobile - Private (GIS)"}},{"type":"Feature","geometry":{"type":"Point","coordinates":[-76.54,37.419699]},"properties":{"name":"7519 HOSPITAL DRIVE","styleUrl":"#towerStyle","styleHash":"1d01e409","county":"Gloucester County","lat":37.419699,"lng":-76.54,"structure_type":"TOWER","structure_name":null,"structure_address":"7519 HOSPITAL DRIVE","height":58.5,"base_elevation":21.009599,"structure_owner_name":"VIRGINIA, COMMONWEALTH OF","structure_manager_name":null,"data_source":"FCC: Land Mobile - Private (GIS)"}},{"type":"Feature","geometry":{"type":"Point","coordinates":[-76.5247,37.3975]},"properties":{"name":"Gloucester location Main Street at Rt 17","styleUrl":"#towerStyle","styleHash":"1d01e409","county":"Gloucester County","lat":37.3975,"lng":-76.5247,"structure_type":"POLE","structure_name":null,"structure_address":"Gloucester location Main Street at Rt 17","height":15,"base_elevation":21.795019,"structure_owner_name":"Commonwealth of Virginia","structure_manager_name":null,"data_source":"FCC: Land Mobile - Private (GIS)"}},{"type":"Feature","geometry":{"type":"Point","coordinates":[-76.5422,37.4086]},"properties":{"name":"CABLE TV HEAD END","styleUrl":"#towerStyle","styleHash":"1d01e409","county":"Gloucester County","lat":37.4086,"lng":-76.5422,"structure_type":null,"structure_name":null,"structure_address":"CABLE TV HEAD END","height":49,"base_elevation":21.663696,"structure_owner_name":"HELLO PAGER COMPANY, INC.","structure_manager_name":null,"data_source":"FCC: Paging (GIS)"}},{"type":"Feature","geometry":{"type":"Point","coordinates":[-76.5136,37.2858]},"properties":{"name":"STAR RT. 1","styleUrl":"#towerStyle","styleHash":"1d01e409","county":"Gloucester County","lat":37.2858,"lng":-76.5136,"structure_type":null,"structure_name":null,"structure_address":"STAR RT. 1","height":152,"base_elevation":10.337972,"structure_owner_name":"Buttner Holdings LLC","structure_manager_name":null,"data_source":"FCC: Paging (GIS)"}}]}