{"type":"FeatureCollection","features":[{"type":"Feature","geometry":{"type":"Point","coordinates":[-78.2954,37.9421]},"properties":{"name":"569 North Boston Road","styleUrl":"#towerStyle","styleHash":"1d01e409","county":"Fluvanna County","lat":37.9421,"lng":-78.2954,"structure_type":null,"structure_name":null,"structure_address":"569 North Boston Road","height":38.1,"base_elevation":120.776962,"structure_owner_name":"SBA Towers II LLC","structure_manager_name":null,"data_source":"FCC: Antenna Structure Registration (GIS)"}},{"type":"Feature","geometry":{"type":"Point","coordinates":[-78.2458,37.9365]},"properties":{"name":"18956 James Madison Highway","styleUrl":"#towerStyle","styleHash":"1d01e409","county":"Fluvanna County","lat":37.9365,"lng":-78.2458,"structure_type":null,"structure_name":null,"structure_address":"18956 James Madison Highway","height":38.1,"base_elevation":138.652374,"structure_owner_name":"SBA Towers II LLC","structure_manager_name":null,"data_source":"FCC: Antenna Structure Registration (GIS)"}},{"type":"Feature","geometry":{"type":"Point","coordinates":[-78.2372,37.7836]},"properties":{"name":"7021 James Madison Hwy","styleUrl":"#towerStyle","styleHash":"1d01e409","county":"Fluvanna County","lat":37.7836,"lng":-78.2372,"structure_type":null,"structure_name":null,"structure_address":"7021 James Madison Hwy","height":59.4,"base_elevation":107.030471,"structure_owner_name":"Central States Tower II, LLC","structure_manager_name":null,"data_source":"FCC: Antenna Structure Registration (GIS)"}},{"type":"Feature","geometry":{"type":"Point","coordinates":[-78.2733,37.7094]},"properties":{"name":".3 MI S OF SR 656 1.3 MI E","styleUrl":"#towerStyle","styleHash":"1d01e409","county":"Fluvanna County","lat":37.7094,"lng":-78.2733,"structure_type":null,"structure_name":null,"structure_address":".3 MI S OF SR 656 1.3 MI E","height":99.1,"base_elevation":108.962013,"structure_owner_name":"Virginia Electric and Power Company","structure_manager_name":null,"data_source":"FCC: Antenna Structure Registration (GIS)"}},{"type":"Feature","geometry":{"type":"Point","coordinates":[-78.4458,37.7921]},"properties":{"name":"Off SR 6, 2.4 miles East of","styleUrl":"#towerStyle","styleHash":"1d01e409","county":"Fluvanna County","lat":37.7921,"lng":-78.4458,"structure_type":null,"structure_name":null,"structure_address":"Off SR 6, 2.4 miles East of","height":59.4,"base_elevation":143.431793,"structure_owner_name":"National Communication Towers, LLC","structure_manager_name":null,"data_source":"FCC: Antenna Structure Registration (GIS)"}},{"type":"Feature","geometry":{"type":"Point","coordinates":[-78.3761,37.7963]},"properties":{"name":"ROCKFISH CREEK - OFF SR 6, VIRGINIA BYWAY","styleUrl":"#towerStyle","styleHash":"1d01e409","county":"Fluvanna County","lat":37.7963,"lng":-78.3761,"structure_type":null,"structure_name":null,"structure_address":"ROCKFISH CREEK - OFF SR 6, VIRGINIA BYWAY","height":59.4,"base_elevation":136.593887,"structure_owner_name":"NATIONAL COMMUNICATION TOWERS, LLC","structure_manager_name":null,"data_source":"FCC: Antenna Structure Registration (GIS)"}},{"type":"Feature","geometry":{"type":"Point","coordinates":[-78.329,37.8968]},"properties":{"name":"Thomas Jefferson Parkway","styleUrl":"#towerStyle","styleHash":"1d01e409","county":"Fluvanna County","lat":37.8968,"lng":-78.329,"structure_type":null,"structure_name":null,"structure_address":"Thomas Jefferson Parkway","height":36.5,"base_elevation":128.000366,"structure_owner_name":"United States Cellular Corporation","structure_manager_name":null,"data_source":"FCC: Antenna Structure Registration (GIS)"}},{"type":"Feature","geometry":{"type":"Point","coordinates":[-78.3264,37.7911]},"properties":{"name":"11045 Bridgeport Rd","styleUrl":"#towerStyle","styleHash":"1d01e409","county":"Fluvanna County","lat":37.7911,"lng":-78.3264,"structure_type":"B","structure_name":null,"structure_address":"11045 Bridgeport Rd","height":31,"base_elevation":117.789031,"structure_owner_name":"Solite LLC","structure_manager_name":null,"data_source":"FCC: Land Mobile - Private (GIS)"}},{"type":"Feature","geometry":{"type":"Point","coordinates":[-78.1867,37.8311]},"properties":{"name":"563 Wilmington Rd.","styleUrl":"#towerStyle","styleHash":"1d01e409","county":"Fluvanna County","lat":37.8311,"lng":-78.1867,"structure_type":"POLE","structure_name":null,"structure_address":"563 Wilmington Rd.","height":36.5,"base_elevation":118.009819,"structure_owner_name":"Fluvanna County Public Schools","structure_manager_name":null,"data_source":"FCC: Land Mobile - Private (GIS)"}},{"type":"Feature","geometry":{"type":"Point","coordinates":[-78.3508,37.8008]},"properties":{"name":"479 Cunningham Rd.","styleUrl":"#towerStyle","styleHash":"1d01e409","county":"Fluvanna County","lat":37.8008,"lng":-78.3508,"structure_type":"POLE","structure_name":null,"structure_address":"479 Cunningham Rd.","height":41,"base_elevation":155.145233,"structure_owner_name":"Fluvanna County Public Schools","structure_manager_name":null,"data_source":"FCC: Land Mobile - Private (GIS)"}},{"type":"Feature","geometry":{"type":"Point","coordinates":[-78.2747,37.8236]},"properties":{"name":"3395 Central Plains Rd.","styleUrl":"#towerStyle","styleHash":"1d01e409","county":"Fluvanna County","lat":37.8236,"lng":-78.2747,"structure_type":"POLE","structure_name":null,"structure_address":"3395 Central Plains Rd.","height":48.7,"base_elevation":129.09671,"structure_owner_name":"Fluvanna County Public Schools","structure_manager_name":null,"data_source":"FCC: Land Mobile - Private (GIS)"}},{"type":"Feature","geometry":{"type":"Point","coordinates":[-78.3264,37.7911]},"properties":{"name":"1 MILE W OF INTERSECTION OF SR 652 & 15","styleUrl":"#towerStyle","styleHash":"1d01e409","county":"Fluvanna County","lat":37.7911,"lng":-78.3264,"structure_type":"B","structure_name":null,"structure_address":"1 MILE W OF INTERSECTION OF SR 652 & 15","height":31,"base_elevation":117.789031,"structure_owner_name":"SOLITE, LLC","structure_manager_name":null,"data_source":"FCC: Land Mobile - Private (GIS)"}},{"type":"Feature","geometry":{"type":"Point","coordinates":[-78.3811,37.8678]},"properties":{"name":"Vertical Asset","styleUrl":"#towerStyle","styleHash":"1d01e409","county":"Fluvanna County","lat":37.8678,"lng":-78.3811,"structure_type":null,"structure_name":null,"structure_address":null,"height":0,"base_elevation":123.092681,"structure_owner_name":"Tenaska Virginia Partners","structure_manager_name":null,"data_source":"FCC: Land Mobile - Private (GIS)"}},{"type":"Feature","geometry":{"type":"Point","coordinates":[-78.3811,37.8678]},"properties":{"name":"2300 Branch Rd","styleUrl":"#towerStyle","styleHash":"1d01e409","county":"Fluvanna County","lat":37.8678,"lng":-78.3811,"structure_type":"BANT","structure_name":null,"structure_address":"2300 Branch Rd","height":12,"base_elevation":123.092681,"structure_owner_name":"Tenaska Virginia Partners","structure_manager_name":null,"data_source":"FCC: Land Mobile - Private (GIS)"}},{"type":"Feature","geometry":{"type":"Point","coordinates":[-78.3811,37.8678]},"properties":{"name":"2300 Branch Rd","styleUrl":"#towerStyle","styleHash":"1d01e409","county":"Fluvanna County","lat":37.8678,"lng":-78.3811,"structure_type":"BANT","structure_name":null,"structure_address":"2300 Branch Rd","height":29,"base_elevation":123.092681,"structure_owner_name":"Tenaska Virginia Partners","structure_manager_name":null,"data_source":"FCC: Land Mobile - Private (GIS)"}},{"type":"Feature","geometry":{"type":"Point","coordinates":[-78.3417,37.9125]},"properties":{"name":"Vertical Asset","styleUrl":"#towerStyle","styleHash":"1d01e409","county":"Fluvanna County","lat":37.9125,"lng":-78.3417,"structure_type":null,"structure_name":null,"structure_address":null,"height":0,"base_elevation":144.85527,"structure_owner_name":"Lake Monticello Owners Association Inc","structure_manager_name":null,"data_source":"FCC: Land Mobile - Private (GIS)"}},{"type":"Feature","geometry":{"type":"Point","coordinates":[-78.3417,37.9125]},"properties":{"name":"397 Jefferson Drive west","styleUrl":"#towerStyle","styleHash":"1d01e409","county":"Fluvanna County","lat":37.9125,"lng":-78.3417,"structure_type":"TANK","structure_name":null,"structure_address":"397 Jefferson Drive west","height":18,"base_elevation":144.85527,"structure_owner_name":"Lake Monticello Owners Association Inc","structure_manager_name":null,"data_source":"FCC: Land Mobile - Private (GIS)"}},{"type":"Feature","geometry":{"type":"Point","coordinates":[-78.3417,37.9125]},"properties":{"name":"Vertical Asset","styleUrl":"#towerStyle","styleHash":"1d01e409","county":"Fluvanna County","lat":37.9125,"lng":-78.3417,"structure_type":null,"structure_name":null,"structure_address":null,"height":0,"base_elevation":144.85527,"structure_owner_name":"Lake Monticello Owners Association Inc","structure_manager_name":null,"data_source":"FCC: Land Mobile - Private (GIS)"}},{"type":"Feature","geometry":{"type":"Point","coordinates":[-78.3417,37.9125]},"properties":{"name":"397 Jefferson Dr W","styleUrl":"#towerStyle","styleHash":"1d01e409","county":"Fluvanna County","lat":37.9125,"lng":-78.3417,"structure_type":"TANK","structure_name":null,"structure_address":"397 Jefferson Dr W","height":18,"base_elevation":144.85527,"structure_owner_name":"Lake Monticello Owners Association Inc","structure_manager_name":null,"data_source":"FCC: Land Mobile - Private (GIS)"}},{"type":"Feature","geometry":{"type":"Point","coordinates":[-78.2633,37.8611]},"properties":{"name":"457 JEFFERSON DRIVE","styleUrl":"#towerStyle","styleHash":"1d01e409","county":"Fluvanna County","lat":37.8611,"lng":-78.2633,"structure_type":null,"structure_name":null,"structure_address":"457 JEFFERSON DRIVE","height":0,"base_elevation":91.932128,"structure_owner_name":"LAKE DAIRY QUEEN","structure_manager_name":null,"data_source":"FCC: Land Mobile - Private (GIS)"}},{"type":"Feature","geometry":{"type":"Point","coordinates":[-78.2683,37.9831]},"properties":{"name":"FLUVANNA CORRECTIONAL CENTER RT 250 5KM W OF ZIONS","styleUrl":"#towerStyle","styleHash":"1d01e409","county":"Fluvanna County","lat":37.9831,"lng":-78.2683,"structure_type":"TANK","structure_name":null,"structure_address":"FLUVANNA CORRECTIONAL CENTER RT 250 5KM W OF ZIONS","height":53,"base_elevation":137.71492,"structure_owner_name":"VIRGINIA, COMMONWEALTH OF","structure_manager_name":null,"data_source":"FCC: Land Mobile - Private (GIS)"}},{"type":"Feature","geometry":{"type":"Point","coordinates":[-78.2683,37.9831]},"properties":{"name":"ROUTE 250 W ZION CROSS ROADS","styleUrl":"#towerStyle","styleHash":"1d01e409","county":"Fluvanna County","lat":37.9831,"lng":-78.2683,"structure_type":"TANK","structure_name":null,"structure_address":"ROUTE 250 W ZION CROSS ROADS","height":53,"base_elevation":137.71492,"structure_owner_name":"VIRGINIA, COMMONWEALTH OF","structure_manager_name":null,"data_source":"FCC: Land Mobile - Private (GIS)"}},{"type":"Feature","geometry":{"type":"Point","coordinates":[-78.2956,37.7133]},"properties":{"name":"200 FT E OF JOHN H COCKE MEMORIAL BRIDGE","styleUrl":"#towerStyle","styleHash":"1d01e409","county":"Fluvanna County","lat":37.7133,"lng":-78.2956,"structure_type":"B","structure_name":null,"structure_address":"200 FT E OF JOHN H COCKE MEMORIAL BRIDGE","height":6,"base_elevation":92.52108,"structure_owner_name":"CSX TRANSPORTATION INC.","structure_manager_name":null,"data_source":"FCC: Land Mobile - Private (GIS)"}},{"type":"Feature","geometry":{"type":"Point","coordinates":[-78.2733,37.7092]},"properties":{"name":".3 MI S ST RT 656 1.3 MI E","styleUrl":"#towerStyle","styleHash":"1d01e409","county":"Fluvanna County","lat":37.7092,"lng":-78.2733,"structure_type":null,"structure_name":null,"structure_address":".3 MI S ST RT 656 1.3 MI E","height":99,"base_elevation":112.368034,"structure_owner_name":"VIRGINIA ELECTRIC AND POWER COMPANY","structure_manager_name":null,"data_source":"FCC: Land Mobile - Private (GIS)"}},{"type":"Feature","geometry":{"type":"Point","coordinates":[-78.2733,37.7094]},"properties":{"name":".3 MI S OF SR 656 1.3 MI E","styleUrl":"#towerStyle","styleHash":"1d01e409","county":"Fluvanna County","lat":37.7094,"lng":-78.2733,"structure_type":"TOWER","structure_name":null,"structure_address":".3 MI S OF SR 656 1.3 MI E","height":99.6,"base_elevation":108.962013,"structure_owner_name":"VIRGINIA ELECTRIC AND POWER COMPANY","structure_manager_name":null,"data_source":"FCC: Land Mobile - Private (GIS)"}},{"type":"Feature","geometry":{"type":"Point","coordinates":[-78.2733,37.7092]},"properties":{"name":".3 MI S OF SR 656 1.3 MI E","styleUrl":"#towerStyle","styleHash":"1d01e409","county":"Fluvanna County","lat":37.7092,"lng":-78.2733,"structure_type":null,"structure_name":null,"structure_address":".3 MI S OF SR 656 1.3 MI E","height":100,"base_elevation":112.368034,"structure_owner_name":"VIRGINIA ELECTRIC AND POWER COMPANY","structure_manager_name":null,"data_source":"FCC: Land Mobile - Private (GIS)"}},{"type":"Feature","geometry":{"type":"Point","coordinates":[-78.2553,37.9186]},"properties":{"name":"US RT 15 .65 KM SSW INT RT 616","styleUrl":"#towerStyle","styleHash":"1d01e409","county":"Fluvanna County","lat":37.9186,"lng":-78.2553,"structure_type":"TOWER","structure_name":null,"structure_address":"US RT 15 .65 KM SSW INT RT 616","height":33,"base_elevation":128.840774,"structure_owner_name":"CENTRAL VIRGINIA ELECTRIC COOPERATIVE","structure_manager_name":null,"data_source":"FCC: Land Mobile - Private (GIS)"}},{"type":"Feature","geometry":{"type":"Point","coordinates":[-78.4239,37.8367]},"properties":{"name":"Vertical Asset","styleUrl":"#towerStyle","styleHash":"1d01e409","county":"Fluvanna County","lat":37.8367,"lng":-78.4239,"structure_type":null,"structure_name":null,"structure_address":null,"height":0,"base_elevation":140.676757,"structure_owner_name":"Transcontinental Gas Pipe Line Co., LLC","structure_manager_name":null,"data_source":"FCC: Land Mobile - Private (GIS)"}},{"type":"Feature","geometry":{"type":"Point","coordinates":[-78.356099,37.9253]},"properties":{"name":"Vertical Asset","styleUrl":"#towerStyle","styleHash":"1d01e409","county":"Fluvanna County","lat":37.9253,"lng":-78.356099,"structure_type":null,"structure_name":null,"structure_address":null,"height":0,"base_elevation":119.91925,"structure_owner_name":"DAIRY QUEEN #19441","structure_manager_name":null,"data_source":"FCC: Land Mobile - Private (GIS)"}},{"type":"Feature","geometry":{"type":"Point","coordinates":[-78.236699,37.8156]},"properties":{"name":"RTS 15 & 615 CARYSBROOK","styleUrl":"#towerStyle","styleHash":"1d01e409","county":"Fluvanna County","lat":37.8156,"lng":-78.236699,"structure_type":"B","structure_name":null,"structure_address":"RTS 15 & 615 CARYSBROOK","height":18,"base_elevation":80.335197,"structure_owner_name":"THOMASVILLE FURNITURE INDUSTRIES INC","structure_manager_name":null,"data_source":"FCC: Land Mobile - Private (GIS)"}},{"type":"Feature","geometry":{"type":"Point","coordinates":[-78.2733,37.7092]},"properties":{"name":".3 MI S OF SR 656 1.3 MI E","styleUrl":"#towerStyle","styleHash":"1d01e409","county":"Fluvanna County","lat":37.7092,"lng":-78.2733,"structure_type":"TOWER","structure_name":null,"structure_address":".3 MI S OF SR 656 1.3 MI E","height":100,"base_elevation":112.368034,"structure_owner_name":"VIRGINIA ELECTRIC AND POWER COMPANY","structure_manager_name":null,"data_source":"FCC: Land Mobile - Private (GIS)"}},{"type":"Feature","geometry":{"type":"Point","coordinates":[-78.1611,37.7508]},"properties":{"name":"CSXT YD OFC","styleUrl":"#towerStyle","styleHash":"1d01e409","county":"Fluvanna County","lat":37.7508,"lng":-78.1611,"structure_type":"POLE","structure_name":null,"structure_address":"CSXT YD OFC","height":21,"base_elevation":63.545528,"structure_owner_name":"CSX TRANSPORTATION INC.","structure_manager_name":null,"data_source":"FCC: Land Mobile - Private (GIS)"}},{"type":"Feature","geometry":{"type":"Point","coordinates":[-78.1611,37.7508]},"properties":{"name":"S LAWN & PROSPECT STS","styleUrl":"#towerStyle","styleHash":"1d01e409","county":"Fluvanna County","lat":37.7508,"lng":-78.1611,"structure_type":"POLE","structure_name":null,"structure_address":"S LAWN & PROSPECT STS","height":15,"base_elevation":63.545528,"structure_owner_name":"CSX TRANSPORTATION INC.","structure_manager_name":null,"data_source":"FCC: Land Mobile - Private (GIS)"}},{"type":"Feature","geometry":{"type":"Point","coordinates":[-78.1611,37.7508]},"properties":{"name":"CSXT DEPOT & ST PATRICK ST","styleUrl":"#towerStyle","styleHash":"1d01e409","county":"Fluvanna County","lat":37.7508,"lng":-78.1611,"structure_type":"POLE","structure_name":null,"structure_address":"CSXT DEPOT & ST PATRICK ST","height":15,"base_elevation":63.545528,"structure_owner_name":"CSX TRANSPORTATION INC.","structure_manager_name":null,"data_source":"FCC: Land Mobile - Private (GIS)"}},{"type":"Feature","geometry":{"type":"Point","coordinates":[-78.236699,37.8156]},"properties":{"name":"RT 15 AND 615","styleUrl":"#towerStyle","styleHash":"1d01e409","county":"Fluvanna County","lat":37.8156,"lng":-78.236699,"structure_type":null,"structure_name":null,"structure_address":"RT 15 AND 615","height":13,"base_elevation":80.335197,"structure_owner_name":"THOMASVILLE FURNITURE INC","structure_manager_name":null,"data_source":"FCC: Land Mobile - Private (GIS)"}},{"type":"Feature","geometry":{"type":"Point","coordinates":[-78.2692,37.9844]},"properties":{"name":"FIUVANNA CC RT 250 W ZION CROSS RDS","styleUrl":"#towerStyle","styleHash":"1d01e409","county":"Fluvanna County","lat":37.9844,"lng":-78.2692,"structure_type":"TOWER","structure_name":null,"structure_address":"FIUVANNA CC RT 250 W ZION CROSS RDS","height":30,"base_elevation":139.240615,"structure_owner_name":"VIRGINIA, COMMONWEALTH OF","structure_manager_name":null,"data_source":"FCC: Land Mobile - Private (GIS)"}},{"type":"Feature","geometry":{"type":"Point","coordinates":[-78.2692,37.9844]},"properties":{"name":"FLUVANNACC RT 250 5 KM W ZION CROSSRD","styleUrl":"#towerStyle","styleHash":"1d01e409","county":"Fluvanna County","lat":37.9844,"lng":-78.2692,"structure_type":"TOWER","structure_name":null,"structure_address":"FLUVANNACC RT 250 5 KM W ZION CROSSRD","height":30,"base_elevation":139.240615,"structure_owner_name":"VIRGINIA, COMMONWEALTH OF","structure_manager_name":null,"data_source":"FCC: Land Mobile - Private (GIS)"}},{"type":"Feature","geometry":{"type":"Point","coordinates":[-78.2794,37.83]},"properties":{"name":"US 15 3.5 KM S","styleUrl":"#towerStyle","styleHash":"1d01e409","county":"Fluvanna County","lat":37.83,"lng":-78.2794,"structure_type":"UPOLE","structure_name":null,"structure_address":"US 15 3.5 KM S","height":18,"base_elevation":110.403198,"structure_owner_name":"VIRGINIA, COMMONWEALTH OF","structure_manager_name":null,"data_source":"FCC: Land Mobile - Private (GIS)"}},{"type":"Feature","geometry":{"type":"Point","coordinates":[-78.2617,37.8736]},"properties":{"name":"SCHOOL US RT 15 .9 MI N","styleUrl":"#towerStyle","styleHash":"1d01e409","county":"Fluvanna County","lat":37.8736,"lng":-78.2617,"structure_type":null,"structure_name":null,"structure_address":"SCHOOL US RT 15 .9 MI N","height":0,"base_elevation":109.560447,"structure_owner_name":"UNIVERSITY OF VIRGINIA MEDICAL CENTER","structure_manager_name":null,"data_source":"FCC: Land Mobile - Private (GIS)"}},{"type":"Feature","geometry":{"type":"Point","coordinates":[-78.2664,37.8667]},"properties":{"name":"Vertical Asset","styleUrl":"#towerStyle","styleHash":"1d01e409","county":"Fluvanna County","lat":37.8667,"lng":-78.2664,"structure_type":null,"structure_name":null,"structure_address":null,"height":0,"base_elevation":81.192169,"structure_owner_name":"LAKE MONTICELLO VOLUNTEER FIRE DEPARTMENT AND RESCUE SQUAD INC","structure_manager_name":null,"data_source":"FCC: Land Mobile - Private (GIS)"}},{"type":"Feature","geometry":{"type":"Point","coordinates":[-78.2619,37.8747]},"properties":{"name":"1 MILE NORTH OF PALMYRA","styleUrl":"#towerStyle","styleHash":"1d01e409","county":"Fluvanna County","lat":37.8747,"lng":-78.2619,"structure_type":"TOWER","structure_name":null,"structure_address":"1 MILE NORTH OF PALMYRA","height":53.3,"base_elevation":109.938591,"structure_owner_name":"FLUVANNA, COUNTY OF","structure_manager_name":null,"data_source":"FCC: Land Mobile - Private (GIS)"}},{"type":"Feature","geometry":{"type":"Point","coordinates":[-78.267799,37.7575]},"properties":{"name":"FORK UNION SHOPPING CENTER, SUITE 1","styleUrl":"#towerStyle","styleHash":"1d01e409","county":"Fluvanna County","lat":37.7575,"lng":-78.267799,"structure_type":"B","structure_name":null,"structure_address":"FORK UNION SHOPPING CENTER, SUITE 1","height":9,"base_elevation":116.020515,"structure_owner_name":"Virginia Department of Forestry","structure_manager_name":null,"data_source":"FCC: Land Mobile - Private (GIS)"}},{"type":"Feature","geometry":{"type":"Point","coordinates":[-78.2617,37.8736]},"properties":{"name":"PALMYRA SCH ON VA RT 15 .9 MI N","styleUrl":"#towerStyle","styleHash":"1d01e409","county":"Fluvanna County","lat":37.8736,"lng":-78.2617,"structure_type":null,"structure_name":null,"structure_address":"PALMYRA SCH ON VA RT 15 .9 MI N","height":46,"base_elevation":109.560447,"structure_owner_name":"FLUVANNA, COUNTY OF","structure_manager_name":null,"data_source":"FCC: Land Mobile - Private (GIS)"}},{"type":"Feature","geometry":{"type":"Point","coordinates":[-78.3458,37.9314]},"properties":{"name":"LAKE MONTICELLO SITE:3.25 MILES SW OF UNION MILLS, ROUTE 168","styleUrl":"#towerStyle","styleHash":"1d01e409","county":"Fluvanna County","lat":37.9314,"lng":-78.3458,"structure_type":null,"structure_name":null,"structure_address":"LAKE MONTICELLO SITE:3.25 MILES SW OF UNION MILLS, ROUTE 168","height":0,"base_elevation":121.996696,"structure_owner_name":"USCOC OF VIRGINIA RSA #3, INC.","structure_manager_name":null,"data_source":"FCC: Cellular (GIS)"}},{"type":"Feature","geometry":{"type":"Point","coordinates":[-78.2619,37.8747]},"properties":{"name":"1 MILE NORTH OF PALMYRA","styleUrl":"#towerStyle","styleHash":"1d01e409","county":"Fluvanna County","lat":37.8747,"lng":-78.2619,"structure_type":"TOWER","structure_name":null,"structure_address":"1 MILE NORTH OF PALMYRA","height":53.3,"base_elevation":109.938591,"structure_owner_name":"USCOC OF VIRGINIA RSA #3, INC.","structure_manager_name":null,"data_source":"FCC: Cellular (GIS)"}},{"type":"Feature","geometry":{"type":"Point","coordinates":[-78.2878,37.8128]},"properties":{"name":"PALMYRA II CELL SITE # 30","styleUrl":"#towerStyle","styleHash":"1d01e409","county":"Fluvanna County","lat":37.8128,"lng":-78.2878,"structure_type":null,"structure_name":null,"structure_address":"PALMYRA II CELL SITE # 30","height":0,"base_elevation":144.462829,"structure_owner_name":"Alltel Communications, LLC","structure_manager_name":null,"data_source":"FCC: Cellular (GIS)"}},{"type":"Feature","geometry":{"type":"Point","coordinates":[-78.2553,37.9186]},"properties":{"name":"WILDWOOD CELL SITE: RT 15 & SOUTH OF RT 616","styleUrl":"#towerStyle","styleHash":"1d01e409","county":"Fluvanna County","lat":37.9186,"lng":-78.2553,"structure_type":null,"structure_name":null,"structure_address":"WILDWOOD CELL SITE: RT 15 & SOUTH OF RT 616","height":0,"base_elevation":128.840774,"structure_owner_name":"Alltel Communications, LLC","structure_manager_name":null,"data_source":"FCC: Cellular (GIS)"}},{"type":"Feature","geometry":{"type":"Point","coordinates":[-78.424199,37.8367]},"properties":{"name":"COMPRESSOR STATION 175","styleUrl":"#towerStyle","styleHash":"1d01e409","county":"Fluvanna County","lat":37.8367,"lng":-78.424199,"structure_type":"TOWER","structure_name":null,"structure_address":"COMPRESSOR STATION 175","height":47.9,"base_elevation":138.615371,"structure_owner_name":"Transcontinental Gas Pipe Line Co., LLC","structure_manager_name":null,"data_source":"FCC: Microwave (GIS)"}},{"type":"Feature","geometry":{"type":"Point","coordinates":[-78.2748,37.8238]},"properties":{"name":"3717 Central Plains Rd.","styleUrl":"#towerStyle","styleHash":"1d01e409","county":"Fluvanna County","lat":37.8238,"lng":-78.2748,"structure_type":"POLE","structure_name":null,"structure_address":"3717 Central Plains Rd.","height":44.2,"base_elevation":130.941162,"structure_owner_name":"Conterra Ultra Broadband, LLC","structure_manager_name":null,"data_source":"FCC: Microwave (GIS)"}},{"type":"Feature","geometry":{"type":"Point","coordinates":[-78.278,37.8231]},"properties":{"name":"3440 Central Plains Rd.","styleUrl":"#towerStyle","styleHash":"1d01e409","county":"Fluvanna County","lat":37.8231,"lng":-78.278,"structure_type":"BANT","structure_name":null,"structure_address":"3440 Central Plains Rd.","height":10.6,"base_elevation":130.892959,"structure_owner_name":"Conterra Ultra Broadband, LLC","structure_manager_name":null,"data_source":"FCC: Microwave (GIS)"}},{"type":"Feature","geometry":{"type":"Point","coordinates":[-78.351099,37.8009]},"properties":{"name":"479 Cunningham Rd.","styleUrl":"#towerStyle","styleHash":"1d01e409","county":"Fluvanna County","lat":37.8009,"lng":-78.351099,"structure_type":"POLE","structure_name":null,"structure_address":"479 Cunningham Rd.","height":36.6,"base_elevation":153.159347,"structure_owner_name":"Conterra Ultra Broadband, LLC","structure_manager_name":null,"data_source":"FCC: Microwave (GIS)"}},{"type":"Feature","geometry":{"type":"Point","coordinates":[-78.1867,37.8312]},"properties":{"name":"563 Wilmington Rd.","styleUrl":"#towerStyle","styleHash":"1d01e409","county":"Fluvanna County","lat":37.8312,"lng":-78.1867,"structure_type":"POLE","structure_name":null,"structure_address":"563 Wilmington Rd.","height":32,"base_elevation":118.654144,"structure_owner_name":"Conterra Ultra Broadband, LLC","structure_manager_name":null,"data_source":"FCC: Microwave (GIS)"}},{"type":"Feature","geometry":{"type":"Point","coordinates":[-78.243699,37.8139]},"properties":{"name":"9172 James Madison Hwy.","styleUrl":"#towerStyle","styleHash":"1d01e409","county":"Fluvanna County","lat":37.8139,"lng":-78.243699,"structure_type":"POLE","structure_name":null,"structure_address":"9172 James Madison Hwy.","height":32,"base_elevation":97.28849,"structure_owner_name":"Conterra Ultra Broadband, LLC","structure_manager_name":null,"data_source":"FCC: Microwave (GIS)"}},{"type":"Feature","geometry":{"type":"Point","coordinates":[-78.2617,37.8741]},"properties":{"name":"14455 James Madison Hwy.","styleUrl":"#towerStyle","styleHash":"1d01e409","county":"Fluvanna County","lat":37.8741,"lng":-78.2617,"structure_type":"POLE","structure_name":null,"structure_address":"14455 James Madison Hwy.","height":44.2,"base_elevation":111.183761,"structure_owner_name":"Conterra Ultra Broadband, LLC","structure_manager_name":null,"data_source":"FCC: Microwave (GIS)"}},{"type":"Feature","geometry":{"type":"Point","coordinates":[-78.311199,37.9033]},"properties":{"name":"Vertical Asset","styleUrl":"#towerStyle","styleHash":"1d01e409","county":"Fluvanna County","lat":37.9033,"lng":-78.311199,"structure_type":null,"structure_name":null,"structure_address":null,"height":0,"base_elevation":123.169639,"structure_owner_name":"Aqua Utilities, Inc.","structure_manager_name":null,"data_source":"FCC: Microwave (GIS)"}},{"type":"Feature","geometry":{"type":"Point","coordinates":[-78.2619,37.8747]},"properties":{"name":"1 MILE NORTH OF PALMYRA","styleUrl":"#towerStyle","styleHash":"1d01e409","county":"Fluvanna County","lat":37.8747,"lng":-78.2619,"structure_type":"TOWER","structure_name":null,"structure_address":"1 MILE NORTH OF PALMYRA","height":53.3,"base_elevation":109.938591,"structure_owner_name":"USCOC OF VIRGINIA RSA #3, INC.","structure_manager_name":null,"data_source":"FCC: Microwave (GIS)"}},{"type":"Feature","geometry":{"type":"Point","coordinates":[-78.2733,37.7093]},"properties":{"name":"1.3 MI E OF","styleUrl":"#towerStyle","styleHash":"1d01e409","county":"Fluvanna County","lat":37.7093,"lng":-78.2733,"structure_type":"TOWER","structure_name":null,"structure_address":"1.3 MI E OF","height":99.6,"base_elevation":110.309761,"structure_owner_name":"VIRGINIA ELECTRIC AND POWER COMPANY","structure_manager_name":null,"data_source":"FCC: Microwave (GIS)"}},{"type":"Feature","geometry":{"type":"Point","coordinates":[-78.4597,37.7614]},"properties":{"name":"1575 BEALS LANE @ 5.5KM SE OF SR20 XING RR","styleUrl":"#towerStyle","styleHash":"1d01e409","county":"Fluvanna County","lat":37.7614,"lng":-78.4597,"structure_type":"B","structure_name":null,"structure_address":"1575 BEALS LANE @ 5.5KM SE OF SR20 XING RR","height":3.7,"base_elevation":81.236045,"structure_owner_name":"CSX Transportation Inc","structure_manager_name":null,"data_source":"FCC: Land Mobile - Private (GIS)"}},{"type":"Feature","geometry":{"type":"Point","coordinates":[-78.2661,37.8575]},"properties":{"name":"Palmyra  0.25 mi SSW","styleUrl":"#towerStyle","styleHash":"1d01e409","county":"Fluvanna County","lat":37.8575,"lng":-78.2661,"structure_type":"PIPE","structure_name":null,"structure_address":"Palmyra  0.25 mi SSW","height":5.2,"base_elevation":65.036117,"structure_owner_name":"Virginia Department of Emergency Management","structure_manager_name":null,"data_source":"FCC: Land Mobile - Private (GIS)"}},{"type":"Feature","geometry":{"type":"Point","coordinates":[-78.295,37.8689]},"properties":{"name":"1918 Thomas Jefferson Parkway","styleUrl":"#towerStyle","styleHash":"1d01e409","county":"Fluvanna County","lat":37.8689,"lng":-78.295,"structure_type":"BMAST","structure_name":null,"structure_address":"1918 Thomas Jefferson Parkway","height":18.8,"base_elevation":119.546066,"structure_owner_name":"Fluvanna County Public Schools","structure_manager_name":null,"data_source":"FCC: Land Mobile - Private (GIS)"}},{"type":"Feature","geometry":{"type":"Point","coordinates":[-78.300499,37.8722]},"properties":{"name":"1918 THOMAS JEFFERSON PARKWAY","styleUrl":"#towerStyle","styleHash":"1d01e409","county":"Fluvanna County","lat":37.8722,"lng":-78.300499,"structure_type":"BPIPE","structure_name":null,"structure_address":"1918 THOMAS JEFFERSON PARKWAY","height":25,"base_elevation":105.995056,"structure_owner_name":"FLUVANNA COUNTY PUBLIC SCHOOLS","structure_manager_name":null,"data_source":"FCC: Land Mobile - Private (GIS)"}}]}