{"type":"FeatureCollection","features":[{"type":"Feature","geometry":{"type":"Point","coordinates":[-75.6588282071628,37.73146738469246]},"properties":{"name":"Perdue Farms Incorporated - Ac","STREET":"22520 Lankford Hwy","CITY":"Accomac","STATE":"VA","ZIP":23301,"LAT":"37.73133800","LONG":"-75.65917700"}},{"type":"Feature","geometry":{"type":"Point","coordinates":[-77.55113053880534,37.696246463906405]},"properties":{"name":"Tyson Foods Incorporated - Gle","STREET":"13264 Mountain Rd","CITY":"Glen Allen","STATE":"VA","ZIP":23059,"LAT":"37.69610200","LONG":"-77.55142200"}},{"type":"Feature","geometry":{"type":"Point","coordinates":[-78.67280972594321,38.64832128194373]},"properties":{"name":"New Market Poultry","STREET":"145 Old Cross Road","CITY":"New Market","STATE":"VA","ZIP":22844,"LAT":"38.64820300","LONG":"-78.67307000"}},{"type":"Feature","geometry":{"type":"Point","coordinates":[-78.59136384144905,38.590524052845886]},"properties":{"name":"Alma Plant","STREET":"3426 Hwy 340 Business West","CITY":"Stanley","STATE":"VA","ZIP":22851,"LAT":"38.59040300","LONG":"-78.59162800"}},{"type":"Feature","geometry":{"type":"Point","coordinates":[-78.6123529916128,38.877953641570286]},"properties":{"name":"Georges Chicken LLC","STREET":"19992 Senedo Road","CITY":"Edinburg","STATE":"VA","ZIP":22824,"LAT":"38.87784200","LONG":"-78.61261700"}}]}