{"type":"FeatureCollection","features":[{"type":"Feature","geometry":{"type":"Point","coordinates":[-76.2651,36.7928]},"properties":{"name":"Atlantic Ave. & Campostella Rd.","styleUrl":"#towerStyle","styleHash":"1d01e409","county":"Chesapeake city","lat":36.7928,"lng":-76.2651,"structure_type":null,"structure_name":null,"structure_address":"Atlantic Ave. & Campostella Rd.","height":60.6,"base_elevation":5.692563,"structure_owner_name":"Global Tower, LLC","structure_manager_name":null,"data_source":"FCC: Antenna Structure Registration (GIS)"}},{"type":"Feature","geometry":{"type":"Point","coordinates":[-76.2409,36.7324]},"properties":{"name":"450 Battlefield Blvd. N.   (VA12545-A)","styleUrl":"#towerStyle","styleHash":"1d01e409","county":"Chesapeake city","lat":36.7324,"lng":-76.2409,"structure_type":null,"structure_name":null,"structure_address":"450 Battlefield Blvd. N.   (VA12545-A)","height":146,"base_elevation":3.878901,"structure_owner_name":"SBA Towers II LLC","structure_manager_name":null,"data_source":"FCC: Antenna Structure Registration (GIS)"}},{"type":"Feature","geometry":{"type":"Point","coordinates":[-76.2821,36.774099]},"properties":{"name":"2506 S. Military Highway","styleUrl":"#towerStyle","styleHash":"1d01e409","county":"Chesapeake city","lat":36.774099,"lng":-76.2821,"structure_type":null,"structure_name":null,"structure_address":"2506 S. Military Highway","height":45.7,"base_elevation":2.903504,"structure_owner_name":"Diamond Towers LLC","structure_manager_name":null,"data_source":"FCC: Antenna Structure Registration (GIS)"}},{"type":"Feature","geometry":{"type":"Point","coordinates":[-76.204399,36.610299]},"properties":{"name":"231 INDIAN CREEK ROAD","styleUrl":"#towerStyle","styleHash":"1d01e409","county":"Chesapeake city","lat":36.610299,"lng":-76.204399,"structure_type":null,"structure_name":null,"structure_address":"231 INDIAN CREEK ROAD","height":137.1,"base_elevation":3.05668,"structure_owner_name":"CROWN CASTLE GT COMPANY LLC","structure_manager_name":null,"data_source":"FCC: Antenna Structure Registration (GIS)"}},{"type":"Feature","geometry":{"type":"Point","coordinates":[-76.2298,36.7526]},"properties":{"name":"910 Hollowell Lane","styleUrl":"#towerStyle","styleHash":"1d01e409","county":"Chesapeake city","lat":36.7526,"lng":-76.2298,"structure_type":null,"structure_name":null,"structure_address":"910 Hollowell Lane","height":140.2,"base_elevation":5.834,"structure_owner_name":"Chesapeake, City of","structure_manager_name":null,"data_source":"FCC: Antenna Structure Registration (GIS)"}},{"type":"Feature","geometry":{"type":"Point","coordinates":[-76.2807,36.5914]},"properties":{"name":"3800 Bunch Walnuts Road","styleUrl":"#towerStyle","styleHash":"1d01e409","county":"Chesapeake city","lat":36.5914,"lng":-76.2807,"structure_type":null,"structure_name":null,"structure_address":"3800 Bunch Walnuts Road","height":149.4,"base_elevation":2.850917,"structure_owner_name":"Chesapeake, City of","structure_manager_name":null,"data_source":"FCC: Antenna Structure Registration (GIS)"}},{"type":"Feature","geometry":{"type":"Point","coordinates":[-76.247799,36.7184]},"properties":{"name":"236 Albemarle Drive","styleUrl":"#towerStyle","styleHash":"1d01e409","county":"Chesapeake city","lat":36.7184,"lng":-76.247799,"structure_type":null,"structure_name":null,"structure_address":"236 Albemarle Drive","height":79.2,"base_elevation":2.889134,"structure_owner_name":"Chesapeake, City of","structure_manager_name":null,"data_source":"FCC: Antenna Structure Registration (GIS)"}},{"type":"Feature","geometry":{"type":"Point","coordinates":[-76.3788,36.7703]},"properties":{"name":"3902 Military Highway South","styleUrl":"#towerStyle","styleHash":"1d01e409","county":"Chesapeake city","lat":36.7703,"lng":-76.3788,"structure_type":null,"structure_name":null,"structure_address":"3902 Military Highway South","height":149.4,"base_elevation":3.815824,"structure_owner_name":"Chesapeake, City of","structure_manager_name":null,"data_source":"FCC: Antenna Structure Registration (GIS)"}},{"type":"Feature","geometry":{"type":"Point","coordinates":[-76.213399,36.6313]},"properties":{"name":"5.8Hickory Yard, 157 Benefit Road","styleUrl":"#towerStyle","styleHash":"1d01e409","county":"Chesapeake city","lat":36.6313,"lng":-76.213399,"structure_type":null,"structure_name":null,"structure_address":"5.8Hickory Yard, 157 Benefit Road","height":149.4,"base_elevation":5.474339,"structure_owner_name":"Chesapeake, City of","structure_manager_name":null,"data_source":"FCC: Antenna Structure Registration (GIS)"}},{"type":"Feature","geometry":{"type":"Point","coordinates":[-76.1876,36.6776]},"properties":{"name":"1407 Old Centerville Turnpike","styleUrl":"#towerStyle","styleHash":"1d01e409","county":"Chesapeake city","lat":36.6776,"lng":-76.1876,"structure_type":null,"structure_name":null,"structure_address":"1407 Old Centerville Turnpike","height":48.8,"base_elevation":5.433935,"structure_owner_name":"Verizon Wireless Personal Communications LP","structure_manager_name":null,"data_source":"FCC: Antenna Structure Registration (GIS)"}},{"type":"Feature","geometry":{"type":"Point","coordinates":[-76.342299,36.6411]},"properties":{"name":"3408 West Landing Drive","styleUrl":"#towerStyle","styleHash":"1d01e409","county":"Chesapeake city","lat":36.6411,"lng":-76.342299,"structure_type":null,"structure_name":null,"structure_address":"3408 West Landing Drive","height":29.2,"base_elevation":4.305999,"structure_owner_name":null,"structure_manager_name":null,"data_source":"FCC: Antenna Structure Registration (GIS)"}},{"type":"Feature","geometry":{"type":"Point","coordinates":[-76.2825,36.8031]},"properties":{"name":"SOUTH SIDE OF BARNES ROAD","styleUrl":"#towerStyle","styleHash":"1d01e409","county":"Chesapeake city","lat":36.8031,"lng":-76.2825,"structure_type":null,"structure_name":null,"structure_address":"SOUTH SIDE OF BARNES ROAD","height":57.9,"base_elevation":1.550808,"structure_owner_name":"CHESAPEAKE-PORTSMOUTH BROADCASTING CORP.","structure_manager_name":null,"data_source":"FCC: Antenna Structure Registration (GIS)"}},{"type":"Feature","geometry":{"type":"Point","coordinates":[-76.2037,36.7471]},"properties":{"name":"904 Kempsville Road","styleUrl":"#towerStyle","styleHash":"1d01e409","county":"Chesapeake city","lat":36.7471,"lng":-76.2037,"structure_type":null,"structure_name":null,"structure_address":"904 Kempsville Road","height":44.2,"base_elevation":3.459829,"structure_owner_name":"SBA Structures, Inc.","structure_manager_name":null,"data_source":"FCC: Antenna Structure Registration (GIS)"}},{"type":"Feature","geometry":{"type":"Point","coordinates":[-76.3255,36.6619]},"properties":{"name":"CHESAPEAKE REGIONAL AIRPORT 1777 WEST ROAD","styleUrl":"#towerStyle","styleHash":"1d01e409","county":"Chesapeake city","lat":36.6619,"lng":-76.3255,"structure_type":null,"structure_name":null,"structure_address":"CHESAPEAKE REGIONAL AIRPORT 1777 WEST ROAD","height":16.8,"base_elevation":4.295999,"structure_owner_name":"COMMONWEALTH OF VIRGINIA","structure_manager_name":null,"data_source":"FCC: Antenna Structure Registration (GIS)"}},{"type":"Feature","geometry":{"type":"Point","coordinates":[-76.328799,36.6677]},"properties":{"name":"2924 Airport Rd","styleUrl":"#towerStyle","styleHash":"1d01e409","county":"Chesapeake city","lat":36.6677,"lng":-76.328799,"structure_type":null,"structure_name":null,"structure_address":"2924 Airport Rd","height":30.8,"base_elevation":4.295999,"structure_owner_name":"New Cingular Wireless PCS, LLC","structure_manager_name":null,"data_source":"FCC: Antenna Structure Registration (GIS)"}},{"type":"Feature","geometry":{"type":"Point","coordinates":[-76.346999,36.7593]},"properties":{"name":"I-64@ Rt 17,  EXIT 296","styleUrl":"#towerStyle","styleHash":"1d01e409","county":"Chesapeake city","lat":36.7593,"lng":-76.346999,"structure_type":null,"structure_name":null,"structure_address":"I-64@ Rt 17,  EXIT 296","height":45.7,"base_elevation":4.296999,"structure_owner_name":"Virginia, Commonwealth of, Dept of Trans","structure_manager_name":null,"data_source":"FCC: Antenna Structure Registration (GIS)"}},{"type":"Feature","geometry":{"type":"Point","coordinates":[-76.4312,36.8175]},"properties":{"name":"I664 @ Portsmouth Blvd, EXIT 11A","styleUrl":"#towerStyle","styleHash":"1d01e409","county":"Chesapeake city","lat":36.8175,"lng":-76.4312,"structure_type":null,"structure_name":null,"structure_address":"I664 @ Portsmouth Blvd, EXIT 11A","height":43.6,"base_elevation":4.920778,"structure_owner_name":"Virginia, Commonwealth of, Dept of Trans","structure_manager_name":null,"data_source":"FCC: Antenna Structure Registration (GIS)"}},{"type":"Feature","geometry":{"type":"Point","coordinates":[-76.3392,36.7692]},"properties":{"name":"701 BUTLER ST","styleUrl":"#towerStyle","styleHash":"1d01e409","county":"Chesapeake city","lat":36.7692,"lng":-76.3392,"structure_type":null,"structure_name":null,"structure_address":"701 BUTLER ST","height":71,"base_elevation":3.884144,"structure_owner_name":"COX COMMUNICATIONS, INC.","structure_manager_name":null,"data_source":"FCC: Antenna Structure Registration (GIS)"}},{"type":"Feature","geometry":{"type":"Point","coordinates":[-76.3845,36.7758]},"properties":{"name":"4001 S MILITARY HWY","styleUrl":"#towerStyle","styleHash":"1d01e409","county":"Chesapeake city","lat":36.7758,"lng":-76.3845,"structure_type":null,"structure_name":null,"structure_address":"4001 S MILITARY HWY","height":128,"base_elevation":5.064334,"structure_owner_name":"NEW CINGULAR WIRELESS SERVICES, INC.","structure_manager_name":null,"data_source":"FCC: Antenna Structure Registration (GIS)"}},{"type":"Feature","geometry":{"type":"Point","coordinates":[-76.289399,36.7612]},"properties":{"name":"329 Bainbridge Boulevard","styleUrl":"#towerStyle","styleHash":"1d01e409","county":"Chesapeake city","lat":36.7612,"lng":-76.289399,"structure_type":null,"structure_name":null,"structure_address":"329 Bainbridge Boulevard","height":38.1,"base_elevation":1.246999,"structure_owner_name":"CROWN CASTLE GT COMPANY LLC","structure_manager_name":null,"data_source":"FCC: Antenna Structure Registration (GIS)"}},{"type":"Feature","geometry":{"type":"Point","coordinates":[-76.3054,36.7533]},"properties":{"name":"1744 SHIPYARD RD","styleUrl":"#towerStyle","styleHash":"1d01e409","county":"Chesapeake city","lat":36.7533,"lng":-76.3054,"structure_type":null,"structure_name":null,"structure_address":"1744 SHIPYARD RD","height":152.4,"base_elevation":3.502408,"structure_owner_name":"CROWN COMMUNICATION LLC","structure_manager_name":null,"data_source":"FCC: Antenna Structure Registration (GIS)"}},{"type":"Feature","geometry":{"type":"Point","coordinates":[-76.3797,36.7678]},"properties":{"name":"3900 South Military Highway","styleUrl":"#towerStyle","styleHash":"1d01e409","county":"Chesapeake city","lat":36.7678,"lng":-76.3797,"structure_type":null,"structure_name":null,"structure_address":"3900 South Military Highway","height":121.9,"base_elevation":3.500091,"structure_owner_name":"City of Chesapeake","structure_manager_name":null,"data_source":"FCC: Antenna Structure Registration (GIS)"}},{"type":"Feature","geometry":{"type":"Point","coordinates":[-76.2539,36.7183]},"properties":{"name":"304 Albemarle Drive","styleUrl":"#towerStyle","styleHash":"1d01e409","county":"Chesapeake city","lat":36.7183,"lng":-76.2539,"structure_type":null,"structure_name":null,"structure_address":"304 Albemarle Drive","height":76.2,"base_elevation":1.249414,"structure_owner_name":"City of Chesapeake","structure_manager_name":null,"data_source":"FCC: Antenna Structure Registration (GIS)"}},{"type":"Feature","geometry":{"type":"Point","coordinates":[-76.3247,36.6294]},"properties":{"name":"2900 Benefit Road","styleUrl":"#towerStyle","styleHash":"1d01e409","county":"Chesapeake city","lat":36.6294,"lng":-76.3247,"structure_type":null,"structure_name":null,"structure_address":"2900 Benefit Road","height":39.6,"base_elevation":4.80279,"structure_owner_name":"Chesapeake, City of","structure_manager_name":null,"data_source":"FCC: Antenna Structure Registration (GIS)"}},{"type":"Feature","geometry":{"type":"Point","coordinates":[-76.386,36.7758]},"properties":{"name":"4001 S MILITARY HWY","styleUrl":"#towerStyle","styleHash":"1d01e409","county":"Chesapeake city","lat":36.7758,"lng":-76.386,"structure_type":null,"structure_name":null,"structure_address":"4001 S MILITARY HWY","height":128,"base_elevation":4.953699,"structure_owner_name":"VICO CONSTRUCTION CORPORATION","structure_manager_name":null,"data_source":"FCC: Antenna Structure Registration (GIS)"}},{"type":"Feature","geometry":{"type":"Point","coordinates":[-76.2658,36.763899]},"properties":{"name":"I-64 & I-464, L59736","styleUrl":"#towerStyle","styleHash":"1d01e409","county":"Chesapeake city","lat":36.763899,"lng":-76.2658,"structure_type":null,"structure_name":null,"structure_address":"I-64 & I-464, L59736","height":44.2,"base_elevation":4.296832,"structure_owner_name":"Virginia, Commonwealth of, Dept of Trans","structure_manager_name":null,"data_source":"FCC: Antenna Structure Registration (GIS)"}},{"type":"Feature","geometry":{"type":"Point","coordinates":[-76.3276,36.7165]},"properties":{"name":"2209 CEDAR RD","styleUrl":"#towerStyle","styleHash":"1d01e409","county":"Chesapeake city","lat":36.7165,"lng":-76.3276,"structure_type":null,"structure_name":null,"structure_address":"2209 CEDAR RD","height":46,"base_elevation":2.367699,"structure_owner_name":"CROWN CASTLE GT COMPANY LLC","structure_manager_name":null,"data_source":"FCC: Antenna Structure Registration (GIS)"}},{"type":"Feature","geometry":{"type":"Point","coordinates":[-76.3847,36.7567]},"properties":{"name":"VA-2 1 KM SW OF YADKIN .64 KM S OF NW RR","styleUrl":"#towerStyle","styleHash":"1d01e409","county":"Chesapeake city","lat":36.7567,"lng":-76.3847,"structure_type":null,"structure_name":null,"structure_address":"VA-2 1 KM SW OF YADKIN .64 KM S OF NW RR","height":151.5,"base_elevation":3.41863,"structure_owner_name":"Clear Channel Broadcasting, Inc.","structure_manager_name":null,"data_source":"FCC: Antenna Structure Registration (GIS)"}},{"type":"Feature","geometry":{"type":"Point","coordinates":[-76.1478,36.7553]},"properties":{"name":"2750 ELBOW ROAD","styleUrl":"#towerStyle","styleHash":"1d01e409","county":"Chesapeake city","lat":36.7553,"lng":-76.1478,"structure_type":null,"structure_name":null,"structure_address":"2750 ELBOW ROAD","height":51.8,"base_elevation":2.783999,"structure_owner_name":"CROWN CASTLE GT COMPANY LLC","structure_manager_name":null,"data_source":"FCC: Antenna Structure Registration (GIS)"}},{"type":"Feature","geometry":{"type":"Point","coordinates":[-76.2387,36.735]},"properties":{"name":"SE of the Int. of Rt. 168 & Great Bridge Bypass","styleUrl":"#towerStyle","styleHash":"1d01e409","county":"Chesapeake city","lat":36.735,"lng":-76.2387,"structure_type":null,"structure_name":null,"structure_address":"SE of the Int. of Rt. 168 & Great Bridge Bypass","height":57.9,"base_elevation":4.739988,"structure_owner_name":"HITCH TOWERS LLC","structure_manager_name":null,"data_source":"FCC: Antenna Structure Registration (GIS)"}},{"type":"Feature","geometry":{"type":"Point","coordinates":[-76.2944,36.7417]},"properties":{"name":"OFF BAINBRIDGE BOULEVARD","styleUrl":"#towerStyle","styleHash":"1d01e409","county":"Chesapeake city","lat":36.7417,"lng":-76.2944,"structure_type":null,"structure_name":null,"structure_address":"OFF BAINBRIDGE BOULEVARD","height":53.3,"base_elevation":1.246001,"structure_owner_name":"HITCH TOWERS LLC","structure_manager_name":null,"data_source":"FCC: Antenna Structure Registration (GIS)"}},{"type":"Feature","geometry":{"type":"Point","coordinates":[-76.1816,36.7399]},"properties":{"name":"1702 Elbow Road  (VA08330-S)","styleUrl":"#towerStyle","styleHash":"1d01e409","county":"Chesapeake city","lat":36.7399,"lng":-76.1816,"structure_type":null,"structure_name":null,"structure_address":"1702 Elbow Road  (VA08330-S)","height":48.8,"base_elevation":2.658518,"structure_owner_name":"SBA Towers II LLC","structure_manager_name":null,"data_source":"FCC: Antenna Structure Registration (GIS)"}},{"type":"Feature","geometry":{"type":"Point","coordinates":[-76.291032,36.77389]},"properties":{"name":"Highway 13","styleUrl":"#towerStyle","styleHash":"1d01e409","county":"Chesapeake city","lat":36.77389,"lng":-76.291032,"structure_type":"Water Storage Tank","structure_name":null,"structure_address":"Highway 13","height":null,"base_elevation":8.808004701,"structure_owner_name":"Chesapeake Bay Bridge & Tunnel District","structure_manager_name":null,"data_source":"Virginia Municipal League"}},{"type":"Feature","geometry":{"type":"Point","coordinates":[-76.445299,36.8228]},"properties":{"name":"TWR 4 - PORTSMOUTH BLVD RT 337 & GUM RD","styleUrl":"#towerStyle","styleHash":"1d01e409","county":"Chesapeake city","lat":36.8228,"lng":-76.445299,"structure_type":null,"structure_name":null,"structure_address":"TWR 4 - PORTSMOUTH BLVD RT 337 & GUM RD","height":75.3,"base_elevation":6.468427,"structure_owner_name":"CHESAPEAKE-PORTSMOUTH BROADCASTING CORPORATION","structure_manager_name":null,"data_source":"FCC: Antenna Structure Registration (GIS)"}},{"type":"Feature","geometry":{"type":"Point","coordinates":[-76.4444,36.8228]},"properties":{"name":"TWR 3 - PORTSMOUTH BLVD RT 337 & GUM RD","styleUrl":"#towerStyle","styleHash":"1d01e409","county":"Chesapeake city","lat":36.8228,"lng":-76.4444,"structure_type":null,"structure_name":null,"structure_address":"TWR 3 - PORTSMOUTH BLVD RT 337 & GUM RD","height":75.3,"base_elevation":6.331221,"structure_owner_name":"CHESAPEAKE-PORTSMOUTH BROADCASTING CORPORATION","structure_manager_name":null,"data_source":"FCC: Antenna Structure Registration (GIS)"}},{"type":"Feature","geometry":{"type":"Point","coordinates":[-76.4436,36.822499]},"properties":{"name":"TWR 2 - PORTSMOUTH BLVD RT 337 & GUM RD","styleUrl":"#towerStyle","styleHash":"1d01e409","county":"Chesapeake city","lat":36.822499,"lng":-76.4436,"structure_type":null,"structure_name":null,"structure_address":"TWR 2 - PORTSMOUTH BLVD RT 337 & GUM RD","height":75.3,"base_elevation":5.801909,"structure_owner_name":"CHESAPEAKE-PORTSMOUTH BROADCASTING CORPORATION","structure_manager_name":null,"data_source":"FCC: Antenna Structure Registration (GIS)"}},{"type":"Feature","geometry":{"type":"Point","coordinates":[-76.4428,36.8222]},"properties":{"name":"TWR 1 - PORTSMOUTH BLVD RT 337 & GUM RD","styleUrl":"#towerStyle","styleHash":"1d01e409","county":"Chesapeake city","lat":36.8222,"lng":-76.4428,"structure_type":null,"structure_name":null,"structure_address":"TWR 1 - PORTSMOUTH BLVD RT 337 & GUM RD","height":75.3,"base_elevation":5.796278,"structure_owner_name":"CHESAPEAKE-PORTSMOUTH BROADCASTING CORPORATION","structure_manager_name":null,"data_source":"FCC: Antenna Structure Registration (GIS)"}},{"type":"Feature","geometry":{"type":"Point","coordinates":[-76.1581,36.7133]},"properties":{"name":"1881 MT PLEASANT RD","styleUrl":"#towerStyle","styleHash":"1d01e409","county":"Chesapeake city","lat":36.7133,"lng":-76.1581,"structure_type":null,"structure_name":null,"structure_address":"1881 MT PLEASANT RD","height":45.7,"base_elevation":3.861066,"structure_owner_name":"Alltel Communications, LLC","structure_manager_name":null,"data_source":"FCC: Antenna Structure Registration (GIS)"}},{"type":"Feature","geometry":{"type":"Point","coordinates":[-76.3531,36.6978]},"properties":{"name":"917 GEORGE WASHINGTON HWY S","styleUrl":"#towerStyle","styleHash":"1d01e409","county":"Chesapeake city","lat":36.6978,"lng":-76.3531,"structure_type":null,"structure_name":null,"structure_address":"917 GEORGE WASHINGTON HWY S","height":45.7,"base_elevation":4.018012,"structure_owner_name":"Alltel Communications, LLC","structure_manager_name":null,"data_source":"FCC: Antenna Structure Registration (GIS)"}},{"type":"Feature","geometry":{"type":"Point","coordinates":[-76.188899,36.6917]},"properties":{"name":"DOMINION VA POWER FENTRESS 1038 Centerville Turnpike S.","styleUrl":"#towerStyle","styleHash":"1d01e409","county":"Chesapeake city","lat":36.6917,"lng":-76.188899,"structure_type":null,"structure_name":null,"structure_address":"DOMINION VA POWER FENTRESS 1038 Centerville Turnpike S.","height":47.2,"base_elevation":6.218782,"structure_owner_name":"Virginia Electric and Power Company","structure_manager_name":null,"data_source":"FCC: Antenna Structure Registration (GIS)"}},{"type":"Feature","geometry":{"type":"Point","coordinates":[-76.2314,36.6992]},"properties":{"name":"801 S BATTLEFIELD BLVD","styleUrl":"#towerStyle","styleHash":"1d01e409","county":"Chesapeake city","lat":36.6992,"lng":-76.2314,"structure_type":null,"structure_name":null,"structure_address":"801 S BATTLEFIELD BLVD","height":86.8,"base_elevation":4.352908,"structure_owner_name":"Virginia Electric and Power Company","structure_manager_name":null,"data_source":"FCC: Antenna Structure Registration (GIS)"}},{"type":"Feature","geometry":{"type":"Point","coordinates":[-76.3006,36.765]},"properties":{"name":"2701 VEPCO ST","styleUrl":"#towerStyle","styleHash":"1d01e409","county":"Chesapeake city","lat":36.765,"lng":-76.3006,"structure_type":null,"structure_name":null,"structure_address":"2701 VEPCO ST","height":86.8,"base_elevation":1.469338,"structure_owner_name":"Virginia Electric and Power Company","structure_manager_name":null,"data_source":"FCC: Antenna Structure Registration (GIS)"}},{"type":"Feature","geometry":{"type":"Point","coordinates":[-76.1803,36.7147]},"properties":{"name":"335 G. S. Centerville TPKE","styleUrl":"#towerStyle","styleHash":"1d01e409","county":"Chesapeake city","lat":36.7147,"lng":-76.1803,"structure_type":null,"structure_name":null,"structure_address":"335 G. S. Centerville TPKE","height":22.8,"base_elevation":5.939634,"structure_owner_name":"CROSSROADS FUEL SERVICE INC","structure_manager_name":null,"data_source":"FCC: Antenna Structure Registration (GIS)"}},{"type":"Feature","geometry":{"type":"Point","coordinates":[-76.326599,36.6199]},"properties":{"name":"2826 Lake Drummond Causeway","styleUrl":"#towerStyle","styleHash":"1d01e409","county":"Chesapeake city","lat":36.6199,"lng":-76.326599,"structure_type":null,"structure_name":null,"structure_address":"2826 Lake Drummond Causeway","height":46,"base_elevation":1.628774,"structure_owner_name":"CROWN COMMUNICATION LLC","structure_manager_name":null,"data_source":"FCC: Antenna Structure Registration (GIS)"}},{"type":"Feature","geometry":{"type":"Point","coordinates":[-76.1576,36.7133]},"properties":{"name":"1873 MOUNT PLEASANT ROAD","styleUrl":"#towerStyle","styleHash":"1d01e409","county":"Chesapeake city","lat":36.7133,"lng":-76.1576,"structure_type":null,"structure_name":null,"structure_address":"1873 MOUNT PLEASANT ROAD","height":45.1,"base_elevation":4.005238,"structure_owner_name":"CROWN COMMUNICATION LLC","structure_manager_name":null,"data_source":"FCC: Antenna Structure Registration (GIS)"}},{"type":"Feature","geometry":{"type":"Point","coordinates":[-76.1876,36.6792]},"properties":{"name":"OLD CENTERVILLE TPKE at LAND of PROMISE","styleUrl":"#towerStyle","styleHash":"1d01e409","county":"Chesapeake city","lat":36.6792,"lng":-76.1876,"structure_type":null,"structure_name":null,"structure_address":"OLD CENTERVILLE TPKE at LAND of PROMISE","height":49.4,"base_elevation":5.506123,"structure_owner_name":"CROWN COMMUNICATION LLC","structure_manager_name":null,"data_source":"FCC: Antenna Structure Registration (GIS)"}},{"type":"Feature","geometry":{"type":"Point","coordinates":[-76.2577,36.811]},"properties":{"name":"2600 CAMPOSTELLA RD","styleUrl":"#towerStyle","styleHash":"1d01e409","county":"Chesapeake city","lat":36.811,"lng":-76.2577,"structure_type":null,"structure_name":null,"structure_address":"2600 CAMPOSTELLA RD","height":42.4,"base_elevation":4.648837,"structure_owner_name":"CROWN CASTLE GT COMPANY LLC","structure_manager_name":null,"data_source":"FCC: Antenna Structure Registration (GIS)"}},{"type":"Feature","geometry":{"type":"Point","coordinates":[-76.1249,36.6897]},"properties":{"name":"2741 Lehman Road","styleUrl":"#towerStyle","styleHash":"1d01e409","county":"Chesapeake city","lat":36.6897,"lng":-76.1249,"structure_type":null,"structure_name":null,"structure_address":"2741 Lehman Road","height":45.7,"base_elevation":3.661296,"structure_owner_name":"SBA Towers, Inc.","structure_manager_name":null,"data_source":"FCC: Antenna Structure Registration (GIS)"}},{"type":"Feature","geometry":{"type":"Point","coordinates":[-76.2761,36.7175]},"properties":{"name":"1146 Alexander Lane","styleUrl":"#towerStyle","styleHash":"1d01e409","county":"Chesapeake city","lat":36.7175,"lng":-76.2761,"structure_type":null,"structure_name":null,"structure_address":"1146 Alexander Lane","height":53.3,"base_elevation":2.089334,"structure_owner_name":"Universal Wireless, LLC","structure_manager_name":null,"data_source":"FCC: Antenna Structure Registration (GIS)"}},{"type":"Feature","geometry":{"type":"Point","coordinates":[-76.3894,36.8003]},"properties":{"name":"3909 Airline Blvd","styleUrl":"#towerStyle","styleHash":"1d01e409","county":"Chesapeake city","lat":36.8003,"lng":-76.3894,"structure_type":null,"structure_name":null,"structure_address":"3909 Airline Blvd","height":40.5,"base_elevation":4.400777,"structure_owner_name":"Commonwealth of Virginia, Department of Forestry","structure_manager_name":null,"data_source":"FCC: Antenna Structure Registration (GIS)"}},{"type":"Feature","geometry":{"type":"Point","coordinates":[-76.366699,36.6539]},"properties":{"name":"4210 CORNLAND ROAD     ( 094344 )","styleUrl":"#towerStyle","styleHash":"1d01e409","county":"Chesapeake city","lat":36.6539,"lng":-76.366699,"structure_type":null,"structure_name":null,"structure_address":"4210 CORNLAND ROAD     ( 094344 )","height":55.4,"base_elevation":4.112244,"structure_owner_name":"American Towers, LLC.","structure_manager_name":null,"data_source":"FCC: Antenna Structure Registration (GIS)"}},{"type":"Feature","geometry":{"type":"Point","coordinates":[-76.3543,36.6979]},"properties":{"name":"917 S. George Washington Hwy. (028224)","styleUrl":"#towerStyle","styleHash":"1d01e409","county":"Chesapeake city","lat":36.6979,"lng":-76.3543,"structure_type":null,"structure_name":null,"structure_address":"917 S. George Washington Hwy. (028224)","height":56.6,"base_elevation":3.787405,"structure_owner_name":"American Towers, LLC.","structure_manager_name":null,"data_source":"FCC: Antenna Structure Registration (GIS)"}},{"type":"Feature","geometry":{"type":"Point","coordinates":[-76.3668,36.6537]},"properties":{"name":"4210 Cornland Rd. (028217)","styleUrl":"#towerStyle","styleHash":"1d01e409","county":"Chesapeake city","lat":36.6537,"lng":-76.3668,"structure_type":null,"structure_name":null,"structure_address":"4210 Cornland Rd. (028217)","height":56.6,"base_elevation":4.107451,"structure_owner_name":"American Towers, LLC.","structure_manager_name":null,"data_source":"FCC: Antenna Structure Registration (GIS)"}},{"type":"Feature","geometry":{"type":"Point","coordinates":[-76.2566,36.6531]},"properties":{"name":"500 AMBROSE STREET (094345)","styleUrl":"#towerStyle","styleHash":"1d01e409","county":"Chesapeake city","lat":36.6531,"lng":-76.2566,"structure_type":null,"structure_name":null,"structure_address":"500 AMBROSE STREET (094345)","height":55.4,"base_elevation":5.767621,"structure_owner_name":"American Towers, LLC.","structure_manager_name":null,"data_source":"FCC: Antenna Structure Registration (GIS)"}},{"type":"Feature","geometry":{"type":"Point","coordinates":[-76.2826,36.8104]},"properties":{"name":"95 Poindexter Street (310331)","styleUrl":"#towerStyle","styleHash":"1d01e409","county":"Chesapeake city","lat":36.8104,"lng":-76.2826,"structure_type":null,"structure_name":null,"structure_address":"95 Poindexter Street (310331)","height":161.8,"base_elevation":1.435467,"structure_owner_name":"SpectraSite Communications, LLC. through American Towers, LLC.","structure_manager_name":null,"data_source":"FCC: Antenna Structure Registration (GIS)"}},{"type":"Feature","geometry":{"type":"Point","coordinates":[-76.2113,36.6284]},"properties":{"name":"2756 Battlefield Blvd South  (088304)","styleUrl":"#towerStyle","styleHash":"1d01e409","county":"Chesapeake city","lat":36.6284,"lng":-76.2113,"structure_type":null,"structure_name":null,"structure_address":"2756 Battlefield Blvd South  (088304)","height":81.9,"base_elevation":5.768072,"structure_owner_name":"American Towers, LLC.","structure_manager_name":null,"data_source":"FCC: Antenna Structure Registration (GIS)"}},{"type":"Feature","geometry":{"type":"Point","coordinates":[-76.2711,36.8222]},"properties":{"name":"930 WILSON RD","styleUrl":"#towerStyle","styleHash":"1d01e409","county":"Chesapeake city","lat":36.8222,"lng":-76.2711,"structure_type":null,"structure_name":null,"structure_address":"930 WILSON RD","height":40.5,"base_elevation":4.364167,"structure_owner_name":"American Towers, LLC.","structure_manager_name":null,"data_source":"FCC: Antenna Structure Registration (GIS)"}},{"type":"Feature","geometry":{"type":"Point","coordinates":[-76.1489,36.7522]},"properties":{"name":"ELBOW RD.","styleUrl":"#towerStyle","styleHash":"1d01e409","county":"Chesapeake city","lat":36.7522,"lng":-76.1489,"structure_type":null,"structure_name":null,"structure_address":"ELBOW RD.","height":105.5,"base_elevation":2.783988,"structure_owner_name":"Pinnacle Towers LLC","structure_manager_name":null,"data_source":"FCC: Antenna Structure Registration (GIS)"}},{"type":"Feature","geometry":{"type":"Point","coordinates":[-76.4194,36.7821]},"properties":{"name":"4717 West Military Highway","styleUrl":"#towerStyle","styleHash":"1d01e409","county":"Chesapeake city","lat":36.7821,"lng":-76.4194,"structure_type":null,"structure_name":null,"structure_address":"4717 West Military Highway","height":52.1,"base_elevation":4.678411,"structure_owner_name":"Cellco Partnership","structure_manager_name":null,"data_source":"FCC: Antenna Structure Registration (GIS)"}},{"type":"Feature","geometry":{"type":"Point","coordinates":[-76.1829,36.7153]},"properties":{"name":"1530 MOUNT PLEASANT ROAD","styleUrl":"#towerStyle","styleHash":"1d01e409","county":"Chesapeake city","lat":36.7153,"lng":-76.1829,"structure_type":null,"structure_name":null,"structure_address":"1530 MOUNT PLEASANT ROAD","height":56.4,"base_elevation":3.671779,"structure_owner_name":"CROWN CASTLE GT COMPANY LLC","structure_manager_name":null,"data_source":"FCC: Antenna Structure Registration (GIS)"}},{"type":"Feature","geometry":{"type":"Point","coordinates":[-76.3,36.7247]},"properties":{"name":"DEEP CREEK","styleUrl":"#towerStyle","styleHash":"1d01e409","county":"Chesapeake city","lat":36.7247,"lng":-76.3,"structure_type":null,"structure_name":null,"structure_address":"DEEP CREEK","height":52.7,"base_elevation":1.774559,"structure_owner_name":"CHESAPEAKE PUBLIC SCHOOLS WFOS RADIO","structure_manager_name":null,"data_source":"FCC: Antenna Structure Registration (GIS)"}},{"type":"Feature","geometry":{"type":"Point","coordinates":[-76.2807,36.6172]},"properties":{"name":"3014 Bunch Walnuts  Rd","styleUrl":"#towerStyle","styleHash":"1d01e409","county":"Chesapeake city","lat":36.6172,"lng":-76.2807,"structure_type":null,"structure_name":null,"structure_address":"3014 Bunch Walnuts  Rd","height":57.9,"base_elevation":2.83488,"structure_owner_name":"TowerCo II LLC","structure_manager_name":null,"data_source":"FCC: Antenna Structure Registration (GIS)"}},{"type":"Feature","geometry":{"type":"Point","coordinates":[-76.233099,36.684599]},"properties":{"name":"107 W KEGMAN RD","styleUrl":"#towerStyle","styleHash":"1d01e409","county":"Chesapeake city","lat":36.684599,"lng":-76.233099,"structure_type":null,"structure_name":null,"structure_address":"107 W KEGMAN RD","height":45.7,"base_elevation":5.06074,"structure_owner_name":"CROWN CASTLE GT COMPANY LLC","structure_manager_name":null,"data_source":"FCC: Antenna Structure Registration (GIS)"}},{"type":"Feature","geometry":{"type":"Point","coordinates":[-76.3677,36.593]},"properties":{"name":"4726 Ballahack Road","styleUrl":"#towerStyle","styleHash":"1d01e409","county":"Chesapeake city","lat":36.593,"lng":-76.3677,"structure_type":null,"structure_name":null,"structure_address":"4726 Ballahack Road","height":33.5,"base_elevation":4.165792,"structure_owner_name":"STC Two LLC","structure_manager_name":null,"data_source":"FCC: Antenna Structure Registration (GIS)"}},{"type":"Feature","geometry":{"type":"Point","coordinates":[-76.337799,36.7717]},"properties":{"name":"817 BULTER ST","styleUrl":"#towerStyle","styleHash":"1d01e409","county":"Chesapeake city","lat":36.7717,"lng":-76.337799,"structure_type":null,"structure_name":null,"structure_address":"817 BULTER ST","height":60.3,"base_elevation":4.009239,"structure_owner_name":"CROWN CASTLE GT COMPANY LLC","structure_manager_name":null,"data_source":"FCC: Antenna Structure Registration (GIS)"}},{"type":"Feature","geometry":{"type":"Point","coordinates":[-76.341299,36.7908]},"properties":{"name":"1435 GUST LANE","styleUrl":"#towerStyle","styleHash":"1d01e409","county":"Chesapeake city","lat":36.7908,"lng":-76.341299,"structure_type":null,"structure_name":null,"structure_address":"1435 GUST LANE","height":45.1,"base_elevation":1.300319,"structure_owner_name":"Pinnacle Towers LLC","structure_manager_name":null,"data_source":"FCC: Antenna Structure Registration (GIS)"}},{"type":"Feature","geometry":{"type":"Point","coordinates":[-76.2876,36.6932]},"properties":{"name":"912 Washington Drive","styleUrl":"#towerStyle","styleHash":"1d01e409","county":"Chesapeake city","lat":36.6932,"lng":-76.2876,"structure_type":null,"structure_name":null,"structure_address":"912 Washington Drive","height":50.6,"base_elevation":4.337291,"structure_owner_name":"SBA Towers, Inc.","structure_manager_name":null,"data_source":"FCC: Antenna Structure Registration (GIS)"}},{"type":"Feature","geometry":{"type":"Point","coordinates":[-76.238299,36.7958]},"properties":{"name":"1557 MILITARY HWY","styleUrl":"#towerStyle","styleHash":"1d01e409","county":"Chesapeake city","lat":36.7958,"lng":-76.238299,"structure_type":null,"structure_name":null,"structure_address":"1557 MILITARY HWY","height":74.6,"base_elevation":6.017879,"structure_owner_name":"VIRGINIA, COMMONWEALTH OF","structure_manager_name":null,"data_source":"FCC: Antenna Structure Registration (GIS)"}},{"type":"Feature","geometry":{"type":"Point","coordinates":[-76.282199,36.8133]},"properties":{"name":"NORFOLK","styleUrl":"#towerStyle","styleHash":"1d01e409","county":"Chesapeake city","lat":36.8133,"lng":-76.282199,"structure_type":null,"structure_name":null,"structure_address":"NORFOLK","height":50.2,"base_elevation":2.777,"structure_owner_name":"Virginia, Commonwealth of, Dept of Transportation","structure_manager_name":null,"data_source":"FCC: Antenna Structure Registration (GIS)"}},{"type":"Feature","geometry":{"type":"Point","coordinates":[-76.4164,36.7853]},"properties":{"name":"PORTSMOUTH CITY COUNTY","styleUrl":"#towerStyle","styleHash":"1d01e409","county":"Chesapeake city","lat":36.7853,"lng":-76.4164,"structure_type":null,"structure_name":null,"structure_address":"PORTSMOUTH CITY COUNTY","height":50.3,"base_elevation":4.65059,"structure_owner_name":"Virginia, Commonwealth of, Dept of Transportation","structure_manager_name":null,"data_source":"FCC: Antenna Structure Registration (GIS)"}},{"type":"Feature","geometry":{"type":"Point","coordinates":[-76.2184,36.6276]},"properties":{"name":"400 HICKORY RIDGE RD","styleUrl":"#towerStyle","styleHash":"1d01e409","county":"Chesapeake city","lat":36.6276,"lng":-76.2184,"structure_type":null,"structure_name":null,"structure_address":"400 HICKORY RIDGE RD","height":128.6,"base_elevation":4.555449,"structure_owner_name":"CLEAR CHANNEL BROADCASTING, INC.","structure_manager_name":null,"data_source":"FCC: Antenna Structure Registration (GIS)"}},{"type":"Feature","geometry":{"type":"Point","coordinates":[-76.2588,36.738]},"properties":{"name":"1994 Tiger Drive  (VA50548C)","styleUrl":"#towerStyle","styleHash":"1d01e409","county":"Chesapeake city","lat":36.738,"lng":-76.2588,"structure_type":null,"structure_name":null,"structure_address":"1994 Tiger Drive  (VA50548C)","height":46.6,"base_elevation":6.20185,"structure_owner_name":"T-Mobile Northeast LLC","structure_manager_name":null,"data_source":"FCC: Antenna Structure Registration (GIS)"}},{"type":"Feature","geometry":{"type":"Point","coordinates":[-76.2271,36.7965]},"properties":{"name":"211 Smith Avenue","styleUrl":"#towerStyle","styleHash":"1d01e409","county":"Chesapeake city","lat":36.7965,"lng":-76.2271,"structure_type":null,"structure_name":null,"structure_address":"211 Smith Avenue","height":45.7,"base_elevation":5.826233,"structure_owner_name":"T-Mobile Northeast LLC","structure_manager_name":null,"data_source":"FCC: Antenna Structure Registration (GIS)"}},{"type":"Feature","geometry":{"type":"Point","coordinates":[-76.3841,36.5867]},"properties":{"name":"Rt. 17, I mile South, Ballahack Rd","styleUrl":"#towerStyle","styleHash":"1d01e409","county":"Chesapeake city","lat":36.5867,"lng":-76.3841,"structure_type":null,"structure_name":null,"structure_address":"Rt. 17, I mile South, Ballahack Rd","height":54.9,"base_elevation":3.998999,"structure_owner_name":"T-Mobile Northeast LLC","structure_manager_name":null,"data_source":"FCC: Antenna Structure Registration (GIS)"}},{"type":"Feature","geometry":{"type":"Point","coordinates":[-76.238299,36.7958]},"properties":{"name":"1557 MILITARY HWY","styleUrl":"#towerStyle","styleHash":"1d01e409","county":"Chesapeake city","lat":36.7958,"lng":-76.238299,"structure_type":"TOWER","structure_name":null,"structure_address":"1557 MILITARY HWY","height":74.6,"base_elevation":6.017879,"structure_owner_name":"VIRGINIA, COMMONWEALTH OF DEPARTMENT OF STATE POLICE","structure_manager_name":null,"data_source":"FCC: Land Mobile - Private (GIS)"}},{"type":"Feature","geometry":{"type":"Point","coordinates":[-76.23,36.7756]},"properties":{"name":"Vertical Asset","styleUrl":"#towerStyle","styleHash":"1d01e409","county":"Chesapeake city","lat":36.7756,"lng":-76.23,"structure_type":null,"structure_name":null,"structure_address":null,"height":0,"base_elevation":5.834,"structure_owner_name":"Brand Technologies Services LLC","structure_manager_name":null,"data_source":"FCC: Land Mobile - Private (GIS)"}},{"type":"Feature","geometry":{"type":"Point","coordinates":[-76.415,36.8233]},"properties":{"name":"Vertical Asset","styleUrl":"#towerStyle","styleHash":"1d01e409","county":"Chesapeake city","lat":36.8233,"lng":-76.415,"structure_type":null,"structure_name":null,"structure_address":null,"height":0,"base_elevation":4.314013,"structure_owner_name":"Toys R Us Inc","structure_manager_name":null,"data_source":"FCC: Land Mobile - Private (GIS)"}},{"type":"Feature","geometry":{"type":"Point","coordinates":[-76.2342,36.6569]},"properties":{"name":"157 Hillcrest Pkwy","styleUrl":"#towerStyle","styleHash":"1d01e409","county":"Chesapeake city","lat":36.6569,"lng":-76.2342,"structure_type":null,"structure_name":null,"structure_address":"157 Hillcrest Pkwy","height":0,"base_elevation":5.812999,"structure_owner_name":"HOME DEPOT U.S.A., INC.","structure_manager_name":null,"data_source":"FCC: Land Mobile - Private (GIS)"}},{"type":"Feature","geometry":{"type":"Point","coordinates":[-76.4153,36.822]},"properties":{"name":"2421 Old Taylor Road","styleUrl":"#towerStyle","styleHash":"1d01e409","county":"Chesapeake city","lat":36.822,"lng":-76.4153,"structure_type":null,"structure_name":null,"structure_address":"2421 Old Taylor Road","height":0,"base_elevation":4.263055,"structure_owner_name":"HOME DEPOT U.S.A., INC.","structure_manager_name":null,"data_source":"FCC: Land Mobile - Private (GIS)"}},{"type":"Feature","geometry":{"type":"Point","coordinates":[-76.2539,36.7653]},"properties":{"name":"1400 Tintern St","styleUrl":"#towerStyle","styleHash":"1d01e409","county":"Chesapeake city","lat":36.7653,"lng":-76.2539,"structure_type":null,"structure_name":null,"structure_address":"1400 Tintern St","height":0,"base_elevation":5.826999,"structure_owner_name":"HOME DEPOT U.S.A., INC.","structure_manager_name":null,"data_source":"FCC: Land Mobile - Private (GIS)"}},{"type":"Feature","geometry":{"type":"Point","coordinates":[-76.3169,36.7169]},"properties":{"name":"2007 Grizzly Trl","styleUrl":"#towerStyle","styleHash":"1d01e409","county":"Chesapeake city","lat":36.7169,"lng":-76.3169,"structure_type":"BMAST","structure_name":null,"structure_address":"2007 Grizzly Trl","height":14.3,"base_elevation":2.906946,"structure_owner_name":"Chesapeake Public Schools","structure_manager_name":null,"data_source":"FCC: Land Mobile - Private (GIS)"}},{"type":"Feature","geometry":{"type":"Point","coordinates":[-76.3169,36.7169]},"properties":{"name":"Vertical Asset","styleUrl":"#towerStyle","styleHash":"1d01e409","county":"Chesapeake city","lat":36.7169,"lng":-76.3169,"structure_type":null,"structure_name":null,"structure_address":null,"height":0,"base_elevation":2.906946,"structure_owner_name":"Chesapeake Public Schools","structure_manager_name":null,"data_source":"FCC: Land Mobile - Private (GIS)"}},{"type":"Feature","geometry":{"type":"Point","coordinates":[-76.238299,36.7958]},"properties":{"name":"1557 MILITARY HWY","styleUrl":"#towerStyle","styleHash":"1d01e409","county":"Chesapeake city","lat":36.7958,"lng":-76.238299,"structure_type":"TOWER","structure_name":null,"structure_address":"1557 MILITARY HWY","height":74.6,"base_elevation":6.017879,"structure_owner_name":"VIRGINIA, COMMONWEALTH OF, DEPARTMENT OF STATE POLICE","structure_manager_name":null,"data_source":"FCC: Land Mobile - Private (GIS)"}},{"type":"Feature","geometry":{"type":"Point","coordinates":[-76.184399,36.7539]},"properties":{"name":"Vertical Asset","styleUrl":"#towerStyle","styleHash":"1d01e409","county":"Chesapeake city","lat":36.7539,"lng":-76.184399,"structure_type":null,"structure_name":null,"structure_address":null,"height":0,"base_elevation":3.882446,"structure_owner_name":"ETHRIDGE GREENS","structure_manager_name":null,"data_source":"FCC: Land Mobile - Private (GIS)"}},{"type":"Feature","geometry":{"type":"Point","coordinates":[-76.3653,36.7758]},"properties":{"name":"Vertical Asset","styleUrl":"#towerStyle","styleHash":"1d01e409","county":"Chesapeake city","lat":36.7758,"lng":-76.3653,"structure_type":null,"structure_name":null,"structure_address":null,"height":0,"base_elevation":5.510668,"structure_owner_name":"EAST COAST VALVE SERVICES","structure_manager_name":null,"data_source":"FCC: Land Mobile - Private (GIS)"}},{"type":"Feature","geometry":{"type":"Point","coordinates":[-76.2278,36.7694]},"properties":{"name":"1204 GREENBRIER PKWY","styleUrl":"#towerStyle","styleHash":"1d01e409","county":"Chesapeake city","lat":36.7694,"lng":-76.2278,"structure_type":null,"structure_name":null,"structure_address":"1204 GREENBRIER PKWY","height":0,"base_elevation":5.85404,"structure_owner_name":"PASTA ISLES","structure_manager_name":null,"data_source":"FCC: Land Mobile - Private (GIS)"}},{"type":"Feature","geometry":{"type":"Point","coordinates":[-76.415599,36.8239]},"properties":{"name":"2316 CHESAPEAKE SQ. RING RD","styleUrl":"#towerStyle","styleHash":"1d01e409","county":"Chesapeake city","lat":36.8239,"lng":-76.415599,"structure_type":null,"structure_name":null,"structure_address":"2316 CHESAPEAKE SQ. RING RD","height":0,"base_elevation":4.970828,"structure_owner_name":"PASTA ISLES","structure_manager_name":null,"data_source":"FCC: Land Mobile - Private (GIS)"}},{"type":"Feature","geometry":{"type":"Point","coordinates":[-76.238299,36.7958]},"properties":{"name":"1557 MILITARY HIGHWAY","styleUrl":"#towerStyle","styleHash":"1d01e409","county":"Chesapeake city","lat":36.7958,"lng":-76.238299,"structure_type":"TOWER","structure_name":null,"structure_address":"1557 MILITARY HIGHWAY","height":74.6,"base_elevation":6.017879,"structure_owner_name":"VIRGINIA, COMMONWEALTH OF, DEPARTMENT OF STATE POLICE","structure_manager_name":null,"data_source":"FCC: Land Mobile - Private (GIS)"}},{"type":"Feature","geometry":{"type":"Point","coordinates":[-76.238,36.7956]},"properties":{"name":"1557 S MILITARY HWY","styleUrl":"#towerStyle","styleHash":"1d01e409","county":"Chesapeake city","lat":36.7956,"lng":-76.238,"structure_type":"TOWER","structure_name":null,"structure_address":"1557 S MILITARY HWY","height":51,"base_elevation":5.930591,"structure_owner_name":"VIRGINIA DEPARTMENT OF FORESTRY","structure_manager_name":null,"data_source":"FCC: Land Mobile - Private (GIS)"}},{"type":"Feature","geometry":{"type":"Point","coordinates":[-76.308,36.7731]},"properties":{"name":"2801 S MILITARY HWY","styleUrl":"#towerStyle","styleHash":"1d01e409","county":"Chesapeake city","lat":36.7731,"lng":-76.308,"structure_type":"B","structure_name":null,"structure_address":"2801 S MILITARY HWY","height":12.1,"base_elevation":2.791412,"structure_owner_name":"IMTT VIRGINIA CHESAPEAKE TERMINAL","structure_manager_name":null,"data_source":"FCC: Land Mobile - Private (GIS)"}},{"type":"Feature","geometry":{"type":"Point","coordinates":[-76.2292,36.7764]},"properties":{"name":"Vertical Asset","styleUrl":"#towerStyle","styleHash":"1d01e409","county":"Chesapeake city","lat":36.7764,"lng":-76.2292,"structure_type":null,"structure_name":null,"structure_address":null,"height":0,"base_elevation":5.834,"structure_owner_name":"JC Penney Corp Inc","structure_manager_name":null,"data_source":"FCC: Land Mobile - Private (GIS)"}},{"type":"Feature","geometry":{"type":"Point","coordinates":[-76.4139,36.825]},"properties":{"name":"Vertical Asset","styleUrl":"#towerStyle","styleHash":"1d01e409","county":"Chesapeake city","lat":36.825,"lng":-76.4139,"structure_type":null,"structure_name":null,"structure_address":null,"height":0,"base_elevation":4.252962,"structure_owner_name":"JC Penney Corp Inc","structure_manager_name":null,"data_source":"FCC: Land Mobile - Private (GIS)"}},{"type":"Feature","geometry":{"type":"Point","coordinates":[-76.2342,36.7689]},"properties":{"name":"Vertical Asset","styleUrl":"#towerStyle","styleHash":"1d01e409","county":"Chesapeake city","lat":36.7689,"lng":-76.2342,"structure_type":null,"structure_name":null,"structure_address":null,"height":0,"base_elevation":7.233536,"structure_owner_name":"Capital Groups Companies, Inc","structure_manager_name":null,"data_source":"FCC: Land Mobile - Private (GIS)"}},{"type":"Feature","geometry":{"type":"Point","coordinates":[-76.289399,36.8158]},"properties":{"name":"Vertical Asset","styleUrl":"#towerStyle","styleHash":"1d01e409","county":"Chesapeake city","lat":36.8158,"lng":-76.289399,"structure_type":null,"structure_name":null,"structure_address":null,"height":0,"base_elevation":1.245587,"structure_owner_name":"TransMontaigne Product Services Inc.","structure_manager_name":null,"data_source":"FCC: Land Mobile - Private (GIS)"}},{"type":"Feature","geometry":{"type":"Point","coordinates":[-76.2289,36.7775]},"properties":{"name":"Vertical Asset","styleUrl":"#towerStyle","styleHash":"1d01e409","county":"Chesapeake city","lat":36.7775,"lng":-76.2289,"structure_type":null,"structure_name":null,"structure_address":null,"height":0,"base_elevation":5.834,"structure_owner_name":"GAP INC","structure_manager_name":null,"data_source":"FCC: Land Mobile - Private (GIS)"}},{"type":"Feature","geometry":{"type":"Point","coordinates":[-76.2628,36.7964]},"properties":{"name":"201 DEXTER STREET WEST","styleUrl":"#towerStyle","styleHash":"1d01e409","county":"Chesapeake city","lat":36.7964,"lng":-76.2628,"structure_type":"BANT","structure_name":null,"structure_address":"201 DEXTER STREET WEST","height":10.6,"base_elevation":5.751678,"structure_owner_name":"Pearl Avenue USA Ltd","structure_manager_name":null,"data_source":"FCC: Land Mobile - Private (GIS)"}},{"type":"Feature","geometry":{"type":"Point","coordinates":[-76.3786,36.7703]},"properties":{"name":"3902 MILITARY HIGHWAY SOUTH","styleUrl":"#towerStyle","styleHash":"1d01e409","county":"Chesapeake city","lat":36.7703,"lng":-76.3786,"structure_type":"TOWER","structure_name":null,"structure_address":"3902 MILITARY HIGHWAY SOUTH","height":152.1,"base_elevation":3.816451,"structure_owner_name":"YORK COUNTY","structure_manager_name":null,"data_source":"FCC: Land Mobile - Private (GIS)"}},{"type":"Feature","geometry":{"type":"Point","coordinates":[-76.2705,36.7917]},"properties":{"name":"PORTLOCK RD RR CROSSING AT RR MP N5.16","styleUrl":"#towerStyle","styleHash":"1d01e409","county":"Chesapeake city","lat":36.7917,"lng":-76.2705,"structure_type":"BANT","structure_name":null,"structure_address":"PORTLOCK RD RR CROSSING AT RR MP N5.16","height":3.1,"base_elevation":4.268216,"structure_owner_name":"Norfolk Southern Railway Company","structure_manager_name":null,"data_source":"FCC: Land Mobile - Private (GIS)"}},{"type":"Feature","geometry":{"type":"Point","coordinates":[-76.2192,36.7339]},"properties":{"name":"Vertical Asset","styleUrl":"#towerStyle","styleHash":"1d01e409","county":"Chesapeake city","lat":36.7339,"lng":-76.2192,"structure_type":null,"structure_name":null,"structure_address":null,"height":0,"base_elevation":4.444235,"structure_owner_name":"GREENBRIER CHRISTIAN ACADEMY INC","structure_manager_name":null,"data_source":"FCC: Land Mobile - Private (GIS)"}},{"type":"Feature","geometry":{"type":"Point","coordinates":[-76.4397,36.8414]},"properties":{"name":"Vertical Asset","styleUrl":"#towerStyle","styleHash":"1d01e409","county":"Chesapeake city","lat":36.8414,"lng":-76.4397,"structure_type":null,"structure_name":null,"structure_address":null,"height":0,"base_elevation":6.287934,"structure_owner_name":"HUDD Distribution Svs.","structure_manager_name":null,"data_source":"FCC: Land Mobile - Private (GIS)"}},{"type":"Feature","geometry":{"type":"Point","coordinates":[-76.2239,36.7072]},"properties":{"name":"Vertical Asset","styleUrl":"#towerStyle","styleHash":"1d01e409","county":"Chesapeake city","lat":36.7072,"lng":-76.2239,"structure_type":null,"structure_name":null,"structure_address":null,"height":0,"base_elevation":4.855018,"structure_owner_name":"Virginia Veterans Care Center","structure_manager_name":null,"data_source":"FCC: Land Mobile - Private (GIS)"}},{"type":"Feature","geometry":{"type":"Point","coordinates":[-76.2239,36.7992]},"properties":{"name":"2210 PARAMONT AVE","styleUrl":"#towerStyle","styleHash":"1d01e409","county":"Chesapeake city","lat":36.7992,"lng":-76.2239,"structure_type":"BANT","structure_name":null,"structure_address":"2210 PARAMONT AVE","height":5.2,"base_elevation":5.70657,"structure_owner_name":"LIFETOUCH NATIONAL SCHOOL STUDIOS","structure_manager_name":null,"data_source":"FCC: Land Mobile - Private (GIS)"}},{"type":"Feature","geometry":{"type":"Point","coordinates":[-76.269699,36.8083]},"properties":{"name":"Chesapeake Ave RR crossing at MP V5.24","styleUrl":"#towerStyle","styleHash":"1d01e409","county":"Chesapeake city","lat":36.8083,"lng":-76.269699,"structure_type":"BANT","structure_name":null,"structure_address":"Chesapeake Ave RR crossing at MP V5.24","height":3.1,"base_elevation":4.300428,"structure_owner_name":"Norfolk Southern Railway Company","structure_manager_name":null,"data_source":"FCC: Land Mobile - Private (GIS)"}},{"type":"Feature","geometry":{"type":"Point","coordinates":[-76.2647,36.8136]},"properties":{"name":"Atlantic Ave RR crossing at MP V4.74","styleUrl":"#towerStyle","styleHash":"1d01e409","county":"Chesapeake city","lat":36.8136,"lng":-76.2647,"structure_type":"BANT","structure_name":null,"structure_address":"Atlantic Ave RR crossing at MP V4.74","height":3.1,"base_elevation":5.274975,"structure_owner_name":"Norfolk Southern Railway Company","structure_manager_name":null,"data_source":"FCC: Land Mobile - Private (GIS)"}},{"type":"Feature","geometry":{"type":"Point","coordinates":[-76.2639,36.8192]},"properties":{"name":"Cascade St Rd RR crossing at MP NS2.18","styleUrl":"#towerStyle","styleHash":"1d01e409","county":"Chesapeake city","lat":36.8192,"lng":-76.2639,"structure_type":"BANT","structure_name":null,"structure_address":"Cascade St Rd RR crossing at MP NS2.18","height":3.1,"base_elevation":5.399088,"structure_owner_name":"Norfolk Southern Railway Company","structure_manager_name":null,"data_source":"FCC: Land Mobile - Private (GIS)"}},{"type":"Feature","geometry":{"type":"Point","coordinates":[-76.2622,36.8161]},"properties":{"name":"Liberty St Rd RR crossing at MP V4.55","styleUrl":"#towerStyle","styleHash":"1d01e409","county":"Chesapeake city","lat":36.8161,"lng":-76.2622,"structure_type":"BANT","structure_name":null,"structure_address":"Liberty St Rd RR crossing at MP V4.55","height":3.1,"base_elevation":5.816893,"structure_owner_name":"Norfolk Southern Railway Company","structure_manager_name":null,"data_source":"FCC: Land Mobile - Private (GIS)"}},{"type":"Feature","geometry":{"type":"Point","coordinates":[-76.2547,36.798299]},"properties":{"name":"Providence Rd RR crossing at MP NS3.55","styleUrl":"#towerStyle","styleHash":"1d01e409","county":"Chesapeake city","lat":36.798299,"lng":-76.2547,"structure_type":"BANT","structure_name":null,"structure_address":"Providence Rd RR crossing at MP NS3.55","height":3.1,"base_elevation":5.886498,"structure_owner_name":"Norfolk Southern Railway Company","structure_manager_name":null,"data_source":"FCC: Land Mobile - Private (GIS)"}},{"type":"Feature","geometry":{"type":"Point","coordinates":[-76.2558,36.8039]},"properties":{"name":"Narrow St RR crossing at MP NS3.23","styleUrl":"#towerStyle","styleHash":"1d01e409","county":"Chesapeake city","lat":36.8039,"lng":-76.2558,"structure_type":"BANT","structure_name":null,"structure_address":"Narrow St RR crossing at MP NS3.23","height":3.1,"base_elevation":5.72962,"structure_owner_name":"Norfolk Southern Railway Company","structure_manager_name":null,"data_source":"FCC: Land Mobile - Private (GIS)"}},{"type":"Feature","geometry":{"type":"Point","coordinates":[-76.3092,36.7764]},"properties":{"name":"Vertical Asset","styleUrl":"#towerStyle","styleHash":"1d01e409","county":"Chesapeake city","lat":36.7764,"lng":-76.3092,"structure_type":null,"structure_name":null,"structure_address":null,"height":0,"base_elevation":4.652218,"structure_owner_name":"ATLANTIC ENERGY INC","structure_manager_name":null,"data_source":"FCC: Land Mobile - Private (GIS)"}},{"type":"Feature","geometry":{"type":"Point","coordinates":[-76.3011,36.7714]},"properties":{"name":"2701 Vepco Street","styleUrl":"#towerStyle","styleHash":"1d01e409","county":"Chesapeake city","lat":36.7714,"lng":-76.3011,"structure_type":"BMAST","structure_name":null,"structure_address":"2701 Vepco Street","height":55,"base_elevation":3.854588,"structure_owner_name":"VIRGINIA ELECTRIC AND POWER COMPANY","structure_manager_name":null,"data_source":"FCC: Land Mobile - Private (GIS)"}},{"type":"Feature","geometry":{"type":"Point","coordinates":[-76.2133,36.6311]},"properties":{"name":"5.8Hickory Yard, 157 Benefit Road","styleUrl":"#towerStyle","styleHash":"1d01e409","county":"Chesapeake city","lat":36.6311,"lng":-76.2133,"structure_type":"TOWER","structure_name":null,"structure_address":"5.8Hickory Yard, 157 Benefit Road","height":152.4,"base_elevation":5.493731,"structure_owner_name":"CHESAPEAKE, CITY OF","structure_manager_name":null,"data_source":"FCC: Land Mobile - Private (GIS)"}},{"type":"Feature","geometry":{"type":"Point","coordinates":[-76.2683,36.7828]},"properties":{"name":"Vertical Asset","styleUrl":"#towerStyle","styleHash":"1d01e409","county":"Chesapeake city","lat":36.7828,"lng":-76.2683,"structure_type":null,"structure_name":null,"structure_address":null,"height":0,"base_elevation":4.387418,"structure_owner_name":"Speedread  Technologies","structure_manager_name":null,"data_source":"FCC: Land Mobile - Private (GIS)"}},{"type":"Feature","geometry":{"type":"Point","coordinates":[-76.294199,36.7253]},"properties":{"name":"Vertical Asset","styleUrl":"#towerStyle","styleHash":"1d01e409","county":"Chesapeake city","lat":36.7253,"lng":-76.294199,"structure_type":null,"structure_name":null,"structure_address":null,"height":0,"base_elevation":1.502381,"structure_owner_name":"VIRGINIA, COMMONWEALTH OF","structure_manager_name":null,"data_source":"FCC: Land Mobile - Private (GIS)"}},{"type":"Feature","geometry":{"type":"Point","coordinates":[-76.2183,36.7675]},"properties":{"name":"Vertical Asset","styleUrl":"#towerStyle","styleHash":"1d01e409","county":"Chesapeake city","lat":36.7675,"lng":-76.2183,"structure_type":null,"structure_name":null,"structure_address":null,"height":0,"base_elevation":5.834,"structure_owner_name":"Greenbrier County Club","structure_manager_name":null,"data_source":"FCC: Land Mobile - Private (GIS)"}},{"type":"Feature","geometry":{"type":"Point","coordinates":[-76.295599,36.7747]},"properties":{"name":"NS BRIDGE 7 CABIN, ELIZABETH RIVER SOUTH BRANCH","styleUrl":"#towerStyle","styleHash":"1d01e409","county":"Chesapeake city","lat":36.7747,"lng":-76.295599,"structure_type":"BRIDG","structure_name":null,"structure_address":"NS BRIDGE 7 CABIN, ELIZABETH RIVER SOUTH BRANCH","height":15,"base_elevation":0.097404,"structure_owner_name":"Norfolk Southern Railway Company","structure_manager_name":null,"data_source":"FCC: Land Mobile - Private (GIS)"}},{"type":"Feature","geometry":{"type":"Point","coordinates":[-76.2933,36.7969]},"properties":{"name":"Bridge Southern Brch Tender  ELIZABETH RIVER SOUTH BRANCH","styleUrl":"#towerStyle","styleHash":"1d01e409","county":"Chesapeake city","lat":36.7969,"lng":-76.2933,"structure_type":"BRIDG","structure_name":null,"structure_address":"Bridge Southern Brch Tender  ELIZABETH RIVER SOUTH BRANCH","height":15,"base_elevation":0,"structure_owner_name":"Norfolk Southern Railway Company","structure_manager_name":null,"data_source":"FCC: Land Mobile - Private (GIS)"}},{"type":"Feature","geometry":{"type":"Point","coordinates":[-76.2042,36.7669]},"properties":{"name":"1410 KEMPSVILLE RD.","styleUrl":"#towerStyle","styleHash":"1d01e409","county":"Chesapeake city","lat":36.7669,"lng":-76.2042,"structure_type":null,"structure_name":null,"structure_address":"1410 KEMPSVILLE RD.","height":0,"base_elevation":6.067739,"structure_owner_name":"WENDY'S OFFICE","structure_manager_name":null,"data_source":"FCC: Land Mobile - Private (GIS)"}},{"type":"Feature","geometry":{"type":"Point","coordinates":[-76.2508,36.7861]},"properties":{"name":"Providence Rd RR crossing at MP N53.55","styleUrl":"#towerStyle","styleHash":"1d01e409","county":"Chesapeake city","lat":36.7861,"lng":-76.2508,"structure_type":"BANT","structure_name":null,"structure_address":"Providence Rd RR crossing at MP N53.55","height":3.1,"base_elevation":6.650031,"structure_owner_name":"Norfolk Southern Railway Company","structure_manager_name":null,"data_source":"FCC: Land Mobile - Private (GIS)"}},{"type":"Feature","geometry":{"type":"Point","coordinates":[-76.3086,36.7733]},"properties":{"name":"2801 S MILITARY HWY","styleUrl":"#towerStyle","styleHash":"1d01e409","county":"Chesapeake city","lat":36.7733,"lng":-76.3086,"structure_type":"BANT","structure_name":null,"structure_address":"2801 S MILITARY HWY","height":6.1,"base_elevation":2.930836,"structure_owner_name":"IMTT VIRGINIA CHESAPEAKE TERMINAL","structure_manager_name":null,"data_source":"FCC: Land Mobile - Private (GIS)"}},{"type":"Feature","geometry":{"type":"Point","coordinates":[-76.3011,36.7714]},"properties":{"name":"Vertical Asset","styleUrl":"#towerStyle","styleHash":"1d01e409","county":"Chesapeake city","lat":36.7714,"lng":-76.3011,"structure_type":null,"structure_name":null,"structure_address":null,"height":0,"base_elevation":3.854588,"structure_owner_name":"Virginia Electric and Power Company","structure_manager_name":null,"data_source":"FCC: Land Mobile - Private (GIS)"}},{"type":"Feature","geometry":{"type":"Point","coordinates":[-76.2569,36.6389]},"properties":{"name":"Strawberry Lane RR crossing at MP NS3.01","styleUrl":"#towerStyle","styleHash":"1d01e409","county":"Chesapeake city","lat":36.6389,"lng":-76.2569,"structure_type":"BANT","structure_name":null,"structure_address":"Strawberry Lane RR crossing at MP NS3.01","height":3.1,"base_elevation":5.810857,"structure_owner_name":"Norfolk Southern Railway Company","structure_manager_name":null,"data_source":"FCC: Land Mobile - Private (GIS)"}},{"type":"Feature","geometry":{"type":"Point","coordinates":[-76.3844,36.783099]},"properties":{"name":"Vertical Asset","styleUrl":"#towerStyle","styleHash":"1d01e409","county":"Chesapeake city","lat":36.783099,"lng":-76.3844,"structure_type":null,"structure_name":null,"structure_address":null,"height":0,"base_elevation":4.886407,"structure_owner_name":"CHESBAY DISTRIBUTING COMPANY, INC","structure_manager_name":null,"data_source":"FCC: Land Mobile - Private (GIS)"}},{"type":"Feature","geometry":{"type":"Point","coordinates":[-76.37,36.7842]},"properties":{"name":"Cook Blvd RR crossing at MP V11.38","styleUrl":"#towerStyle","styleHash":"1d01e409","county":"Chesapeake city","lat":36.7842,"lng":-76.37,"structure_type":"BANT","structure_name":null,"structure_address":"Cook Blvd RR crossing at MP V11.38","height":3.1,"base_elevation":4.701513,"structure_owner_name":"Norfolk Southern Railway Company","structure_manager_name":null,"data_source":"FCC: Land Mobile - Private (GIS)"}},{"type":"Feature","geometry":{"type":"Point","coordinates":[-76.293599,36.7753]},"properties":{"name":"Bridge 7 at MP N6.70","styleUrl":"#towerStyle","styleHash":"1d01e409","county":"Chesapeake city","lat":36.7753,"lng":-76.293599,"structure_type":"BANT","structure_name":null,"structure_address":"Bridge 7 at MP N6.70","height":3.1,"base_elevation":1.237552,"structure_owner_name":"Norfolk Southern Railway Company","structure_manager_name":null,"data_source":"FCC: Land Mobile - Private (GIS)"}},{"type":"Feature","geometry":{"type":"Point","coordinates":[-76.2889,36.7761]},"properties":{"name":"Beltline RR crossing at MP N6.40","styleUrl":"#towerStyle","styleHash":"1d01e409","county":"Chesapeake city","lat":36.7761,"lng":-76.2889,"structure_type":"BANT","structure_name":null,"structure_address":"Beltline RR crossing at MP N6.40","height":3.1,"base_elevation":2.777005,"structure_owner_name":"Norfolk Southern Railway Company","structure_manager_name":null,"data_source":"FCC: Land Mobile - Private (GIS)"}},{"type":"Feature","geometry":{"type":"Point","coordinates":[-76.2239,36.7431]},"properties":{"name":"Kempville Rd RR crossing at MP NS7.85","styleUrl":"#towerStyle","styleHash":"1d01e409","county":"Chesapeake city","lat":36.7431,"lng":-76.2239,"structure_type":"BANT","structure_name":null,"structure_address":"Kempville Rd RR crossing at MP NS7.85","height":3.1,"base_elevation":5.852879,"structure_owner_name":"Norfolk Southern Railway Company","structure_manager_name":null,"data_source":"FCC: Land Mobile - Private (GIS)"}},{"type":"Feature","geometry":{"type":"Point","coordinates":[-76.3089,36.678899]},"properties":{"name":"Vertical Asset","styleUrl":"#towerStyle","styleHash":"1d01e409","county":"Chesapeake city","lat":36.678899,"lng":-76.3089,"structure_type":null,"structure_name":null,"structure_address":null,"height":0,"base_elevation":4.295999,"structure_owner_name":"GIANT CEMENT COMPANY","structure_manager_name":null,"data_source":"FCC: Land Mobile - Private (GIS)"}},{"type":"Feature","geometry":{"type":"Point","coordinates":[-76.240799,36.7222]},"properties":{"name":"139 S BATTLEFIELD BLVD","styleUrl":"#towerStyle","styleHash":"1d01e409","county":"Chesapeake city","lat":36.7222,"lng":-76.240799,"structure_type":null,"structure_name":null,"structure_address":"139 S BATTLEFIELD BLVD","height":0,"base_elevation":1.225814,"structure_owner_name":"KFC NATIONAL MANAGEMENT COMPANY","structure_manager_name":null,"data_source":"FCC: Land Mobile - Private (GIS)"}},{"type":"Feature","geometry":{"type":"Point","coordinates":[-76.2705,36.7764]},"properties":{"name":"2212 MILITARY HWY","styleUrl":"#towerStyle","styleHash":"1d01e409","county":"Chesapeake city","lat":36.7764,"lng":-76.2705,"structure_type":null,"structure_name":null,"structure_address":"2212 MILITARY HWY","height":0,"base_elevation":3.863426,"structure_owner_name":"KFC NATIONAL MANAGEMENT COMPANY","structure_manager_name":null,"data_source":"FCC: Land Mobile - Private (GIS)"}},{"type":"Feature","geometry":{"type":"Point","coordinates":[-76.299399,36.7667]},"properties":{"name":"Vertical Asset","styleUrl":"#towerStyle","styleHash":"1d01e409","county":"Chesapeake city","lat":36.7667,"lng":-76.299399,"structure_type":null,"structure_name":null,"structure_address":null,"height":0,"base_elevation":0,"structure_owner_name":"MITSUBISHI KAGAKU IMAGING CORPORATION","structure_manager_name":null,"data_source":"FCC: Land Mobile - Private (GIS)"}},{"type":"Feature","geometry":{"type":"Point","coordinates":[-76.3892,36.8003]},"properties":{"name":"3909 AIRLINE BLVD","styleUrl":"#towerStyle","styleHash":"1d01e409","county":"Chesapeake city","lat":36.8003,"lng":-76.3892,"structure_type":"TOWER","structure_name":null,"structure_address":"3909 AIRLINE BLVD","height":42.6,"base_elevation":4.292536,"structure_owner_name":"Virginia Department of Forestry","structure_manager_name":null,"data_source":"FCC: Land Mobile - Private (GIS)"}},{"type":"Feature","geometry":{"type":"Point","coordinates":[-76.301899,36.6769]},"properties":{"name":"Vertical Asset","styleUrl":"#towerStyle","styleHash":"1d01e409","county":"Chesapeake city","lat":36.6769,"lng":-76.301899,"structure_type":null,"structure_name":null,"structure_address":null,"height":0,"base_elevation":4.337137,"structure_owner_name":"Chesapeake, City of","structure_manager_name":null,"data_source":"FCC: Land Mobile - Private (GIS)"}},{"type":"Feature","geometry":{"type":"Point","coordinates":[-76.2133,36.6311]},"properties":{"name":"5.8Hickory Yard, 157 Benefit Road","styleUrl":"#towerStyle","styleHash":"1d01e409","county":"Chesapeake city","lat":36.6311,"lng":-76.2133,"structure_type":"TOWER","structure_name":null,"structure_address":"5.8Hickory Yard, 157 Benefit Road","height":152.4,"base_elevation":5.493731,"structure_owner_name":"Chesapeake, City of","structure_manager_name":null,"data_source":"FCC: Land Mobile - Private (GIS)"}},{"type":"Feature","geometry":{"type":"Point","coordinates":[-76.2297,36.7525]},"properties":{"name":"910 Hollowell Lane","styleUrl":"#towerStyle","styleHash":"1d01e409","county":"Chesapeake city","lat":36.7525,"lng":-76.2297,"structure_type":"TOWER","structure_name":null,"structure_address":"910 Hollowell Lane","height":143.6,"base_elevation":5.834,"structure_owner_name":"Chesapeake, City of","structure_manager_name":null,"data_source":"FCC: Land Mobile - Private (GIS)"}},{"type":"Feature","geometry":{"type":"Point","coordinates":[-76.3786,36.7703]},"properties":{"name":"3902 Military Highway South","styleUrl":"#towerStyle","styleHash":"1d01e409","county":"Chesapeake city","lat":36.7703,"lng":-76.3786,"structure_type":"TOWER","structure_name":null,"structure_address":"3902 Military Highway South","height":152.1,"base_elevation":3.816451,"structure_owner_name":"Chesapeake, City of","structure_manager_name":null,"data_source":"FCC: Land Mobile - Private (GIS)"}},{"type":"Feature","geometry":{"type":"Point","coordinates":[-76.2806,36.591099]},"properties":{"name":"3800 Bunch Walnuts Road","styleUrl":"#towerStyle","styleHash":"1d01e409","county":"Chesapeake city","lat":36.591099,"lng":-76.2806,"structure_type":"TOWER","structure_name":null,"structure_address":"3800 Bunch Walnuts Road","height":152.1,"base_elevation":2.951174,"structure_owner_name":"Chesapeake, City of","structure_manager_name":null,"data_source":"FCC: Land Mobile - Private (GIS)"}},{"type":"Feature","geometry":{"type":"Point","coordinates":[-76.2353,36.7661]},"properties":{"name":"1309 EXECUTIVE BLVD","styleUrl":"#towerStyle","styleHash":"1d01e409","county":"Chesapeake city","lat":36.7661,"lng":-76.2353,"structure_type":"BANT","structure_name":null,"structure_address":"1309 EXECUTIVE BLVD","height":12.2,"base_elevation":5.834,"structure_owner_name":"DENDRITE INTERNATIONAL","structure_manager_name":null,"data_source":"FCC: Land Mobile - Private (GIS)"}},{"type":"Feature","geometry":{"type":"Point","coordinates":[-76.3861,36.7758]},"properties":{"name":"4001 S. Military Hwy","styleUrl":"#towerStyle","styleHash":"1d01e409","county":"Chesapeake city","lat":36.7758,"lng":-76.3861,"structure_type":"TOWER","structure_name":null,"structure_address":"4001 S. Military Hwy","height":132.6,"base_elevation":4.978346,"structure_owner_name":"MACE Incorporated","structure_manager_name":null,"data_source":"FCC: Land Mobile - Private (GIS)"}},{"type":"Feature","geometry":{"type":"Point","coordinates":[-76.2447,36.7456]},"properties":{"name":"Vertical Asset","styleUrl":"#towerStyle","styleHash":"1d01e409","county":"Chesapeake city","lat":36.7456,"lng":-76.2447,"structure_type":null,"structure_name":null,"structure_address":null,"height":0,"base_elevation":5.542572,"structure_owner_name":"SIEMENS MEDICAL SOLUTIONS HEALTH SERVICES","structure_manager_name":null,"data_source":"FCC: Land Mobile - Private (GIS)"}},{"type":"Feature","geometry":{"type":"Point","coordinates":[-76.2883,36.802799]},"properties":{"name":"Vertical Asset","styleUrl":"#towerStyle","styleHash":"1d01e409","county":"Chesapeake city","lat":36.802799,"lng":-76.2883,"structure_type":null,"structure_name":null,"structure_address":null,"height":0,"base_elevation":1.589508,"structure_owner_name":"PERDUE FARMS INC","structure_manager_name":null,"data_source":"FCC: Land Mobile - Private (GIS)"}},{"type":"Feature","geometry":{"type":"Point","coordinates":[-76.4122,36.8261]},"properties":{"name":"Vertical Asset","styleUrl":"#towerStyle","styleHash":"1d01e409","county":"Chesapeake city","lat":36.8261,"lng":-76.4122,"structure_type":null,"structure_name":null,"structure_address":null,"height":0,"base_elevation":4.254563,"structure_owner_name":"Target  Stores    #1420","structure_manager_name":null,"data_source":"FCC: Land Mobile - Private (GIS)"}},{"type":"Feature","geometry":{"type":"Point","coordinates":[-76.1833,36.6111]},"properties":{"name":"701 SANDERSON RD","styleUrl":"#towerStyle","styleHash":"1d01e409","county":"Chesapeake city","lat":36.6111,"lng":-76.1833,"structure_type":"BMAST","structure_name":null,"structure_address":"701 SANDERSON RD","height":11.5,"base_elevation":2.618406,"structure_owner_name":"VIRGINIA, COMMONWEALTH OF","structure_manager_name":null,"data_source":"FCC: Land Mobile - Private (GIS)"}},{"type":"Feature","geometry":{"type":"Point","coordinates":[-76.245499,36.7764]},"properties":{"name":"1434 Crossways Blvd","styleUrl":"#towerStyle","styleHash":"1d01e409","county":"Chesapeake city","lat":36.7764,"lng":-76.245499,"structure_type":"BANT","structure_name":null,"structure_address":"1434 Crossways Blvd","height":18.3,"base_elevation":5.834,"structure_owner_name":"Towers Perrin","structure_manager_name":null,"data_source":"FCC: Land Mobile - Private (GIS)"}},{"type":"Feature","geometry":{"type":"Point","coordinates":[-76.3431,36.7797]},"properties":{"name":"Vertical Asset","styleUrl":"#towerStyle","styleHash":"1d01e409","county":"Chesapeake city","lat":36.7797,"lng":-76.3431,"structure_type":null,"structure_name":null,"structure_address":null,"height":0,"base_elevation":4.181325,"structure_owner_name":"Trinity Baptist Church","structure_manager_name":null,"data_source":"FCC: Land Mobile - Private (GIS)"}},{"type":"Feature","geometry":{"type":"Point","coordinates":[-76.3122,36.7744]},"properties":{"name":"2837 S Military Hwy","styleUrl":"#towerStyle","styleHash":"1d01e409","county":"Chesapeake city","lat":36.7744,"lng":-76.3122,"structure_type":"BANT","structure_name":null,"structure_address":"2837 S Military Hwy","height":29.3,"base_elevation":2.496535,"structure_owner_name":"Virginia Electric and Power Company","structure_manager_name":null,"data_source":"FCC: Land Mobile - Private (GIS)"}},{"type":"Feature","geometry":{"type":"Point","coordinates":[-76.2339,36.745]},"properties":{"name":"1720 S MILITARY HWY","styleUrl":"#towerStyle","styleHash":"1d01e409","county":"Chesapeake city","lat":36.745,"lng":-76.2339,"structure_type":null,"structure_name":null,"structure_address":"1720 S MILITARY HWY","height":0,"base_elevation":6.563877,"structure_owner_name":"Givens Transportation Inc.","structure_manager_name":null,"data_source":"FCC: Land Mobile - Private (GIS)"}},{"type":"Feature","geometry":{"type":"Point","coordinates":[-76.2672,36.778599]},"properties":{"name":"1958 DIAMOND HILL RD","styleUrl":"#towerStyle","styleHash":"1d01e409","county":"Chesapeake city","lat":36.778599,"lng":-76.2672,"structure_type":null,"structure_name":null,"structure_address":"1958 DIAMOND HILL RD","height":0,"base_elevation":2.86497,"structure_owner_name":"TIDEWATER FIBRE CORP ECONO DISPOSAL","structure_manager_name":null,"data_source":"FCC: Land Mobile - Private (GIS)"}},{"type":"Feature","geometry":{"type":"Point","coordinates":[-76.3625,36.7636]},"properties":{"name":"Detector RR MP N 10.5","styleUrl":"#towerStyle","styleHash":"1d01e409","county":"Chesapeake city","lat":36.7636,"lng":-76.3625,"structure_type":"B","structure_name":null,"structure_address":"Detector RR MP N 10.5","height":4,"base_elevation":4.301122,"structure_owner_name":"Norfolk Southern Railway Company","structure_manager_name":null,"data_source":"FCC: Land Mobile - Private (GIS)"}},{"type":"Feature","geometry":{"type":"Point","coordinates":[-76.2639,36.8022]},"properties":{"name":"Intermodal Yd Base  1710 ATLANTIC AVE","styleUrl":"#towerStyle","styleHash":"1d01e409","county":"Chesapeake city","lat":36.8022,"lng":-76.2639,"structure_type":"B","structure_name":null,"structure_address":"Intermodal Yd Base  1710 ATLANTIC AVE","height":7,"base_elevation":5.645227,"structure_owner_name":"Norfolk Southern Railway Company","structure_manager_name":null,"data_source":"FCC: Land Mobile - Private (GIS)"}},{"type":"Feature","geometry":{"type":"Point","coordinates":[-76.2639,36.8022]},"properties":{"name":"Vertical Asset","styleUrl":"#towerStyle","styleHash":"1d01e409","county":"Chesapeake city","lat":36.8022,"lng":-76.2639,"structure_type":null,"structure_name":null,"structure_address":null,"height":0,"base_elevation":5.645227,"structure_owner_name":"Norfolk Southern Railway Company","structure_manager_name":null,"data_source":"FCC: Land Mobile - Private (GIS)"}},{"type":"Feature","geometry":{"type":"Point","coordinates":[-76.2664,36.8061]},"properties":{"name":"Dispatch Base  425 FROM HAWTHORNE AVE and MEYERS RD","styleUrl":"#towerStyle","styleHash":"1d01e409","county":"Chesapeake city","lat":36.8061,"lng":-76.2664,"structure_type":"TOWER","structure_name":null,"structure_address":"Dispatch Base  425 FROM HAWTHORNE AVE and MEYERS RD","height":30,"base_elevation":4.6521,"structure_owner_name":"Norfolk Southern Railway Company","structure_manager_name":null,"data_source":"FCC: Land Mobile - Private (GIS)"}},{"type":"Feature","geometry":{"type":"Point","coordinates":[-76.2664,36.8061]},"properties":{"name":"Yard Base, MP N03.7","styleUrl":"#towerStyle","styleHash":"1d01e409","county":"Chesapeake city","lat":36.8061,"lng":-76.2664,"structure_type":"TOWER","structure_name":null,"structure_address":"Yard Base, MP N03.7","height":30.5,"base_elevation":4.6521,"structure_owner_name":"Norfolk Southern Railway Company","structure_manager_name":null,"data_source":"FCC: Land Mobile - Private (GIS)"}},{"type":"Feature","geometry":{"type":"Point","coordinates":[-76.2664,36.8061]},"properties":{"name":"PORTLOCK YRD CARMEN and SWITCHING RPTRS, MW SITE, 100 NARROW ST","styleUrl":"#towerStyle","styleHash":"1d01e409","county":"Chesapeake city","lat":36.8061,"lng":-76.2664,"structure_type":"TOWER","structure_name":null,"structure_address":"PORTLOCK YRD CARMEN and SWITCHING RPTRS, MW SITE, 100 NARROW ST","height":30.5,"base_elevation":4.6521,"structure_owner_name":"Norfolk Southern Railway Company","structure_manager_name":null,"data_source":"FCC: Land Mobile - Private (GIS)"}},{"type":"Feature","geometry":{"type":"Point","coordinates":[-76.2664,36.8061]},"properties":{"name":"Vertical Asset","styleUrl":"#towerStyle","styleHash":"1d01e409","county":"Chesapeake city","lat":36.8061,"lng":-76.2664,"structure_type":null,"structure_name":null,"structure_address":null,"height":0,"base_elevation":4.6521,"structure_owner_name":"Norfolk Southern Railway Company","structure_manager_name":null,"data_source":"FCC: Land Mobile - Private (GIS)"}},{"type":"Feature","geometry":{"type":"Point","coordinates":[-76.2664,36.8061]},"properties":{"name":"Yard Base, Portlock Yd, Near Commerce St and Pocahontas","styleUrl":"#towerStyle","styleHash":"1d01e409","county":"Chesapeake city","lat":36.8061,"lng":-76.2664,"structure_type":"TOWER","structure_name":null,"structure_address":"Yard Base, Portlock Yd, Near Commerce St and Pocahontas","height":30.5,"base_elevation":4.6521,"structure_owner_name":"Norfolk Southern Railway Company","structure_manager_name":null,"data_source":"FCC: Land Mobile - Private (GIS)"}},{"type":"Feature","geometry":{"type":"Point","coordinates":[-76.2664,36.8061]},"properties":{"name":"Vertical Asset","styleUrl":"#towerStyle","styleHash":"1d01e409","county":"Chesapeake city","lat":36.8061,"lng":-76.2664,"structure_type":null,"structure_name":null,"structure_address":null,"height":0,"base_elevation":4.6521,"structure_owner_name":"Norfolk Southern Railway Company","structure_manager_name":null,"data_source":"FCC: Land Mobile - Private (GIS)"}},{"type":"Feature","geometry":{"type":"Point","coordinates":[-76.2592,36.7833]},"properties":{"name":"MILITARY HWY AT RT 168 & GREAT BRIDGE RD","styleUrl":"#towerStyle","styleHash":"1d01e409","county":"Chesapeake city","lat":36.7833,"lng":-76.2592,"structure_type":null,"structure_name":null,"structure_address":"MILITARY HWY AT RT 168 & GREAT BRIDGE RD","height":0,"base_elevation":5.875236,"structure_owner_name":"United Parcel Service","structure_manager_name":null,"data_source":"FCC: Land Mobile - Private (GIS)"}},{"type":"Feature","geometry":{"type":"Point","coordinates":[-76.3011,36.7714]},"properties":{"name":"Vertical Asset","styleUrl":"#towerStyle","styleHash":"1d01e409","county":"Chesapeake city","lat":36.7714,"lng":-76.3011,"structure_type":null,"structure_name":null,"structure_address":null,"height":0,"base_elevation":3.854588,"structure_owner_name":"VIRGINIA ELECTRIC AND POWER COMPANY","structure_manager_name":null,"data_source":"FCC: Land Mobile - Private (GIS)"}},{"type":"Feature","geometry":{"type":"Point","coordinates":[-76.2236,36.8208]},"properties":{"name":"SHERRY PARK 1 INDIAN RIVER RD","styleUrl":"#towerStyle","styleHash":"1d01e409","county":"Chesapeake city","lat":36.8208,"lng":-76.2236,"structure_type":null,"structure_name":null,"structure_address":"SHERRY PARK 1 INDIAN RIVER RD","height":0,"base_elevation":4.595557,"structure_owner_name":"The City of Virginia Beach","structure_manager_name":null,"data_source":"FCC: Land Mobile - Private (GIS)"}},{"type":"Feature","geometry":{"type":"Point","coordinates":[-76.3011,36.7714]},"properties":{"name":"PORTSMOUTH POWER STATION 2701 VEPCO ST","styleUrl":"#towerStyle","styleHash":"1d01e409","county":"Chesapeake city","lat":36.7714,"lng":-76.3011,"structure_type":"BTWR","structure_name":null,"structure_address":"PORTSMOUTH POWER STATION 2701 VEPCO ST","height":55,"base_elevation":3.854588,"structure_owner_name":"VIRGINIA ELECTRIC AND POWER COMPANY","structure_manager_name":null,"data_source":"FCC: Land Mobile - Private (GIS)"}},{"type":"Feature","geometry":{"type":"Point","coordinates":[-76.3036,36.7719]},"properties":{"name":"Vertical Asset","styleUrl":"#towerStyle","styleHash":"1d01e409","county":"Chesapeake city","lat":36.7719,"lng":-76.3036,"structure_type":null,"structure_name":null,"structure_address":null,"height":0,"base_elevation":2.99137,"structure_owner_name":"VIRGINIA ELECTRIC AND POWER COMPANY","structure_manager_name":null,"data_source":"FCC: Land Mobile - Private (GIS)"}},{"type":"Feature","geometry":{"type":"Point","coordinates":[-76.245,36.7256]},"properties":{"name":"328 N BATTLEFIELD BLVD","styleUrl":"#towerStyle","styleHash":"1d01e409","county":"Chesapeake city","lat":36.7256,"lng":-76.245,"structure_type":null,"structure_name":null,"structure_address":"328 N BATTLEFIELD BLVD","height":0,"base_elevation":0.813545,"structure_owner_name":"COTTRELL ENGINEERING CORP","structure_manager_name":null,"data_source":"FCC: Land Mobile - Private (GIS)"}},{"type":"Feature","geometry":{"type":"Point","coordinates":[-76.2467,36.7875]},"properties":{"name":"1732 S MILITARY HWY","styleUrl":"#towerStyle","styleHash":"1d01e409","county":"Chesapeake city","lat":36.7875,"lng":-76.2467,"structure_type":null,"structure_name":null,"structure_address":"1732 S MILITARY HWY","height":0,"base_elevation":5.833996,"structure_owner_name":"A & B PROPANE INC","structure_manager_name":null,"data_source":"FCC: Land Mobile - Private (GIS)"}},{"type":"Feature","geometry":{"type":"Point","coordinates":[-76.1797,36.7147]},"properties":{"name":"Vertical Asset","styleUrl":"#towerStyle","styleHash":"1d01e409","county":"Chesapeake city","lat":36.7147,"lng":-76.1797,"structure_type":null,"structure_name":null,"structure_address":null,"height":0,"base_elevation":5.999548,"structure_owner_name":"CROSSROADS FUEL SERVICE INC","structure_manager_name":null,"data_source":"FCC: Land Mobile - Private (GIS)"}},{"type":"Feature","geometry":{"type":"Point","coordinates":[-76.1797,36.7147]},"properties":{"name":"335G CENTERVILLE TPKE","styleUrl":"#towerStyle","styleHash":"1d01e409","county":"Chesapeake city","lat":36.7147,"lng":-76.1797,"structure_type":"TOWER","structure_name":null,"structure_address":"335G CENTERVILLE TPKE","height":24,"base_elevation":5.999548,"structure_owner_name":"CROSSROADS FUEL SERVICE INC","structure_manager_name":null,"data_source":"FCC: Land Mobile - Private (GIS)"}},{"type":"Feature","geometry":{"type":"Point","coordinates":[-76.2928,36.7925]},"properties":{"name":"100 REPUBLIC RD","styleUrl":"#towerStyle","styleHash":"1d01e409","county":"Chesapeake city","lat":36.7925,"lng":-76.2928,"structure_type":null,"structure_name":null,"structure_address":"100 REPUBLIC RD","height":0,"base_elevation":1.697629,"structure_owner_name":"MC LEAN CONTRACTING CO","structure_manager_name":null,"data_source":"FCC: Land Mobile - Private (GIS)"}},{"type":"Feature","geometry":{"type":"Point","coordinates":[-76.294199,36.7492]},"properties":{"name":"Vertical Asset","styleUrl":"#towerStyle","styleHash":"1d01e409","county":"Chesapeake city","lat":36.7492,"lng":-76.294199,"structure_type":null,"structure_name":null,"structure_address":null,"height":0,"base_elevation":1.056111,"structure_owner_name":"HIGGERSON BUCHANAN INC","structure_manager_name":null,"data_source":"FCC: Land Mobile - Private (GIS)"}},{"type":"Feature","geometry":{"type":"Point","coordinates":[-76.1958,36.7236]},"properties":{"name":"110 N CENTERVILLE TPKE","styleUrl":"#towerStyle","styleHash":"1d01e409","county":"Chesapeake city","lat":36.7236,"lng":-76.1958,"structure_type":"B","structure_name":null,"structure_address":"110 N CENTERVILLE TPKE","height":6,"base_elevation":0.072701,"structure_owner_name":"NORFOLK DREDGING COMPANY","structure_manager_name":null,"data_source":"FCC: Land Mobile - Private (GIS)"}},{"type":"Feature","geometry":{"type":"Point","coordinates":[-76.3092,36.7764]},"properties":{"name":"Vertical Asset","styleUrl":"#towerStyle","styleHash":"1d01e409","county":"Chesapeake city","lat":36.7764,"lng":-76.3092,"structure_type":null,"structure_name":null,"structure_address":null,"height":0,"base_elevation":4.652218,"structure_owner_name":"ATLANTIC ENERGY INC","structure_manager_name":null,"data_source":"FCC: Land Mobile - Private (GIS)"}},{"type":"Feature","geometry":{"type":"Point","coordinates":[-76.3092,36.7764]},"properties":{"name":"2901 S MILITARY HWY","styleUrl":"#towerStyle","styleHash":"1d01e409","county":"Chesapeake city","lat":36.7764,"lng":-76.3092,"structure_type":"BANT","structure_name":null,"structure_address":"2901 S MILITARY HWY","height":6,"base_elevation":4.652218,"structure_owner_name":"ATLANTIC ENERGY INC","structure_manager_name":null,"data_source":"FCC: Land Mobile - Private (GIS)"}},{"type":"Feature","geometry":{"type":"Point","coordinates":[-76.3025,36.7717]},"properties":{"name":"VEPCO ST","styleUrl":"#towerStyle","styleHash":"1d01e409","county":"Chesapeake city","lat":36.7717,"lng":-76.3025,"structure_type":null,"structure_name":null,"structure_address":"VEPCO ST","height":8,"base_elevation":3.619213,"structure_owner_name":"COLUMBIA GAS TRANSMISSION CORPORATION","structure_manager_name":null,"data_source":"FCC: Land Mobile - Private (GIS)"}},{"type":"Feature","geometry":{"type":"Point","coordinates":[-76.263,36.8]},"properties":{"name":"Vertical Asset","styleUrl":"#towerStyle","styleHash":"1d01e409","county":"Chesapeake city","lat":36.8,"lng":-76.263,"structure_type":null,"structure_name":null,"structure_address":null,"height":0,"base_elevation":5.661203,"structure_owner_name":"NORFOLK SOUTHERN RAILWAY COMPANY","structure_manager_name":null,"data_source":"FCC: Land Mobile - Private (GIS)"}},{"type":"Feature","geometry":{"type":"Point","coordinates":[-76.245,36.7461]},"properties":{"name":"736 BATTLEFIELD BLVD N","styleUrl":"#towerStyle","styleHash":"1d01e409","county":"Chesapeake city","lat":36.7461,"lng":-76.245,"structure_type":"B","structure_name":null,"structure_address":"736 BATTLEFIELD BLVD N","height":20,"base_elevation":5.445713,"structure_owner_name":"CHESAPEAKE GENERAL HOSPITAL","structure_manager_name":null,"data_source":"FCC: Land Mobile - Private (GIS)"}},{"type":"Feature","geometry":{"type":"Point","coordinates":[-76.245,36.7461]},"properties":{"name":"Vertical Asset","styleUrl":"#towerStyle","styleHash":"1d01e409","county":"Chesapeake city","lat":36.7461,"lng":-76.245,"structure_type":null,"structure_name":null,"structure_address":null,"height":0,"base_elevation":5.445713,"structure_owner_name":"CHESAPEAKE GENERAL HOSPITAL","structure_manager_name":null,"data_source":"FCC: Land Mobile - Private (GIS)"}},{"type":"Feature","geometry":{"type":"Point","coordinates":[-76.3539,36.7806]},"properties":{"name":"Vertical Asset","styleUrl":"#towerStyle","styleHash":"1d01e409","county":"Chesapeake city","lat":36.7806,"lng":-76.3539,"structure_type":null,"structure_name":null,"structure_address":null,"height":0,"base_elevation":4.867331,"structure_owner_name":"TPC OF VIRGINIA BEACH","structure_manager_name":null,"data_source":"FCC: Land Mobile - Private (GIS)"}},{"type":"Feature","geometry":{"type":"Point","coordinates":[-76.2375,36.7689]},"properties":{"name":"Vertical Asset","styleUrl":"#towerStyle","styleHash":"1d01e409","county":"Chesapeake city","lat":36.7689,"lng":-76.2375,"structure_type":null,"structure_name":null,"structure_address":null,"height":0,"base_elevation":5.954122,"structure_owner_name":"DOLLAR TREE STORES","structure_manager_name":null,"data_source":"FCC: Land Mobile - Private (GIS)"}},{"type":"Feature","geometry":{"type":"Point","coordinates":[-76.2181,36.6272]},"properties":{"name":"400 HICKORY RIDGE RD","styleUrl":"#towerStyle","styleHash":"1d01e409","county":"Chesapeake city","lat":36.6272,"lng":-76.2181,"structure_type":"TOWER","structure_name":null,"structure_address":"400 HICKORY RIDGE RD","height":130,"base_elevation":4.526486,"structure_owner_name":"Alltel Communications LLC","structure_manager_name":null,"data_source":"FCC: Land Mobile - Private (GIS)"}},{"type":"Feature","geometry":{"type":"Point","coordinates":[-76.245,36.7461]},"properties":{"name":"736 BATTLEFIELD BLVD","styleUrl":"#towerStyle","styleHash":"1d01e409","county":"Chesapeake city","lat":36.7461,"lng":-76.245,"structure_type":"B","structure_name":null,"structure_address":"736 BATTLEFIELD BLVD","height":23,"base_elevation":5.445713,"structure_owner_name":"CHESAPEAKE GENERAL HOSPITAL","structure_manager_name":null,"data_source":"FCC: Land Mobile - Private (GIS)"}},{"type":"Feature","geometry":{"type":"Point","coordinates":[-76.2375,36.7689]},"properties":{"name":"1330 EXECUTIVE BLVD","styleUrl":"#towerStyle","styleHash":"1d01e409","county":"Chesapeake city","lat":36.7689,"lng":-76.2375,"structure_type":"B","structure_name":null,"structure_address":"1330 EXECUTIVE BLVD","height":14,"base_elevation":5.954122,"structure_owner_name":"DOLLAR TREE DISTRIBUTION INC","structure_manager_name":null,"data_source":"FCC: Land Mobile - Private (GIS)"}},{"type":"Feature","geometry":{"type":"Point","coordinates":[-76.2311,36.6989]},"properties":{"name":"801 S BATTLEFIELD BLVD","styleUrl":"#towerStyle","styleHash":"1d01e409","county":"Chesapeake city","lat":36.6989,"lng":-76.2311,"structure_type":"TOWER","structure_name":null,"structure_address":"801 S BATTLEFIELD BLVD","height":87,"base_elevation":4.247226,"structure_owner_name":"VIRGINIA ELECTRIC AND POWER COMPANY","structure_manager_name":null,"data_source":"FCC: Land Mobile - Private (GIS)"}},{"type":"Feature","geometry":{"type":"Point","coordinates":[-76.2225,36.7828]},"properties":{"name":"1553 RIVER BIRCH RUN","styleUrl":"#towerStyle","styleHash":"1d01e409","county":"Chesapeake city","lat":36.7828,"lng":-76.2225,"structure_type":"B","structure_name":null,"structure_address":"1553 RIVER BIRCH RUN","height":10,"base_elevation":5.834,"structure_owner_name":"QVC INC","structure_manager_name":null,"data_source":"FCC: Land Mobile - Private (GIS)"}},{"type":"Feature","geometry":{"type":"Point","coordinates":[-76.3392,36.7692]},"properties":{"name":"701 BUTLER STREET","styleUrl":"#towerStyle","styleHash":"1d01e409","county":"Chesapeake city","lat":36.7692,"lng":-76.3392,"structure_type":"TOWER","structure_name":null,"structure_address":"701 BUTLER STREET","height":77.3,"base_elevation":3.884144,"structure_owner_name":"Cox Communications Hampton Roads LLC","structure_manager_name":null,"data_source":"FCC: Land Mobile - Private (GIS)"}},{"type":"Feature","geometry":{"type":"Point","coordinates":[-76.2817,36.8211]},"properties":{"name":"BUTT ST AND HALIFAX LN","styleUrl":"#towerStyle","styleHash":"1d01e409","county":"Chesapeake city","lat":36.8211,"lng":-76.2817,"structure_type":"B","structure_name":null,"structure_address":"BUTT ST AND HALIFAX LN","height":24,"base_elevation":2.420301,"structure_owner_name":"NORFOLK AND PORTSMOUTH BELT LINE RAILROAD COMPANY","structure_manager_name":null,"data_source":"FCC: Land Mobile - Private (GIS)"}},{"type":"Feature","geometry":{"type":"Point","coordinates":[-76.2311,36.6989]},"properties":{"name":"801 S BATTLEFIELD BLVD","styleUrl":"#towerStyle","styleHash":"1d01e409","county":"Chesapeake city","lat":36.6989,"lng":-76.2311,"structure_type":"TOWER","structure_name":null,"structure_address":"801 S BATTLEFIELD BLVD","height":87,"base_elevation":4.247226,"structure_owner_name":"VIRGINIA ELECTRIC AND POWER COMPANY","structure_manager_name":null,"data_source":"FCC: Land Mobile - Private (GIS)"}},{"type":"Feature","geometry":{"type":"Point","coordinates":[-76.2878,36.8031]},"properties":{"name":"501 BARNES RD","styleUrl":"#towerStyle","styleHash":"1d01e409","county":"Chesapeake city","lat":36.8031,"lng":-76.2878,"structure_type":"RIG","structure_name":null,"structure_address":"501 BARNES RD","height":67,"base_elevation":1.723845,"structure_owner_name":"PERDUE FARMS INC","structure_manager_name":null,"data_source":"FCC: Land Mobile - Private (GIS)"}},{"type":"Feature","geometry":{"type":"Point","coordinates":[-76.2389,36.7675]},"properties":{"name":"Vertical Asset","styleUrl":"#towerStyle","styleHash":"1d01e409","county":"Chesapeake city","lat":36.7675,"lng":-76.2389,"structure_type":null,"structure_name":null,"structure_address":null,"height":0,"base_elevation":5.846084,"structure_owner_name":"MITSUBISHI CHEMICAL USA INC","structure_manager_name":null,"data_source":"FCC: Land Mobile - Private (GIS)"}},{"type":"Feature","geometry":{"type":"Point","coordinates":[-76.3625,36.78]},"properties":{"name":"Vertical Asset","styleUrl":"#towerStyle","styleHash":"1d01e409","county":"Chesapeake city","lat":36.78,"lng":-76.3625,"structure_type":null,"structure_name":null,"structure_address":null,"height":0,"base_elevation":5.655529,"structure_owner_name":"BETA SYSTEMS OF VIRGINIA INC","structure_manager_name":null,"data_source":"FCC: Land Mobile - Private (GIS)"}},{"type":"Feature","geometry":{"type":"Point","coordinates":[-76.2305,36.783599]},"properties":{"name":"1401 GREENBRIER PKY","styleUrl":"#towerStyle","styleHash":"1d01e409","county":"Chesapeake city","lat":36.783599,"lng":-76.2305,"structure_type":"B","structure_name":null,"structure_address":"1401 GREENBRIER PKY","height":12,"base_elevation":5.834,"structure_owner_name":"SCHRODER CHESAPEAKE LP DBA GREENBRIER MALL","structure_manager_name":null,"data_source":"FCC: Land Mobile - Private (GIS)"}},{"type":"Feature","geometry":{"type":"Point","coordinates":[-76.245,36.7461]},"properties":{"name":"736 BATTLEFIELDBVD N","styleUrl":"#towerStyle","styleHash":"1d01e409","county":"Chesapeake city","lat":36.7461,"lng":-76.245,"structure_type":"B","structure_name":null,"structure_address":"736 BATTLEFIELDBVD N","height":18,"base_elevation":5.445713,"structure_owner_name":"CHESAPEAKE GENERAL HOSPITAL","structure_manager_name":null,"data_source":"FCC: Land Mobile - Private (GIS)"}},{"type":"Feature","geometry":{"type":"Point","coordinates":[-76.245,36.7461]},"properties":{"name":"736 BATTLEFIELD BLVD N","styleUrl":"#towerStyle","styleHash":"1d01e409","county":"Chesapeake city","lat":36.7461,"lng":-76.245,"structure_type":"B","structure_name":null,"structure_address":"736 BATTLEFIELD BLVD N","height":18,"base_elevation":5.445713,"structure_owner_name":"CHESAPEAKE GENERAL HOSPITAL","structure_manager_name":null,"data_source":"FCC: Land Mobile - Private (GIS)"}},{"type":"Feature","geometry":{"type":"Point","coordinates":[-76.2225,36.7828]},"properties":{"name":"1553 RIVER BIRCH RUN N","styleUrl":"#towerStyle","styleHash":"1d01e409","county":"Chesapeake city","lat":36.7828,"lng":-76.2225,"structure_type":"B","structure_name":null,"structure_address":"1553 RIVER BIRCH RUN N","height":9,"base_elevation":5.834,"structure_owner_name":"QVC Chesapeake, Inc.","structure_manager_name":null,"data_source":"FCC: Land Mobile - Private (GIS)"}},{"type":"Feature","geometry":{"type":"Point","coordinates":[-76.245,36.7461]},"properties":{"name":"736 BATTLEFIELD BLVD","styleUrl":"#towerStyle","styleHash":"1d01e409","county":"Chesapeake city","lat":36.7461,"lng":-76.245,"structure_type":null,"structure_name":null,"structure_address":"736 BATTLEFIELD BLVD","height":6,"base_elevation":5.445713,"structure_owner_name":"CHESAPEAKE GENERAL HOSPITAL","structure_manager_name":null,"data_source":"FCC: Land Mobile - Private (GIS)"}},{"type":"Feature","geometry":{"type":"Point","coordinates":[-76.245,36.7461]},"properties":{"name":"736 BATTLEFIELD BLVD","styleUrl":"#towerStyle","styleHash":"1d01e409","county":"Chesapeake city","lat":36.7461,"lng":-76.245,"structure_type":null,"structure_name":null,"structure_address":"736 BATTLEFIELD BLVD","height":0,"base_elevation":5.445713,"structure_owner_name":"CHESAPEAKE GENERAL HOSPITAL","structure_manager_name":null,"data_source":"FCC: Land Mobile - Private (GIS)"}},{"type":"Feature","geometry":{"type":"Point","coordinates":[-76.4239,36.8194]},"properties":{"name":"Vertical Asset","styleUrl":"#towerStyle","styleHash":"1d01e409","county":"Chesapeake city","lat":36.8194,"lng":-76.4239,"structure_type":null,"structure_name":null,"structure_address":null,"height":0,"base_elevation":4.223627,"structure_owner_name":"CHESAPEAKE SQUARE #9888","structure_manager_name":null,"data_source":"FCC: Land Mobile - Private (GIS)"}},{"type":"Feature","geometry":{"type":"Point","coordinates":[-76.2592,36.7833]},"properties":{"name":"Vertical Asset","styleUrl":"#towerStyle","styleHash":"1d01e409","county":"Chesapeake city","lat":36.7833,"lng":-76.2592,"structure_type":null,"structure_name":null,"structure_address":null,"height":0,"base_elevation":5.875236,"structure_owner_name":"United Parcel Service","structure_manager_name":null,"data_source":"FCC: Land Mobile - Private (GIS)"}},{"type":"Feature","geometry":{"type":"Point","coordinates":[-76.2978,36.785]},"properties":{"name":"Vertical Asset","styleUrl":"#towerStyle","styleHash":"1d01e409","county":"Chesapeake city","lat":36.785,"lng":-76.2978,"structure_type":null,"structure_name":null,"structure_address":null,"height":0,"base_elevation":1.875975,"structure_owner_name":"Kinder Morgan Southeast Terminals LLC","structure_manager_name":null,"data_source":"FCC: Land Mobile - Private (GIS)"}},{"type":"Feature","geometry":{"type":"Point","coordinates":[-76.3842,36.7756]},"properties":{"name":"4001 S MILITARY HWY","styleUrl":"#towerStyle","styleHash":"1d01e409","county":"Chesapeake city","lat":36.7756,"lng":-76.3842,"structure_type":null,"structure_name":null,"structure_address":"4001 S MILITARY HWY","height":0,"base_elevation":5.024579,"structure_owner_name":"VICO CONSTRUCTION CORPORATION","structure_manager_name":null,"data_source":"FCC: Land Mobile - Private (GIS)"}},{"type":"Feature","geometry":{"type":"Point","coordinates":[-76.3842,36.7756]},"properties":{"name":"Vertical Asset","styleUrl":"#towerStyle","styleHash":"1d01e409","county":"Chesapeake city","lat":36.7756,"lng":-76.3842,"structure_type":null,"structure_name":null,"structure_address":null,"height":0,"base_elevation":5.024579,"structure_owner_name":"Titan Virginia Ready Mix LLC","structure_manager_name":null,"data_source":"FCC: Land Mobile - Private (GIS)"}},{"type":"Feature","geometry":{"type":"Point","coordinates":[-76.3842,36.7756]},"properties":{"name":"Vertical Asset","styleUrl":"#towerStyle","styleHash":"1d01e409","county":"Chesapeake city","lat":36.7756,"lng":-76.3842,"structure_type":null,"structure_name":null,"structure_address":null,"height":0,"base_elevation":5.024579,"structure_owner_name":"Titan Virginia Ready Mix LLC","structure_manager_name":null,"data_source":"FCC: Land Mobile - Private (GIS)"}},{"type":"Feature","geometry":{"type":"Point","coordinates":[-76.3842,36.7756]},"properties":{"name":"Vertical Asset","styleUrl":"#towerStyle","styleHash":"1d01e409","county":"Chesapeake city","lat":36.7756,"lng":-76.3842,"structure_type":null,"structure_name":null,"structure_address":null,"height":0,"base_elevation":5.024579,"structure_owner_name":"Titan Virginia Ready Mix LLC","structure_manager_name":null,"data_source":"FCC: Land Mobile - Private (GIS)"}},{"type":"Feature","geometry":{"type":"Point","coordinates":[-76.3842,36.7756]},"properties":{"name":"4001 S MILITARY HWY","styleUrl":"#towerStyle","styleHash":"1d01e409","county":"Chesapeake city","lat":36.7756,"lng":-76.3842,"structure_type":"TOWER","structure_name":null,"structure_address":"4001 S MILITARY HWY","height":128,"base_elevation":5.024579,"structure_owner_name":"Titan Virginia Ready Mix LLC","structure_manager_name":null,"data_source":"FCC: Land Mobile - Private (GIS)"}},{"type":"Feature","geometry":{"type":"Point","coordinates":[-76.3842,36.7756]},"properties":{"name":"4001 S MILITARY HWY","styleUrl":"#towerStyle","styleHash":"1d01e409","county":"Chesapeake city","lat":36.7756,"lng":-76.3842,"structure_type":null,"structure_name":null,"structure_address":"4001 S MILITARY HWY","height":0,"base_elevation":5.024579,"structure_owner_name":"VICO CONSTRUCTION CORPORATION","structure_manager_name":null,"data_source":"FCC: Land Mobile - Private (GIS)"}},{"type":"Feature","geometry":{"type":"Point","coordinates":[-76.238,36.7956]},