{"type":"FeatureCollection","features":[{"type":"Feature","geometry":{"type":"Point","coordinates":[-76.13711432384787,36.86956103935815]},"properties":{"OBJECTID":1,"X":12174049.4545362,"Y":3484714.83855577,"UNITDESC":"Old Donation Center","FULL_ADDRE":"1008 FERRY PLANTATION RD","COMPKEY":1849834,"UNITID":"GC0057-002","COMPTYPE":14}},{"type":"Feature","geometry":{"type":"Point","coordinates":[-76.11674063381534,36.870138182138255]},"properties":{"OBJECTID":2,"X":12180002.0909811,"Y":3485074.70002371,"UNITDESC":"PS-342; North Pump Station B Contract","FULL_ADDRE":"1019 SAW PEN POINT TL","COMPKEY":1839324,"UNITID":"GC0186","COMPTYPE":14}},{"type":"Feature","geometry":{"type":"Point","coordinates":[-76.12003638101456,36.86874860373943]},"properties":{"OBJECTID":3,"X":12179051.0682857,"Y":3484544.61722376,"UNITDESC":"Saw Pen Point Park","FULL_ADDRE":"1051 SAW PEN POINT TL","COMPKEY":1852143,"UNITID":"GC1187","COMPTYPE":14}},{"type":"Feature","geometry":{"type":"Point","coordinates":[-76.12044010186956,36.869044667183495]},"properties":{"OBJECTID":4,"X":12178930.2891811,"Y":3484649.39818104,"UNITDESC":"Witchduck Water Tower","FULL_ADDRE":"1057 SAW PEN POINT TL","COMPKEY":1856839,"UNITID":"GC1650","COMPTYPE":14}},{"type":"Feature","geometry":{"type":"Point","coordinates":[-76.21518491452403,36.80614480169526]},"properties":{"OBJECTID":5,"X":12151777.4942966,"Y":3461070.60083502,"UNITDESC":"PS-426; West Pump Station A Contract","FULL_ADDRE":"1058 COLLEGE PARK BL","COMPKEY":1839500,"UNITID":"GC0340","COMPTYPE":14}},{"type":"Feature","geometry":{"type":"Point","coordinates":[-76.13821296344034,36.87232338648207]},"properties":{"OBJECTID":6,"X":12173703.0164087,"Y":3485712.21115549,"UNITDESC":"PS-339; North Pump Station A Contract","FULL_ADDRE":"1062 FERRY PLANTATION RD","COMPKEY":1839322,"UNITID":"GC0184","COMPTYPE":14}},{"type":"Feature","geometry":{"type":"Point","coordinates":[-76.20727779067961,36.80460922027852]},"properties":{"OBJECTID":7,"X":12154105.3598729,"Y":3460567.80400953,"UNITDESC":"PS-428; West Pump Station A Contract","FULL_ADDRE":"1114 LEVEL GREEN BL","COMPKEY":1839502,"UNITID":"GC0342","COMPTYPE":14}},{"type":"Feature","geometry":{"type":"Point","coordinates":[-75.99772575595713,36.84028515534344]},"properties":{"OBJECTID":8,"X":12215093.116929,"Y":3475110.24189003,"UNITDESC":"PS-115; East Pump Station C Contract","FULL_ADDRE":"1129 LORETTA LA","COMPKEY":1839138,"UNITID":"GC0068","COMPTYPE":14}},{"type":"Feature","geometry":{"type":"Point","coordinates":[-76.08867723289843,36.82360634263162]},"properties":{"OBJECTID":9,"X":12188641.3276044,"Y":3468347.13703083,"UNITDESC":"Scarborough Square North Park","FULL_ADDRE":"1200 CLUB HOUSE RD","COMPKEY":1852175,"UNITID":"GC1192","COMPTYPE":14}},{"type":"Feature","geometry":{"type":"Point","coordinates":[-76.09321386072884,36.80082556428442]},"properties":{"OBJECTID":10,"X":12187525.3098963,"Y":3460021.81879349,"UNITDESC":"Green Run Elementary School","FULL_ADDRE":"1200 GREEN GARDEN CI","COMPKEY":1849853,"UNITID":"GC0077-002","COMPTYPE":14}},{"type":"Feature","geometry":{"type":"Point","coordinates":[-76.16005024802256,36.8832734917735]},"properties":{"OBJECTID":11,"X":12167218.458557,"Y":3489538.70150038,"UNITDESC":"PS-328; North Pump Station A Contract","FULL_ADDRE":"1245 SMITH COVE CI","COMPKEY":1839454,"UNITID":"GC0295","COMPTYPE":14}},{"type":"Feature","geometry":{"type":"Point","coordinates":[-76.09729306731488,36.87574576152428]},"properties":{"OBJECTID":12,"X":12185637.1720078,"Y":3487259.86206767,"UNITDESC":"PS-280; East Pump Station B Contract","FULL_ADDRE":"1249 LITTLE NECK RD","COMPKEY":1839239,"UNITID":"GC0157","COMPTYPE":14}},{"type":"Feature","geometry":{"type":"Point","coordinates":[-75.99910864586171,36.88128582937357]},"properties":{"OBJECTID":13,"X":12214293.1608357,"Y":3490022.00336233,"UNITDESC":"PS-134; North Pump Station C Contract","FULL_ADDRE":"1259 E BAY SHORE DR","COMPKEY":1853634,"UNITID":"GC1134","COMPTYPE":14}},{"type":"Feature","geometry":{"type":"Point","coordinates":[-76.03054769103754,36.87403391300336]},"properties":{"OBJECTID":14,"X":12205170.1051257,"Y":3487140.55525876,"UNITDESC":"First Colonial High School","FULL_ADDRE":"1272 MILL DAM RD","COMPKEY":1816378,"UNITID":"GC0014","COMPTYPE":14}},{"type":"Feature","geometry":{"type":"Point","coordinates":[-76.09759913680692,36.87631777497723]},"properties":{"OBJECTID":15,"X":12185542.3758567,"Y":3487465.77808578,"UNITDESC":"Little Neck Neighborhood Park","FULL_ADDRE":"1277 LITTLE NECK RD","COMPKEY":1853795,"UNITID":"GC1074","COMPTYPE":14}},{"type":"Feature","geometry":{"type":"Point","coordinates":[-76.03972571182005,36.87324996077999]},"properties":{"OBJECTID":16,"X":12202493.8112262,"Y":3486785.13921701,"UNITDESC":"Holy Family Church Ballfield Park","FULL_ADDRE":"1279 N GREAT NECK RD","COMPKEY":1853978,"UNITID":"GC1047","COMPTYPE":14}},{"type":"Feature","geometry":{"type":"Point","coordinates":[-76.05746081540283,36.87193050215115]},"properties":{"OBJECTID":17,"X":12197320.2706575,"Y":3486170.2090978,"UNITDESC":"PS-216; North Pump Station C Contract","FULL_ADDRE":"1289 FIVE POINT RD","COMPKEY":1839171,"UNITID":"GC0102","COMPTYPE":14}},{"type":"Feature","geometry":{"type":"Point","coordinates":[-76.00296586885959,36.84792113160092]},"properties":{"OBJECTID":18,"X":12213486.6681697,"Y":3477848.81268854,"UNITDESC":"Birdneck Canoe Launch (1299 Old Virginia Beach Road)","FULL_ADDRE":"1299 OLD VIRIGNIA BEACH RD","COMPKEY":1877497,"UNITID":"GC7003","COMPTYPE":14}},{"type":"Feature","geometry":{"type":"Point","coordinates":[-76.00813071731427,36.796116151303686]},"properties":{"OBJECTID":19,"X":12212473.7216987,"Y":3458954.05638189,"UNITDESC":"PS-126; East Pump Station C Contract","FULL_ADDRE":"1317 DERBY RN","COMPKEY":1853620,"UNITID":"GC1126","COMPTYPE":14}},{"type":"Feature","geometry":{"type":"Point","coordinates":[-76.04705948503607,36.87450970970897]},"properties":{"OBJECTID":20,"X":12200337.41,"Y":3487187.82243243,"UNITDESC":"PS-217; North Pump Station C Contract","FULL_ADDRE":"1324 MEADOW LAKE RD","COMPKEY":1839174,"UNITID":"GC0103","COMPTYPE":14}},{"type":"Feature","geometry":{"type":"Point","coordinates":[-76.21276875004033,36.79801924951691]},"properties":{"OBJECTID":21,"X":12152556.3370136,"Y":3458130.20826299,"UNITDESC":"PS-427; West Pump Station A Contract","FULL_ADDRE":"1329 COLLEGE PARK BL","COMPKEY":1839501,"UNITID":"GC0341","COMPTYPE":14}},{"type":"Feature","geometry":{"type":"Point","coordinates":[-76.09929876549415,36.79336939918078]},"properties":{"OBJECTID":22,"X":12185813.3120665,"Y":3457262.6622127,"UNITDESC":"PS-554; East Pump Station B Contract","FULL_ADDRE":"1400 S ROSEMONT RD","COMPKEY":1839392,"UNITID":"GC0245","COMPTYPE":14}},{"type":"Feature","geometry":{"type":"Point","coordinates":[-76.03488172811014,36.87959119097273]},"properties":{"OBJECTID":23,"X":12203849.9685173,"Y":3489130.05703128,"UNITDESC":"PS-211; North Pump Station C Contract","FULL_ADDRE":"1403 MILL DAM RD","COMPKEY":1839166,"UNITID":"GC0097","COMPTYPE":14}},{"type":"Feature","geometry":{"type":"Point","coordinates":[-76.19752401447867,36.7941902487372]},"properties":{"OBJECTID":24,"X":12157052.6959201,"Y":3456845.0393159,"UNITDESC":"PS-446; West Pump Station A Contract","FULL_ADDRE":"1441 REGENT UNIVERSITY DR","COMPKEY":1839526,"UNITID":"GC0359","COMPTYPE":14}},{"type":"Feature","geometry":{"type":"Point","coordinates":[-76.18376549214726,36.79307889196063]},"properties":{"OBJECTID":25,"X":12161090.1351976,"Y":3456539.07629573,"UNITDESC":"PS-448; West Pump Station A Contract","FULL_ADDRE":"1452 LAKE JAMES DR","COMPKEY":1839529,"UNITID":"GC0361","COMPTYPE":14}},{"type":"Feature","geometry":{"type":"Point","coordinates":[-76.17310535714715,36.79266488306198]},"properties":{"OBJECTID":26,"X":12164214.4118878,"Y":3456465.14390933,"UNITDESC":"PS-449; West Pump Station A Contract","FULL_ADDRE":"1465 LAKE CHRISTOPHER DR","COMPKEY":1839530,"UNITID":"GC0362","COMPTYPE":14}},{"type":"Feature","geometry":{"type":"Point","coordinates":[-76.03519130103177,36.88567127149759]},"properties":{"OBJECTID":27,"X":12203701.6625827,"Y":3491340.60410992,"UNITDESC":"PS-209; North Pump Station C Contract","FULL_ADDRE":"1527 BAY POINT DR","COMPKEY":1839164,"UNITID":"GC0095","COMPTYPE":14}},{"type":"Feature","geometry":{"type":"Point","coordinates":[-76.00919619829298,36.787976871154896]},"properties":{"OBJECTID":28,"X":12212240.0269512,"Y":3455983.46830069,"UNITDESC":"PS-135; East Pump Station C Contract","FULL_ADDRE":"1528 CORPORATE LANDING PW","COMPKEY":1839150,"UNITID":"GC0082","COMPTYPE":14}},{"type":"Feature","geometry":{"type":"Point","coordinates":[-76.04807543919823,36.88694144706549]},"properties":{"OBJECTID":29,"X":12199922.7920738,"Y":3491704.78490351,"UNITDESC":"PS-208; North Pump Station C Contract","FULL_ADDRE":"1608 DEY COVE DR","COMPKEY":1839163,"UNITID":"GC0094","COMPTYPE":14}},{"type":"Feature","geometry":{"type":"Point","coordinates":[-76.17294587384488,36.787072101834596]},"properties":{"OBJECTID":30,"X":12164311.2865208,"Y":3454430.66772344,"UNITDESC":"PS-455; West Pump Station A Contract","FULL_ADDRE":"1625 LAKE CHRISTOPHER DR","COMPKEY":1839537,"UNITID":"GC0369","COMPTYPE":14}},{"type":"Feature","geometry":{"type":"Point","coordinates":[-76.20274092659228,36.81002401235986]},"properties":{"OBJECTID":31,"X":12155385.2827828,"Y":3462570.95078483,"UNITDESC":"PS-429; West Pump Station A Contract","FULL_ADDRE":"1637 LEVEL GREEN BL","COMPKEY":1839503,"UNITID":"GC0343","COMPTYPE":14}},{"type":"Feature","geometry":{"type":"Point","coordinates":[-76.18019370254271,36.78028487187133]},"properties":{"OBJECTID":32,"X":12162250.1666504,"Y":3451908.05461958,"UNITDESC":"Charlestown East Park","FULL_ADDRE":"1760 LEGARE LA","COMPKEY":1849043,"UNITID":"GC1015","COMPTYPE":14}},{"type":"Feature","geometry":{"type":"Point","coordinates":[-76.06039309525492,36.895389103234905]},"properties":{"OBJECTID":33,"X":12196242.1247046,"Y":3494686.10372868,"UNITDESC":"Great Neck Middle School","FULL_ADDRE":"1848 N GREAT NECK RD","COMPKEY":1816383,"UNITID":"GC0016","COMPTYPE":14}},{"type":"Feature","geometry":{"type":"Point","coordinates":[-76.06108494983899,36.89591125216905]},"properties":{"OBJECTID":34,"X":12196034.9653327,"Y":3494870.92002333,"UNITDESC":"Meadow Ridge Park","FULL_ADDRE":"1860 N GREAT NECK RD","COMPKEY":1849962,"UNITID":"GC1249","COMPTYPE":14}},{"type":"Feature","geometry":{"type":"Point","coordinates":[-76.03686699410825,36.75980476404119]},"properties":{"OBJECTID":35,"X":12204407.2881925,"Y":3445517.33988356,"UNITDESC":"PS-637; East Pump Station C Contract","FULL_ADDRE":"1880 CAPEL MANOR WY","COMPKEY":1853618,"UNITID":"GC1637","COMPTYPE":14}},{"type":"Feature","geometry":{"type":"Point","coordinates":[-76.06339119826116,36.897651720182886]},"properties":{"OBJECTID":36,"X":12195344.4341045,"Y":3495486.97432868,"UNITDESC":"John B. Dey Elementary School","FULL_ADDRE":"1900 N GREAT NECK RD","COMPKEY":1816391,"UNITID":"GC0020","COMPTYPE":14}},{"type":"Feature","geometry":{"type":"Point","coordinates":[-76.13262129754641,36.842199511553595]},"properties":{"OBJECTID":37,"X":12175613.1579822,"Y":3474788.98038578,"UNITDESC":"Town Center","FULL_ADDRE":"200 TOWN CENTER DR","COMPKEY":1872588,"UNITID":"GC6735","COMPTYPE":14}},{"type":"Feature","geometry":{"type":"Point","coordinates":[-76.0358490411946,36.58305029464175]},"properties":{"OBJECTID":38,"X":12206384.9877697,"Y":3381193.24483109,"UNITDESC":"Munden Point Park","FULL_ADDRE":"2001 PEFLEY LA","COMPKEY":1851104,"UNITID":"GC0986","COMPTYPE":14}},{"type":"Feature","geometry":{"type":"Point","coordinates":[-75.97100645658912,36.83287057867755]},"properties":{"OBJECTID":39,"X":12222981.7434721,"Y":3472620.01273976,"UNITDESC":"205 4th Street","FULL_ADDRE":"205 04TH ST","COMPKEY":1863776,"UNITID":"GC1212","COMPTYPE":14}},{"type":"Feature","geometry":{"type":"Point","coordinates":[-76.04527582703885,36.84796748432829]},"properties":{"OBJECTID":40,"X":12201110.2149684,"Y":3477541.02877329,"UNITDESC":"Point OWoods Park","FULL_ADDRE":"2128 CHICKEN VALLEY RD","COMPKEY":1851643,"UNITID":"GC1138","COMPTYPE":14}},{"type":"Feature","geometry":{"type":"Point","coordinates":[-75.99180889364213,36.839595663185314]},"properties":{"OBJECTID":41,"X":12216830.6773381,"Y":3474905.24141517,"UNITDESC":"PS-116; East Pump Station C Contract","FULL_ADDRE":"216 POST CANYON RD","COMPKEY":1839139,"UNITID":"GC0069","COMPTYPE":14}},{"type":"Feature","geometry":{"type":"Point","coordinates":[-76.10984419371731,36.83522335625006]},"properties":{"OBJECTID":42,"X":12182340.6287939,"Y":3472417.81650888,"UNITDESC":"PS-502; North Pump Station B Contract","FULL_ADDRE":"219 THALIA TRACE DR","COMPKEY":1839350,"UNITID":"GC0203","COMPTYPE":14}},{"type":"Feature","geometry":{"type":"Point","coordinates":[-76.1378146711046,36.774974787277436]},"properties":{"OBJECTID":43,"X":12174706.2597845,"Y":3450283.08635664,"UNITDESC":"Glenwood Bus Garage","FULL_ADDRE":"2201 ROUNDHILL DR","COMPKEY":1875358,"UNITID":"GC7002","COMPTYPE":14}},{"type":"Feature","geometry":{"type":"Point","coordinates":[-76.1376865057681,36.77470920233626]},"properties":{"OBJECTID":44,"X":12174746.2058987,"Y":3450187.3603086,"UNITDESC":"Glenwood Elementary School","FULL_ADDRE":"2213 ROUND HILL DR","COMPKEY":1816379,"UNITID":"GC0015","COMPTYPE":14}},{"type":"Feature","geometry":{"type":"Point","coordinates":[-76.02625722854442,36.745206597390705]},"properties":{"OBJECTID":45,"X":12207653.6007072,"Y":3440285.45471467,"UNITDESC":"PS-648; East Pump Station C Contract","FULL_ADDRE":"2265 LOCKSLEY AR","COMPKEY":1841720,"UNITID":"GC0520","COMPTYPE":14}},{"type":"Feature","geometry":{"type":"Point","coordinates":[-76.04585081978759,36.90986481025723]},"properties":{"OBJECTID":46,"X":12200356.2383577,"Y":3500064.92312931,"UNITDESC":"PS-276; North Pump Station C Contract","FULL_ADDRE":"2343 LEEWARD SHORE DR","COMPKEY":1839235,"UNITID":"GC0153","COMPTYPE":14}},{"type":"Feature","geometry":{"type":"Point","coordinates":[-76.05311980291205,36.750329297309364]},"properties":{"OBJECTID":47,"X":12199737.0660794,"Y":3441944.82085001,"UNITDESC":"PACO- Sherrif Work Release- PAEP, Building #26","FULL_ADDRE":"2371 COURT PLAZA DR","COMPKEY":1875354,"UNITID":"GC6045","COMPTYPE":14}},{"type":"Feature","geometry":{"type":"Point","coordinates":[-76.05294959462358,36.7501146455722]},"properties":{"OBJECTID":48,"X":12199788.9433286,"Y":3441867.98828103,"UNITDESC":"PACO Kempsville Building (Finance)","FULL_ADDRE":"2388 COURT PLAZA DR","COMPKEY":1875356,"UNITID":"GC6046","COMPTYPE":14}},{"type":"Feature","geometry":{"type":"Point","coordinates":[-76.0525946738481,36.85648711359311]},"properties":{"OBJECTID":49,"X":12198888.9711209,"Y":3480586.25686699,"UNITDESC":"Wolfsnare Neighborhood Park","FULL_ADDRE":"2389 S WOLFSNARE DR","COMPKEY":1852611,"UNITID":"GC1237","COMPTYPE":14}},{"type":"Feature","geometry":{"type":"Point","coordinates":[-76.05388828199321,36.75169406941024]},"properties":{"OBJECTID":50,"X":12199499.1147469,"Y":3442435.71264111,"UNITDESC":"PACO- Sherrif Work Release- PAEP, Building #22","FULL_ADDRE":"2400 NORTH LANDING RD","COMPKEY":1875152,"UNITID":"GC6033","COMPTYPE":14}},{"type":"Feature","geometry":{"type":"Point","coordinates":[-76.0540022629314,36.751156166580515]},"properties":{"OBJECTID":51,"X":12199470.8055499,"Y":3442239.07113678,"UNITDESC":"City Attorney - Real Estate Division, Building #20","FULL_ADDRE":"2412 NORTH LANDING RD","COMPKEY":1875153,"UNITID":"GC6034","COMPTYPE":14}},{"type":"Feature","geometry":{"type":"Point","coordinates":[-76.04869186045124,36.78161264186015]},"properties":{"OBJECTID":52,"X":12200738.2341952,"Y":3453364.42244326,"UNITDESC":"Lake Placid Park","FULL_ADDRE":"2420 MIRROR LAKE DR","COMPKEY":1850662,"UNITID":"GC1057","COMPTYPE":14}},{"type":"Feature","geometry":{"type":"Point","coordinates":[-76.05483405707042,36.750106766887605]},"properties":{"OBJECTID":53,"X":12199237.0814603,"Y":3441850.81616144,"UNITDESC":"Buffington House","FULL_ADDRE":"2441 NORTH LANDING RD","COMPKEY":1886562,"UNITID":"GC1989","COMPTYPE":14}},{"type":"Feature","geometry":{"type":"Point","coordinates":[-76.13721566728665,36.76735483855201]},"properties":{"OBJECTID":54,"X":12174951.0769669,"Y":3447514.03822852,"UNITDESC":"Bentley Gate Park","FULL_ADDRE":"2441 ROUND HILL DR","COMPKEY":1853895,"UNITID":"GC0997","COMPTYPE":14}},{"type":"Feature","geometry":{"type":"Point","coordinates":[-76.05699791713018,36.749234718326775]},"properties":{"OBJECTID":55,"X":12198611.528302,"Y":3441517.01102216,"UNITDESC":"Pendelton Child Service Center - Building #23","FULL_ADDRE":"2473 NORTH LANDING RD","COMPKEY":1875353,"UNITID":"GC6044","COMPTYPE":14}},{"type":"Feature","geometry":{"type":"Point","coordinates":[-76.05140476721937,36.77947389240507]},"properties":{"OBJECTID":56,"X":12199964.1822187,"Y":3452565.38154107,"UNITDESC":"PS-600; East Pump Station C Contract","FULL_ADDRE":"2493 MIRROR LAKE DR","COMPKEY":1839411,"UNITID":"GC0261","COMPTYPE":14}},{"type":"Feature","geometry":{"type":"Point","coordinates":[-76.02181030019008,36.75393933831503]},"properties":{"OBJECTID":57,"X":12208872.6706451,"Y":3443497.9876357,"UNITDESC":"PS-615; East Pump Station C Contract","FULL_ADDRE":"2506 TREE GARDEN WY","COMPKEY":1839421,"UNITID":"GC0271","COMPTYPE":14}},{"type":"Feature","geometry":{"type":"Point","coordinates":[-76.14136934959964,36.765785811265]},"properties":{"OBJECTID":58,"X":12173749.0332106,"Y":3446912.53555381,"UNITDESC":"PS-570; West Pump Station B Contract","FULL_ADDRE":"2615 GAINES MILL DR","COMPKEY":1839573,"UNITID":"GC0396","COMPTYPE":14}},{"type":"Feature","geometry":{"type":"Point","coordinates":[-76.05934991135989,36.74412110665789]},"properties":{"OBJECTID":59,"X":12197970.7773749,"Y":3439638.02224436,"UNITDESC":"PS-573; West Pump Station B Contract","FULL_ADDRE":"2677 WEST NECK RD","COMPKEY":1839402,"UNITID":"GC0255","COMPTYPE":14}},{"type":"Feature","geometry":{"type":"Point","coordinates":[-76.05706037070368,36.74067123479244]},"properties":{"OBJECTID":60,"X":12198673.9095,"Y":3438399.74663472,"UNITDESC":"BIZNET Village","FULL_ADDRE":"2756 WEST NECK RD","COMPKEY":1875357,"UNITID":"GC6047","COMPTYPE":14}},{"type":"Feature","geometry":{"type":"Point","coordinates":[-76.05538257287448,36.73720660183892]},"properties":{"OBJECTID":61,"X":12199198.0386258,"Y":3437151.47411676,"UNITDESC":"PS-636; West Pump Station B Contract","FULL_ADDRE":"2833 WEST NECK RD","COMPKEY":1839436,"UNITID":"GC0285","COMPTYPE":14}},{"type":"Feature","geometry":{"type":"Point","coordinates":[-76.0661363482598,36.7784138370802]},"properties":{"OBJECTID":62,"X":12195661.092754,"Y":3452068.00204645,"UNITDESC":"PS-571; East Pump Station C Contract","FULL_ADDRE":"2873 SAVILLE GARDEN WY","COMPKEY":1839401,"UNITID":"GC0254","COMPTYPE":14}},{"type":"Feature","geometry":{"type":"Point","coordinates":[-76.07326093438887,36.743938673949735]},"properties":{"OBJECTID":63,"X":12193897.780058,"Y":3439466.55513394,"UNITDESC":"Technical/Career Education Center","FULL_ADDRE":"2925 NORTH LANDING RD","COMPKEY":1816446,"UNITID":"GC0050","COMPTYPE":14}},{"type":"Feature","geometry":{"type":"Point","coordinates":[-76.0733763220888,36.74389983162153]},"properties":{"OBJECTID":64,"X":12193864.3450653,"Y":3439451.54893427,"UNITDESC":"North Landing Elementary School","FULL_ADDRE":"2929 NORTH LANDING RD","COMPKEY":1816418,"UNITID":"GC0034","COMPTYPE":14}},{"type":"Feature","geometry":{"type":"Point","coordinates":[-76.07772019571374,36.903119206550265]},"properties":{"OBJECTID":65,"X":12191104.7054801,"Y":3497369.13158019,"UNITDESC":"PS-271; North Pump Station C Contract","FULL_ADDRE":"2993 ISLAND LA","COMPKEY":1839231,"UNITID":"GC0149","COMPTYPE":14}},{"type":"Feature","geometry":{"type":"Point","coordinates":[-76.03192105790177,36.73228134004273]},"properties":{"OBJECTID":66,"X":12206117.6547984,"Y":3435537.74011905,"UNITDESC":"PS-633; East Pump Station C Contract","FULL_ADDRE":"2997 HERON RIDGE DR","COMPKEY":1853612,"UNITID":"GC1633","COMPTYPE":14}},{"type":"Feature","geometry":{"type":"Point","coordinates":[-76.07957135042648,36.813344161513484]},"properties":{"OBJECTID":67,"X":12191401.556715,"Y":3464680.26321721,"UNITDESC":"PS-526; East Pump Station B Contract","FULL_ADDRE":"3085 BOW CREEK BL","COMPKEY":1839368,"UNITID":"GC0221","COMPTYPE":14}},{"type":"Feature","geometry":{"type":"Point","coordinates":[-76.07759552931526,36.86403143350916]},"properties":{"OBJECTID":68,"X":12191506.281346,"Y":3483143.48214029,"UNITDESC":"PS-283; North Pump Station B Contract","FULL_ADDRE":"3110 LITTLE HAVEN RD","COMPKEY":1839243,"UNITID":"GC0160","COMPTYPE":14}},{"type":"Feature","geometry":{"type":"Point","coordinates":[-76.1047832444084,36.82935279914686]},"properties":{"OBJECTID":69,"X":12183875.5040211,"Y":3470318.66012475,"UNITDESC":"PS-510; East Pump Station B Contract","FULL_ADDRE":"312 PALACE GREEN BL","COMPKEY":1839356,"UNITID":"GC0209","COMPTYPE":14}},{"type":"Feature","geometry":{"type":"Point","coordinates":[-76.08028603389685,36.908456665856676]},"properties":{"OBJECTID":70,"X":12190304.9070823,"Y":3499292.54504941,"UNITDESC":"PS-200; North Pump Station C Contract","FULL_ADDRE":"3140 CAPE HENRY DR","COMPKEY":1853765,"UNITID":"GC1200","COMPTYPE":14}},{"type":"Feature","geometry":{"type":"Point","coordinates":[-76.07851257806631,36.805244528702765]},"properties":{"OBJECTID":71,"X":12191787.0359213,"Y":3461740.22904821,"UNITDESC":"Beach House (Mental Health Magic Hollow Building)","FULL_ADDRE":"3143 MAGIC HOLLOW BL","COMPKEY":1873942,"UNITID":"GC6742","COMPTYPE":14}},{"type":"Feature","geometry":{"type":"Point","coordinates":[-76.07851257806631,36.805244528702765]},"properties":{"OBJECTID":72,"X":12191787.0359213,"Y":3461740.22904821,"UNITDESC":"Magic Hollow Health Center","FULL_ADDRE":"3143 MAGIC HOLLOW BL","COMPKEY":1875674,"UNITID":"GC6067","COMPTYPE":14}},{"type":"Feature","geometry":{"type":"Point","coordinates":[-76.07906587200937,36.79258024386391]},"properties":{"OBJECTID":73,"X":12191743.3301358,"Y":3457126.71925058,"UNITDESC":"PS-551; East Pump Station B Contract","FULL_ADDRE":"3168 SHIPPS CORNER RD","COMPKEY":1839390,"UNITID":"GC0243","COMPTYPE":14}},{"type":"Feature","geometry":{"type":"Point","coordinates":[-76.08375872674917,36.86577816433979]},"properties":{"OBJECTID":74,"X":12189687.5741124,"Y":3483733.03006767,"UNITDESC":"Middle Plantation/Bishops Gate Park","FULL_ADDRE":"3181 LITTLE HAVEN RD","COMPKEY":1850999,"UNITID":"GC1085","COMPTYPE":14}},{"type":"Feature","geometry":{"type":"Point","coordinates":[-76.05833519058461,36.72580216456611]},"properties":{"OBJECTID":75,"X":12198440.4859537,"Y":3432978.2893503,"UNITDESC":"PS-630; West Pump Station B Contract","FULL_ADDRE":"3284 INDIAN PLANTATION DR","COMPKEY":1839432,"UNITID":"GC0282","COMPTYPE":14}},{"type":"Feature","geometry":{"type":"Point","coordinates":[-76.09199143598515,36.79783938138144]},"properties":{"OBJECTID":76,"X":12187910.8376187,"Y":3458944.07552784,"UNITDESC":"PS-547; East Pump Station B Contract","FULL_ADDRE":"3350 GREEN GARDEN CI","COMPKEY":1839387,"UNITID":"GC0240","COMPTYPE":14}},{"type":"Feature","geometry":{"type":"Point","coordinates":[-76.10649632357035,36.618350000212274]},"properties":{"OBJECTID":77,"X":12185321.8400843,"Y":3393507.6289121,"UNITDESC":"Blackwater Park","FULL_ADDRE":"3390 HEAD RIVER RD","COMPKEY":1848735,"UNITID":"GC1001","COMPTYPE":14}},{"type":"Feature","geometry":{"type":"Point","coordinates":[-76.09003839345459,36.824322780497205]},"properties":{"OBJECTID":78,"X":12188236.3839448,"Y":3468597.7236063,"UNITDESC":"Bow Creek Golf Course","FULL_ADDRE":"3425 CLUB HOUSE RD","COMPKEY":1873949,"UNITID":"GC6749","COMPTYPE":14}},{"type":"Feature","geometry":{"type":"Point","coordinates":[-76.09006070940286,36.82432849071707]},"properties":{"OBJECTID":79,"X":12188229.8012565,"Y":3468599.63506786,"UNITDESC":"Bow Creek Neighborhood Park","FULL_ADDRE":"3427 CLUB HOUSE RD","COMPKEY":1848776,"UNITID":"GC1251","COMPTYPE":14}},{"type":"Feature","geometry":{"type":"Point","coordinates":[-76.09006070940286,36.82432849071707]},"properties":{"OBJECTID":80,"X":12188229.8012565,"Y":3468599.63506786,"UNITDESC":"Recreation - Bow Creek Center","FULL_ADDRE":"3427 CLUB HOUSE RD","COMPKEY":1873941,"UNITID":"GC6741","COMPTYPE":14}},{"type":"Feature","geometry":{"type":"Point","coordinates":[-76.08450157060706,36.77985951930324]},"properties":{"OBJECTID":81,"X":12190270.6490191,"Y":3452456.0465108,"UNITDESC":"PS-002; East Pump Station C Contract","FULL_ADDRE":"3432 DAM NECK RD","COMPKEY":1839118,"UNITID":"GC0058","COMPTYPE":14}},{"type":"Feature","geometry":{"type":"Point","coordinates":[-76.08450157060706,36.77985951930324]},"properties":{"OBJECTID":82,"X":12190270.6490191,"Y":3452456.0465108,"UNITDESC":"Dam Neck Road Water Tank","FULL_ADDRE":"3432 DAM NECK RD","COMPKEY":1856900,"UNITID":"GC1661","COMPTYPE":14}},{"type":"Feature","geometry":{"type":"Point","coordinates":[-76.0912688078144,36.86526999135185]},"properties":{"OBJECTID":83,"X":12187496.0121462,"Y":3483491.93397603,"UNITDESC":"PS-234; North Pump Station B Contract","FULL_ADDRE":"3432 OXFORD DR","COMPKEY":1839196,"UNITID":"GC0118","COMPTYPE":14}},{"type":"Feature","geometry":{"type":"Point","coordinates":[-76.09297015677541,36.87305809025192]},"properties":{"OBJECTID":84,"X":12186926.1674736,"Y":3486313.84759922,"UNITDESC":"PS-279; East Pump Station B Contract","FULL_ADDRE":"3516 CEDAR GROVE CI","COMPKEY":1839238,"UNITID":"GC0156","COMPTYPE":14}},{"type":"Feature","geometry":{"type":"Point","coordinates":[-76.08616753043742,36.778204108424745]},"properties":{"OBJECTID":85,"X":12189798.3059371,"Y":3451841.05521454,"UNITDESC":"PS-589; East Pump Station C Contract","FULL_ADDRE":"3529 DAM NECK RD","COMPKEY":1841617,"UNITID":"GC0425","COMPTYPE":14}},{"type":"Feature","geometry":{"type":"Point","coordinates":[-76.09605541612713,36.81858522521907]},"properties":{"OBJECTID":86,"X":12186528.9626599,"Y":3466464.5459766,"UNITDESC":"PS-524; East Pump Station B Contract","FULL_ADDRE":"3543 FARADAY LA","COMPKEY":1839367,"UNITID":"GC0220","COMPTYPE":14}},{"type":"Feature","geometry":{"type":"Point","coordinates":[-76.0871641250069,36.77782719878609]},"properties":{"OBJECTID":87,"X":12189510.0278074,"Y":3451696.41214485,"UNITDESC":"Landstown Yard/Dam Neck","FULL_ADDRE":"3556 DAM NECK RD","COMPKEY":1873944,"UNITID":"GC6744","COMPTYPE":14}},{"type":"Feature","geometry":{"type":"Point","coordinates":[-76.08970593325614,36.7765192330345]},"properties":{"OBJECTID":88,"X":12188777.9847022,"Y":3451201.34220456,"UNITDESC":"Farmers Market","FULL_ADDRE":"3640 DAM NECK RD","COMPKEY":1862417,"UNITID":"GC1145","COMPTYPE":14}},{"type":"Feature","geometry":{"type":"Point","coordinates":[-76.13970901951114,36.829177080110455]},"properties":{"OBJECTID":89,"X":12173658.2503629,"Y":3469997.26537423,"UNITDESC":"PS-507; West Pump Station A Contract","FULL_ADDRE":"369 CENTRE POINTE DRIVE","COMPKEY":1839558,"UNITID":"GC0383","COMPTYPE":14}},{"type":"Feature","geometry":{"type":"Point","coordinates":[-76.09714737494883,36.885294918990006]},"properties":{"OBJECTID":90,"X":12185591.2905695,"Y":3490736.52469978,"UNITDESC":"PS-286; East Pump Station B Contract","FULL_ADDRE":"3705 Little Neck Pt","COMPKEY":1841770,"UNITID":"GC0531","COMPTYPE":14}},{"type":"Feature","geometry":{"type":"Point","coordinates":[-76.09305752691994,36.774801924505226]},"properties":{"OBJECTID":91,"X":12187812.6149091,"Y":3450551.25698569,"UNITDESC":"Princess Anne Park","FULL_ADDRE":"3740 DAM NECK RD","COMPKEY":1851685,"UNITID":"GC1068","COMPTYPE":14}},{"type":"Feature","geometry":{"type":"Point","coordinates":[-76.10508595060799,36.89590088914107]},"properties":{"OBJECTID":92,"X":12183172.3350943,"Y":3494537.76527941,"UNITDESC":"PS-363; North Pump Station A Contract","FULL_ADDRE":"3806 CHURCH POINT RD","COMPKEY":1839334,"UNITID":"GC0196","COMPTYPE":14}},{"type":"Feature","geometry":{"type":"Point","coordinates":[-76.12225133545104,36.77463514439695]},"properties":{"OBJECTID":93,"X":12179266.2873756,"Y":3450273.89033276,"UNITDESC":"Salem Elementary School","FULL_ADDRE":"3961 SALEM LAKES BL","COMPKEY":1816437,"UNITID":"GC0045","COMPTYPE":14}},{"type":"Feature","geometry":{"type":"Point","coordinates":[-75.99954821129316,36.82013275208558]},"properties":{"OBJECTID":94,"X":12214754.2999934,"Y":3467761.5050361,"UNITDESC":"Dredge Operations","FULL_ADDRE":"4001 BELLS RD","COMPKEY":1873988,"UNITID":"GC6763","COMPTYPE":14}},{"type":"Feature","geometry":{"type":"Point","coordinates":[-76.10344832364167,36.764846099132654]},"properties":{"OBJECTID":95,"X":12184862.2388406,"Y":3446850.24195661,"UNITDESC":"PAAC - Princess Anne Athletic Complex","FULL_ADDRE":"4001 DAM NECK RD","COMPKEY":1873958,"UNITID":"GC6758","COMPTYPE":14}},{"type":"Feature","geometry":{"type":"Point","coordinates":[-76.10344832364167,36.764846099132654]},"properties":{"OBJECTID":96,"X":12184862.2388406,"Y":3446850.24195661,"UNITDESC":"PAAC Lake - BMP","FULL_ADDRE":"4001 DAM NECK RD","COMPKEY":1887511,"UNITID":"GC6774","COMPTYPE":14}},{"type":"Feature","geometry":{"type":"Point","coordinates":[-76.11704144906128,36.8621073842766]},"properties":{"OBJECTID":97,"X":12179987.9213707,"Y":3482149.51875107,"UNITDESC":"PS-361; North Pump Station B Contract","FULL_ADDRE":"4100 CHESWICK LA","COMPKEY":1839333,"UNITID":"GC0195","COMPTYPE":14}},{"type":"Feature","geometry":{"type":"Point","coordinates":[-76.12793976966404,36.773006346690636]},"properties":{"OBJECTID":98,"X":12177615.6193036,"Y":3449639.1477654,"UNITDESC":"Wyndamere Park","FULL_ADDRE":"4100 WARE NECK DR","COMPKEY":1852707,"UNITID":"GC1241","COMPTYPE":14}},{"type":"Feature","geometry":{"type":"Point","coordinates":[-76.12159335274309,36.880016815040634]},"properties":{"OBJECTID":99,"X":12178492.4042888,"Y":3488634.4230963,"UNITDESC":"PS-325; North Pump Station A Contract","FULL_ADDRE":"4100 WHITE ACRES RD","COMPKEY":1839317,"UNITID":"GC0179","COMPTYPE":14}},{"type":"Feature","geometry":{"type":"Point","coordinates":[-76.11477134615119,36.89175272147376]},"properties":{"OBJECTID":100,"X":12180379.1569088,"Y":3492956.26361637,"UNITDESC":"PS-321; North Pump Station A Contract","FULL_ADDRE":"4123 COUNTRY CLUB CI","COMPKEY":1839313,"UNITID":"GC0175","COMPTYPE":14}},{"type":"Feature","geometry":{"type":"Point","coordinates":[-76.11874509501446,36.90183026888651]},"properties":{"OBJECTID":101,"X":12179124.9044995,"Y":3496594.84681502,"UNITDESC":"Bayville Park","FULL_ADDRE":"4132 FIRST COURT RD","COMPKEY":1850529,"UNITID":"GC0983","COMPTYPE":14}},{"type":"Feature","geometry":{"type":"Point","coordinates":[-76.11771015855206,36.8610713984057]},"properties":{"OBJECTID":102,"X":12179801.8672829,"Y":3481767.51534365,"UNITDESC":"Museum - Ferry Farm House","FULL_ADDRE":"4136 CHESWICK LA","COMPKEY":1875611,"UNITID":"GC6062","COMPTYPE":14}},{"type":"Feature","geometry":{"type":"Point","coordinates":[-76.1088245034619,36.764818061982204]},"properties":{"OBJECTID":103,"X":12183288.1627197,"Y":3446800.10708715,"UNITDESC":"New Castle Elementary School","FULL_ADDRE":"4136 DAM NECK RD","COMPKEY":1816416,"UNITID":"GC0033","COMPTYPE":14}},{"type":"Feature","geometry":{"type":"Point","coordinates":[-76.10902509636652,36.764757960544834]},"properties":{"OBJECTID":104,"X":12183229.9761426,"Y":3446776.74414249,"UNITDESC":"Landscape Management HQ","FULL_ADDRE":"4141 DAM NECK RD","COMPKEY":1873955,"UNITID":"GC6755","COMPTYPE":14}},{"type":"Feature","geometry":{"type":"Point","coordinates":[-76.13909899156802,36.80648363386054]},"properties":{"OBJECTID":105,"X":12174043.3464192,"Y":3461741.97775923,"UNITDESC":"Dunbarton Park","FULL_ADDRE":"4468 PADDOCK LA","COMPKEY":1849214,"UNITID":"GC1029","COMPTYPE":14}},{"type":"Feature","geometry":{"type":"Point","coordinates":[-76.12703676517413,36.898335307878426]},"properties":{"OBJECTID":106,"X":12176733.1619928,"Y":3495261.7425203,"UNITDESC":"Recreation - Bayside Center","FULL_ADDRE":"4500 FIRST COURT RD","COMPKEY":1850299,"UNITID":"GC1266","COMPTYPE":14}},{"type":"Feature","geometry":{"type":"Point","coordinates":[-76.12980046897665,36.911089465445876]},"properties":{"OBJECTID":107,"X":12175808.6946576,"Y":3499883.57841508,"UNITDESC":"PS-303; North Pump Station A Contract","FULL_ADDRE":"4607 POWELLS POINT RD","COMPKEY":1839277,"UNITID":"GC0166","COMPTYPE":14}},{"type":"Feature","geometry":{"type":"Point","coordinates":[-76.14777057004112,36.797841292639994]},"properties":{"OBJECTID":108,"X":12171583.7637237,"Y":3458533.0430169,"UNITDESC":"PS-445; West Pump Station A Contract","FULL_ADDRE":"4702 ORCHARD LA","COMPKEY":1839525,"UNITID":"GC0358","COMPTYPE":14}},{"type":"Feature","geometry":{"type":"Point","coordinates":[-76.14733929605974,36.87826235599869]},"properties":{"OBJECTID":109,"X":12170980.3794608,"Y":3487807.17694709,"UNITDESC":"Haygood Point Park","FULL_ADDRE":"4775 HAYGOOD POINT RD","COMPKEY":1849418,"UNITID":"GC1041","COMPTYPE":14}},{"type":"Feature","geometry":{"type":"Point","coordinates":[-76.14722878441516,36.87835783208558]},"properties":{"OBJECTID":110,"X":12171011.8268602,"Y":3487842.73306437,"UNITDESC":"PS-332; North Pump Station A Contract","FULL_ADDRE":"4776 HAYGOOD POINT RD","COMPKEY":1839320,"UNITID":"GC0182","COMPTYPE":14}},{"type":"Feature","geometry":{"type":"Point","coordinates":[-76.13995635894653,36.836537814122764]},"properties":{"OBJECTID":111,"X":12173518.8912,"Y":3472674.54882746,"UNITDESC":"PS-466; North Pump Station B Contract","FULL_ADDRE":"4821 KIOWA LA","COMPKEY":1839338,"UNITID":"GC0200","COMPTYPE":14}},{"type":"Feature","geometry":{"type":"Point","coordinates":[-76.12791868261105,36.81697489969569]},"properties":{"OBJECTID":112,"X":12177219.5953,"Y":3465642.52537805,"UNITDESC":"PS-521; West Pump Station A Contract","FULL_ADDRE":"501 GREEN MEADOWS DR","COMPKEY":1839560,"UNITID":"GC0385","COMPTYPE":14}},{"type":"Feature","geometry":{"type":"Point","coordinates":[-76.19263085070187,36.82406582016273]},"properties":{"OBJECTID":113,"X":12158219.2362854,"Y":3467754.00649953,"UNITDESC":"PS-414; West Pump Station A Contract","FULL_ADDRE":"503 RODNEY LA","COMPKEY":1839488,"UNITID":"GC0328","COMPTYPE":14}},{"type":"Feature","geometry":{"type":"Point","coordinates":[-76.16698752014354,36.78876713286751]},"properties":{"OBJECTID":114,"X":12166040.3711178,"Y":3455090.67587234,"UNITDESC":"PS-457; West Pump Station A Contract","FULL_ADDRE":"5123 EAGLE RUN RD","COMPKEY":1839538,"UNITID":"GC0370","COMPTYPE":14}},{"type":"Feature","geometry":{"type":"Point","coordinates":[-76.12386346643298,36.85237779251819]},"properties":{"OBJECTID":115,"X":12178081.898079,"Y":3478557.94353493,"UNITDESC":"PS-239; North Pump Station B Contract","FULL_ADDRE":"537 CEDAR LA","COMPKEY":1839201,"UNITID":"GC0123","COMPTYPE":14}},{"type":"Feature","geometry":{"type":"Point","coordinates":[-76.17570211893559,36.881001295768826]},"properties":{"OBJECTID":116,"X":12162662.477964,"Y":3488598.60369271,"UNITDESC":"Raleigh Square Park","FULL_ADDRE":"5508 SHIRE RE","COMPKEY":1851847,"UNITID":"GC1153","COMPTYPE":14}},{"type":"Feature","geometry":{"type":"Point","coordinates":[-76.17689627639223,36.88018111795725]},"properties":{"OBJECTID":117,"X":12162320.6627342,"Y":3488291.48356563,"UNITDESC":"PS-327; North Pump Station A Contract","FULL_ADDRE":"5514 SHIRE RE","COMPKEY":1839453,"UNITID":"GC0294","COMPTYPE":14}},{"type":"Feature","geometry":{"type":"Point","coordinates":[-76.17630391741241,36.88069051029623]},"properties":{"OBJECTID":118,"X":12162489.3014919,"Y":3488481.15316477,"UNITDESC":"Wesleyan Park","FULL_ADDRE":"5525 SHIRE RE","COMPKEY":1852530,"UNITID":"GC1233","COMPTYPE":14}},{"type":"Feature","geometry":{"type":"Point","coordinates":[-76.18494243698473,36.81594390381759]},"properties":{"OBJECTID":119,"X":12160541.4766024,"Y":3464852.92011667,"UNITDESC":"Gates Landing Road - Steep Slope","FULL_ADDRE":"5600 GATES LANDING RD","COMPKEY":1842077,"UNITID":"GC0719","COMPTYPE":14}},{"type":"Feature","geometry":{"type":"Point","coordinates":[-76.07600065496995,36.81765812057248]},"properties":{"OBJECTID":120,"X":12192406.1812845,"Y":3466277.20903956,"UNITDESC":"Plaza Elementary School","FULL_ADDRE":"641 CARRIAGE HILL RD","COMPKEY":1816424,"UNITID":"GC0037","COMPTYPE":14}},{"type":"Feature","geometry":{"type":"Point","coordinates":[-76.13687142208998,36.81177761627347]},"properties":{"OBJECTID":121,"X":12174647.0615087,"Y":3463685.14724293,"UNITDESC":"PS-522; West Pump Station A Contract","FULL_ADDRE":"656 GREEN MEADOWS DR","COMPKEY":1839561,"UNITID":"GC0386","COMPTYPE":14}},{"type":"Feature","geometry":{"type":"Point","coordinates":[-76.1161705835973,36.8574589201992]},"properties":{"OBJECTID":122,"X":12180285.3476739,"Y":3480464.05502385,"UNITDESC":"PS-235; North Pump Station B Contract","FULL_ADDRE":"657 THALIA POINT RD","COMPKEY":1839197,"UNITID":"GC0119","COMPTYPE":14}},{"type":"Feature","geometry":{"type":"Point","coordinates":[-76.15194807118387,36.87465743973396]},"properties":{"OBJECTID":123,"X":12169665.4093736,"Y":3486461.52900731,"UNITDESC":"PS-337; North Pump Station A Contract","FULL_ADDRE":"684 HARRIS POINT DR","COMPKEY":1839458,"UNITID":"GC0299","COMPTYPE":14}},{"type":"Feature","geometry":{"type":"Point","coordinates":[-75.97976657391494,36.78542030944095]},"properties":{"OBJECTID":124,"X":12220880.0129819,"Y":3455281.69925931,"UNITDESC":"PS-628; East Pump Station C Contract","FULL_ADDRE":"700 DAM NECK RD","COMPKEY":1839430,"UNITID":"GC0280","COMPTYPE":14}},{"type":"Feature","geometry":{"type":"Point","coordinates":[-76.2254747163533,36.8327315195606]},"properties":{"OBJECTID":125,"X":12148532.6268816,"Y":3470674.86676434,"UNITDESC":"PS-469; West Pump Station A Contract","FULL_ADDRE":"709 BOB WHITE LA","COMPKEY":1839555,"UNITID":"GC0380","COMPTYPE":14}},{"type":"Feature","geometry":{"type":"Point","coordinates":[-76.10339154652246,36.81178082246075]},"properties":{"OBJECTID":126,"X":12184445.0956099,"Y":3463933.37124771,"UNITDESC":"PS-530; East Pump Station B Contract","FULL_ADDRE":"764 CHIMNEY HILL PW","COMPKEY":1839372,"UNITID":"GC0225","COMPTYPE":14}},{"type":"Feature","geometry":{"type":"Point","coordinates":[-76.15296126931473,36.814578543675815]},"properties":{"OBJECTID":127,"X":12169912.9002385,"Y":3464587.11172224,"UNITDESC":"Recreation - Kempsville Center","FULL_ADDRE":"800 MONMOUTH LA","COMPKEY":1850346,"UNITID":"GC1269","COMPTYPE":14}},{"type":"Feature","geometry":{"type":"Point","coordinates":[-76.15296126931473,36.814578543675815]},"properties":{"OBJECTID":128,"X":12169912.9002385,"Y":3464587.11172224,"UNITDESC":"Lark Downs Park","FULL_ADDRE":"800 MONMOUTH LA","COMPKEY":1851344,"UNITID":"GC1069","COMPTYPE":14}},{"type":"Feature","geometry":{"type":"Point","coordinates":[-75.97815459564663,36.75279494568941]},"properties":{"OBJECTID":129,"X":12221669.1880608,"Y":3443420.14552562,"UNITDESC":"Lagomar at Back Bay Park","FULL_ADDRE":"817 ATRESIA WY","COMPKEY":1849969,"UNITID":"GC1250","COMPTYPE":14}},{"type":"Feature","geometry":{"type":"Point","coordinates":[-76.16173217181385,36.81397703424216]},"properties":{"OBJECTID":130,"X":12167351.5421514,"Y":3464304.4698629,"UNITDESC":"Kempsville Park","FULL_ADDRE":"832 LOBAUGH DR","COMPKEY":1849595,"UNITID":"GC1051","COMPTYPE":14}},{"type":"Feature","geometry":{"type":"Point","coordinates":[-76.14196979072207,36.86398071359186]},"properties":{"OBJECTID":131,"X":12172680.2939227,"Y":3482648.24980788,"UNITDESC":"Romney Lane Park","FULL_ADDRE":"857 ROMNEY LA","COMPKEY":1851809,"UNITID":"GC1158","COMPTYPE":14}},{"type":"Feature","geometry":{"type":"Point","coordinates":[-76.16971120579676,36.86838307287809]},"properties":{"OBJECTID":132,"X":12164527.5669569,"Y":3484049.09189405,"UNITDESC":"PS-362; North Pump Station A Contract","FULL_ADDRE":"880 SHURNEY LA","COMPKEY":1839472,"UNITID":"GC0312","COMPTYPE":14}},{"type":"Feature","geometry":{"type":"Point","coordinates":[-76.08584796196163,36.864228416581575]},"properties":{"OBJECTID":133,"X":12189091.0167142,"Y":3483153.34043726,"UNITDESC":"Fire Station #20 - Little Neck","FULL_ADDRE":"885 LITTLE NECK RD","COMPKEY":1853567,"UNITID":"GC1834-001","COMPTYPE":14}},{"type":"Feature","geometry":{"type":"Point","coordinates":[-76.05862963767352,36.86213801060164]},"properties":{"OBJECTID":134,"X":12197070.6773541,"Y":3482597.26056178,"UNITDESC":"PS-226; North Pump Station C Contract","FULL_ADDRE":"902 FIVE POINT RD","COMPKEY":1839186,"UNITID":"GC0110","COMPTYPE":14}},{"type":"Feature","geometry":{"type":"Point","coordinates":[-76.1905869247157,36.80410179661776]},"properties":{"OBJECTID":135,"X":12158995.1120282,"Y":3460502.21426679,"UNITDESC":"PS-442; West Pump Station A Contract","FULL_ADDRE":"920 REGENT UNIVERSITY DR","COMPKEY":1839522,"UNITID":"GC0355","COMPTYPE":14}},{"type":"Feature","geometry":{"type":"Point","coordinates":[-75.99208571848008,36.8110827011366]},"properties":{"OBJECTID":136,"X":12217025.4473548,"Y":3464525.62030408,"UNITDESC":"Pump Station-143","FULL_ADDRE":"930 S BIRDNECK RD","COMPKEY":1864143,"UNITID":"GC2102","COMPTYPE":14}},{"type":"Feature","geometry":{"type":"Point","coordinates":[-76.16312328489653,36.86895164086931]},"properties":{"OBJECTID":137,"X":12166449.0192926,"Y":3484303.66873774,"UNITDESC":"PS-338; North Pump Station A Contract","FULL_ADDRE":"976 BROAD MEADOWS BL","COMPKEY":1839459,"UNITID":"GC0300","COMPTYPE":14}},{"type":"Feature","geometry":{"type":"Point","coordinates":[-76.07461022011529,36.803672830280554]},"properties":{"OBJECTID":138,"X":12192943.8664252,"Y":3461197.51280004,"UNITDESC":"PS-538; East Pump Station B Contract","FULL_ADDRE":"990 MAGIC HOLLOW BL","COMPKEY":1853813,"UNITID":"GC1538","COMPTYPE":14}},{"type":"Feature","geometry":{"type":"Point","coordinates":[-76.00082111147435,36.87381784579509]},"properties":{"OBJECTID":139,"X":12213864.4460333,"Y":3487290.71353176,"UNITDESC":"PS-139; North Pump Station C Contract","FULL_ADDRE":"998 S BAY SHORE DR","COMPKEY":1839154,"UNITID":"GC0086","COMPTYPE":14}},{"type":"Feature","geometry":{"type":"Point","coordinates":[-75.97132992914314,36.83765455633082]},"properties":{"OBJECTID":140,"X":12222840.4585215,"Y":3474358.62526024,"UNITDESC":"10th Street Playground on the Beach","FULL_ADDRE":"DEFAULT 10TH ST","COMPKEY":1873954,"UNITID":"GC6754","COMPTYPE":14}},{"type":"Feature","geometry":{"type":"Point","coordinates":[-76.12316165132904,36.86840866099365]},"properties":{"OBJECTID":141,"X":12178140.2433146,"Y":3484397.85759392,"UNITDESC":"Pembroke Meadows Park","FULL_ADDRE":"DEFAULT ALFRIENDS TL","COMPKEY":1851325,"UNITID":"GC1097","COMPTYPE":14}},{"type":"Feature","geometry":{"type":"Point","coordinates":[-76.02880891916013,36.76367725862736]},"properties":{"OBJECTID":142,"X":12206730.1821157,"Y":3446988.45863843,"UNITDESC":"Hunters Run Trail","FULL_ADDRE":"DEFAULT HUNTERS RUN TL","COMPKEY":1863780,"UNITID":"GC1216","COMPTYPE":14}},{"type":"Feature","geometry":{"type":"Point","coordinates":[-76.11422423890549,36.910628317384685]},"properties":{"OBJECTID":143,"X":12180365.4420713,"Y":3499830.43478354,"UNITDESC":"Aeries on the Bay Park","FULL_ADDRE":"DEFAULT ROOKERY WY","COMPKEY":1887538,"UNITID":"GC6775","COMPTYPE":14}},{"type":"Feature","geometry":{"type":"Point","coordinates":[-76.13476285423428,36.84069031126085]},"properties":{"OBJECTID":144,"X":12175000.4344228,"Y":3474223.96925379,"UNITDESC":"PS-359; North Pump Station B Contract","FULL_ADDRE":"100 MARKET ST","COMPKEY":1839331,"UNITID":"GC0193","COMPTYPE":14}},{"type":"Feature","geometry":{"type":"Point","coordinates":[-75.9449808883858,36.74658397307501]},"properties":{"OBJECTID":145,"X":12231445.9637097,"Y":3441420.95953977,"UNITDESC":"Sandbridge Beach Park","FULL_ADDRE":"100 SANDBRIDGE RD","COMPKEY":1852126,"UNITID":"GC1179","COMPTYPE":14}},{"type":"Feature","geometry":{"type":"Point","coordinates":[-75.96910175420064,36.83053884283304]},"properties":{"OBJECTID":146,"X":12223561.744077,"Y":3471786.30584992,"UNITDESC":"Grommet Island Park","FULL_ADDRE":"100 SECOND ST","COMPKEY":1873957,"UNITID":"GC6757","COMPTYPE":14}},{"type":"Feature","geometry":{"type":"Point","coordinates":[-76.17500116082444,36.87254235542316]},"properties":{"OBJECTID":147,"X":12162943.2749301,"Y":3485524.81344318,"UNITDESC":"PS-336; North Pump Station A Contract","FULL_ADDRE":"1000 VIRGINIA TECH TL","COMPKEY":1839457,"UNITID":"GC0298","COMPTYPE":14}},{"type":"Feature","geometry":{"type":"Point","coordinates":[-75.98945315164106,36.84398336262687]},"properties":{"OBJECTID":148,"X":12217477.3420954,"Y":3476520.49339598,"UNITDESC":"Veterans Memorial","FULL_ADDRE":"1001 19TH ST","COMPKEY":1870784,"UNITID":"GC6714","COMPTYPE":14}},{"type":"Feature","geometry":{"type":"Point","coordinates":[-75.99094266617996,36.84002180913676]},"properties":{"OBJECTID":149,"X":12217079.9582419,"Y":3475067.07507604,"UNITDESC":"Seabridge Square Park","FULL_ADDRE":"1001 COASTAWAY DR","COMPKEY":1852182,"UNITID":"GC1193","COMPTYPE":14}},{"type":"Feature","geometry":{"type":"Point","coordinates":[-76.17043856180085,36.81140689007322]},"properties":{"OBJECTID":150,"X":12164826.7024948,"Y":3463306.00032496,"UNITDESC":"PS-432; West Pump Station A Contract","FULL_ADDRE":"1002 LORD DUNMORE DR","COMPKEY":1839506,"UNITID":"GC0346","COMPTYPE":14}},{"type":"Feature","geometry":{"type":"Point","coordinates":[-76.16974118706938,36.83681507851578]},"properties":{"OBJECTID":151,"X":12164802.4745742,"Y":3472558.9517933,"UNITDESC":"PS-401; West Pump Station A Contract","FULL_ADDRE":"101 MAGISTRATES DR","COMPKEY":1839475,"UNITID":"GC0315","COMPTYPE":14}},{"type":"Feature","geometry":{"type":"Point","coordinates":[-76.13496773839101,36.78070287824049]},"properties":{"OBJECTID":152,"X":12175487.5957418,"Y":3452388.81696438,"UNITDESC":"PS-563; West Pump Station A Contract","FULL_ADDRE":"1016 BELSPRING DR","COMPKEY":1839568,"UNITID":"GC0391","COMPTYPE":14}},{"type":"Feature","geometry":{"type":"Point","coordinates":[-76.21993523898412,36.81356878963966]},"properties":{"OBJECTID":153,"X":12150321.8713052,"Y":3463739.15088825,"UNITDESC":"Queen City Park","FULL_ADDRE":"1025 TAMER AV","COMPKEY":1851824,"UNITID":"GC1142","COMPTYPE":14}},{"type":"Feature","geometry":{"type":"Point","coordinates":[-76.21909167421992,36.82246167698707]},"properties":{"OBJECTID":154,"X":12150490.5248687,"Y":3466981.93443798,"UNITDESC":"PS-409; West Pump Station A Contract","FULL_ADDRE":"1027 HARLIE AV","COMPKEY":1839483,"UNITID":"GC0323","COMPTYPE":14}},{"type":"Feature","geometry":{"type":"Point","coordinates":[-76.18468461959989,36.87635501742682]},"properties":{"OBJECTID":155,"X":12160077.5416176,"Y":3486842.92000276,"UNITDESC":"PS-335; North Pump Station A Contract","FULL_ADDRE":"1032 NORWICH AV","COMPKEY":1839456,"UNITID":"GC0297","COMPTYPE":14}},{"type":"Feature","geometry":{"type":"Point","coordinates":[-76.00723478526061,36.86723444692624]},"properties":{"OBJECTID":156,"X":12212052.3282273,"Y":3484845.03726431,"UNITDESC":"PS-104; North Pump Station C Contract","FULL_ADDRE":"1036 BOBOLINK DR","COMPKEY":1839115,"UNITID":"GC0059","COMPTYPE":14}},{"type":"Feature","geometry":{"type":"Point","coordinates":[-75.9876239059398,36.7797068754198]},"properties":{"OBJECTID":157,"X":12218635.1641642,"Y":3453140.93607521,"UNITDESC":"Pine Meadows Park","FULL_ADDRE":"1041 WASSERMAN DR","COMPKEY":1851517,"UNITID":"GC1098","COMPTYPE":14}},{"type":"Feature","geometry":{"type":"Point","coordinates":[-76.0802434492608,36.80622477163305]},"properties":{"OBJECTID":158,"X":12191271.3022959,"Y":3462084.01075002,"UNITDESC":"Harbor House (Old Moose Lodge)","FULL_ADDRE":"1045 LYNNHAVEN PW","COMPKEY":1875677,"UNITID":"GC6070","COMPTYPE":14}},{"type":"Feature","geometry":{"type":"Point","coordinates":[-76.17835960683722,36.76417399630355]},"properties":{"OBJECTID":159,"X":12162931.3951245,"Y":3446057.30839011,"UNITDESC":"Charlestown Lakes South Park","FULL_ADDRE":"1052 KINDERLY LA","COMPKEY":1842135,"UNITID":"GC1016","COMPTYPE":14}},{"type":"Feature","geometry":{"type":"Point","coordinates":[-76.17899316525092,36.764502474217714]},"properties":{"OBJECTID":160,"X":12162742.9218237,"Y":3446172.30282125,"UNITDESC":"Charlestown Lakes South Park West","FULL_ADDRE":"1053 KINDERLY LA","COMPKEY":1849047,"UNITID":"GC1017","COMPTYPE":14}},{"type":"Feature","geometry":{"type":"Point","coordinates":[-76.16211443281502,36.8734012525627]},"properties":{"OBJECTID":161,"X":12166703.9302,"Y":3485930.51444465,"UNITDESC":"PS-329; North Pump Station A Contract","FULL_ADDRE":"1061 CYPRESS POINT BL","COMPKEY":1839455,"UNITID":"GC0296","COMPTYPE":14}},{"type":"Feature","geometry":{"type":"Point","coordinates":[-76.15738113861609,36.87220549451821]},"properties":{"OBJECTID":162,"X":12168098.8462854,"Y":3485529.61007811,"UNITDESC":"PS-368; North Pump Station A Contract","FULL_ADDRE":"1065 RIDGELY MANOR BL","COMPKEY":1853844,"UNITID":"GC1368","COMPTYPE":14}},{"type":"Feature","geometry":{"type":"Point","coordinates":[-75.9708449143482,36.830993958155595]},"properties":{"OBJECTID":163,"X":12223047.3074549,"Y":3471938.2756,"UNITDESC":"2nd Street Parking Lot","FULL_ADDRE":"108 ATLANTIC AV","COMPKEY":1886578,"UNITID":"GC6771","COMPTYPE":14}},{"type":"Feature","geometry":{"type":"Point","coordinates":[-75.9943258877283,36.86968298214534]},"properties":{"OBJECTID":164,"X":12215803.6435087,"Y":3485836.15923415,"UNITDESC":"PS-136; North Pump Station C Contract","FULL_ADDRE":"108 BAY DR","COMPKEY":1839151,"UNITID":"GC0083","COMPTYPE":14}},{"type":"Feature","geometry":{"type":"Point","coordinates":[-76.18135227503599,36.80751819079402]},"properties":{"OBJECTID":165,"X":12161667.4540717,"Y":3461811.96258938,"UNITDESC":"Whitehurst Grove Park","FULL_ADDRE":"1098 TAYLOR RD","COMPKEY":1852546,"UNITID":"GC1234","COMPTYPE":14}},{"type":"Feature","geometry":{"type":"Point","coordinates":[-76.13535315427546,36.839547998354305]},"properties":{"OBJECTID":166,"X":12174838.1615498,"Y":3473803.87404159,"UNITDESC":"Circuit City Parcel","FULL_ADDRE":"110 S INDEPENDENCE BL","COMPKEY":1890774,"UNITID":"GC6075","COMPTYPE":14}},{"type":"Feature","geometry":{"type":"Point","coordinates":[-75.99418194528042,36.78039184117983]},"properties":{"OBJECTID":167,"X":12216708.5576129,"Y":3453339.19141328,"UNITDESC":"Upton Estates North Park","FULL_ADDRE":"1100 CROSSWAY RD","COMPKEY":1852482,"UNITID":"GC1229","COMPTYPE":14}},{"type":"Feature","geometry":{"type":"Point","coordinates":[-76.1695106515197,36.87297693185866]},"properties":{"OBJECTID":168,"X":12164544.9320276,"Y":3485722.58482613,"UNITDESC":"Cypress Point North Park","FULL_ADDRE":"1100 FALLBROOK BD","COMPKEY":1849182,"UNITID":"GC1025","COMPTYPE":14}},{"type":"Feature","geometry":{"type":"Point","coordinates":[-76.00079664855252,36.79106010201808]},"properties":{"OBJECTID":169,"X":12214669.1783888,"Y":3457170.6329041,"UNITDESC":"PS-128; East Pump Station C Contract","FULL_ADDRE":"1105 EAGLEWOOD DR","COMPKEY":1839146,"UNITID":"GC0078","COMPTYPE":14}},{"type":"Feature","geometry":{"type":"Point","coordinates":[-75.98884771049576,36.8616248448237]},"properties":{"OBJECTID":170,"X":12217483.6135,"Y":3482945.92718672,"UNITDESC":"PS-130; North Pump Station C Contract","FULL_ADDRE":"111 PINEWOOD RD","COMPKEY":1839147,"UNITID":"GC0079","COMPTYPE":14}},{"type":"Feature","geometry":{"type":"Point","coordinates":[-76.21243357243812,36.8051552994166]},"properties":{"OBJECTID":171,"X":12152591.4975278,"Y":3460729.94944061,"UNITDESC":"College Park Elementary School","FULL_ADDRE":"1110 BENNINGTON RD","COMPKEY":1816369,"UNITID":"GC0010","COMPTYPE":14}},{"type":"Feature","geometry":{"type":"Point","coordinates":[-76.18069798889545,36.8048072490397]},"properties":{"OBJECTID":172,"X":12161883.1947623,"Y":3460829.95307526,"UNITDESC":"Newlight Park","FULL_ADDRE":"1111 THOMPKINS LA","COMPKEY":1851150,"UNITID":"GC1087","COMPTYPE":14}},{"type":"Feature","geometry":{"type":"Point","coordinates":[-75.97241649627652,36.840459625965636]},"properties":{"OBJECTID":173,"X":12222495.2495863,"Y":3475371.02754679,"UNITDESC":"Museum - Old Library (Dewitt Cottage)","FULL_ADDRE":"1113 ATLANTIC AV","COMPKEY":1864279,"UNITID":"GC2120","COMPTYPE":14}},{"type":"Feature","geometry":{"type":"Point","coordinates":[-76.05306645106901,36.868818760311456]},"properties":{"OBJECTID":174,"X":12198634.6255159,"Y":3485070.93586914,"UNITDESC":"PS-223; North Pump Station C Contract","FULL_ADDRE":"1113 BLACKBURN LA","COMPKEY":1839183,"UNITID":"GC0107","COMPTYPE":14}},{"type":"Feature","geometry":{"type":"Point","coordinates":[-76.06471724996109,36.86915721288929]},"properties":{"OBJECTID":175,"X":12195224.3974641,"Y":3485106.00056852,"UNITDESC":"PS-215; North Pump Station C Contract","FULL_ADDRE":"1116 N INLYNNVIEW RD","COMPKEY":1839170,"UNITID":"GC0101","COMPTYPE":14}},{"type":"Feature","geometry":{"type":"Point","coordinates":[-76.00331845042209,36.78325411500205]},"properties":{"OBJECTID":176,"X":12214006.1367702,"Y":3454310.04924192,"UNITDESC":"PS-602; East Pump Station C Contract","FULL_ADDRE":"1122 HUBBELL DR","COMPKEY":1839413,"UNITID":"GC0263","COMPTYPE":14}},{"type":"Feature","geometry":{"type":"Point","coordinates":[-76.08872231305433,36.80257454167546]},"properties":{"OBJECTID":177,"X":12188823.7018412,"Y":3460691.94211162,"UNITDESC":"Group Home - Gladiola Crescent","FULL_ADDRE":"1128 GLADIOLA CR","COMPKEY":1875676,"UNITID":"GC6069","COMPTYPE":14}},{"type":"Feature","geometry":{"type":"Point","coordinates":[-76.15099612737559,36.80481834009099]},"properties":{"OBJECTID":178,"X":12170576.4054517,"Y":3461048.97831935,"UNITDESC":"PS-440; West Pump Station A Contract","FULL_ADDRE":"1139 ORKNEY DR","COMPKEY":1839513,"UNITID":"GC0353","COMPTYPE":14}},{"type":"Feature","geometry":{"type":"Point","coordinates":[-76.00712725871772,36.874504569499756]},"properties":{"OBJECTID":179,"X":12212013.8841155,"Y":3487491.8864336,"UNITDESC":"PS-138; North Pump Station C Contract","FULL_ADDRE":"1140 LEE RD","COMPKEY":1839153,"UNITID":"GC0085","COMPTYPE":14}},{"type":"Feature","geometry":{"type":"Point","coordinates":[-75.98526263660479,36.801834805938114]},"properties":{"OBJECTID":180,"X":12219111.8852838,"Y":3461212.92879982,"UNITDESC":"RED WING LAKE","FULL_ADDRE":"1144 PROSPERITY RD","COMPKEY":1847105,"UNITID":"GC003","COMPTYPE":14}},{"type":"Feature","geometry":{"type":"Point","coordinates":[-76.07214065887278,36.83850202753664]},"properties":{"OBJECTID":181,"X":12193340.5778259,"Y":3473892.67903941,"UNITDESC":"PS-505; East Pump Station B Contract","FULL_ADDRE":"117 ARMON AV","COMPKEY":1853807,"UNITID":"GC1505","COMPTYPE":14}},{"type":"Feature","geometry":{"type":"Point","coordinates":[-76.00094458580845,36.82018320625439]},"properties":{"OBJECTID":182,"X":12214345.2157034,"Y":3467769.04625259,"UNITDESC":"PS-122; East Pump Station C Contract","FULL_ADDRE":"1198 BELLS RD","COMPKEY":1839142,"UNITID":"GC0073","COMPTYPE":14}},{"type":"Feature","geometry":{"type":"Point","coordinates":[-76.07726553768721,36.80029190259035]},"properties":{"OBJECTID":183,"X":12192198.2871346,"Y":3459947.01398401,"UNITDESC":"Scarborough Square East Park","FULL_ADDRE":"1198 OLD CLUBHOUSE RD","COMPKEY":1852174,"UNITID":"GC1190","COMPTYPE":14}},{"type":"Feature","geometry":{"type":"Point","coordinates":[-76.13466870360598,36.84068847008907]},"properties":{"OBJECTID":184,"X":12175027.9942986,"Y":3474223.98930742,"UNITDESC":"Garrett Drive","FULL_ADDRE":"120 GARRETT DR","COMPKEY":1842074,"UNITID":"GC0716","COMPTYPE":14}},{"type":"Feature","geometry":{"type":"Point","coordinates":[-76.17324871838504,36.80386757942106]},"properties":{"OBJECTID":185,"X":12164071.9274948,"Y":3460541.60032494,"UNITDESC":"PS-438; West Pump Station A Contract","FULL_ADDRE":"1200 KEMPSVILLE RD","COMPKEY":1839511,"UNITID":"GC0351","COMPTYPE":14}},{"type":"Feature","geometry":{"type":"Point","coordinates":[-76.0357268146204,36.8657088975906]},"properties":{"OBJECTID":186,"X":12203734.7974997,"Y":3484070.99351046,"UNITDESC":"Fire Station #08 - Old Donation (Oceana)","FULL_ADDRE":"1201 BAYNE DR","COMPKEY":1860276,"UNITID":"GC1315","COMPTYPE":14}},{"type":"Feature","geometry":{"type":"Point","coordinates":[-76.00670211124658,36.78277654605877]},"properties":{"OBJECTID":187,"X":12213020.141185,"Y":3454110.04793234,"UNITDESC":"Dunwoody Park","FULL_ADDRE":"1201 HUBBELL DR","COMPKEY":1850441,"UNITID":"GC0978","COMPTYPE":14}},{"type":"Feature","geometry":{"type":"Point","coordinates":[-76.09966136237374,36.80039352038904]},"properties":{"OBJECTID":188,"X":12185642.15324,"Y":3459816.51073038,"UNITDESC":"Rosemont Road Stormwater Facility","FULL_ADDRE":"1201 S ROSEMONT RD","COMPKEY":1864316,"UNITID":"GC3222","COMPTYPE":14}},{"type":"Feature","geometry":{"type":"Point","coordinates":[-76.0022337113603,36.83780610910919]},"properties":{"OBJECTID":189,"X":12213798.2568602,"Y":3474173.04365845,"UNITDESC":"PS-118; East Pump Station C Contract","FULL_ADDRE":"1207 SOUTHERN BL","COMPKEY":1839140,"UNITID":"GC0070","COMPTYPE":14}},{"type":"Feature","geometry":{"type":"Point","coordinates":[-76.12338699012481,36.84085660605924]},"properties":{"OBJECTID":190,"X":12178326.8573314,"Y":3474368.09388155,"UNITDESC":"PS-264; North Pump Station B Contract","FULL_ADDRE":"121 N PALM AV","COMPKEY":1839221,"UNITID":"GC0142","COMPTYPE":14}},{"type":"Feature","geometry":{"type":"Point","coordinates":[-76.03983485533044,36.87088077678494]},"properties":{"OBJECTID":191,"X":12202484.3728093,"Y":3485922.01599378,"UNITDESC":"Great Neck Farms Park","FULL_ADDRE":"1210 MOOREFIELD CT","COMPKEY":1849316,"UNITID":"GC1036","COMPTYPE":14}},{"type":"Feature","geometry":{"type":"Point","coordinates":[-76.00167026645455,36.79040313495945]},"properties":{"OBJECTID":192,"X":12214419.7774051,"Y":3456924.75445002,"UNITDESC":"Red Wing on the Park","FULL_ADDRE":"1215 EAGLEWOOD DR","COMPKEY":1851735,"UNITID":"GC1157","COMPTYPE":14}},{"type":"Feature","geometry":{"type":"Point","coordinates":[-76.01236816573088,36.7844197238426]},"properties":{"OBJECTID":193,"X":12211345.5939385,"Y":3454664.32542238,"UNITDESC":"PS-625; East Pump Station C Contract","FULL_ADDRE":"1216 PERIMETER PW","COMPKEY":1839428,"UNITID":"GC0278","COMPTYPE":14}},{"type":"Feature","geometry":{"type":"Point","coordinates":[-76.04580572166537,36.86949730968991]},"properties":{"OBJECTID":194,"X":12200751.4574222,"Y":3485373.03065619,"UNITDESC":"PS-222; North Pump Station C Contract","FULL_ADDRE":"1225 PARKSIDE PL","COMPKEY":1853761,"UNITID":"GC1222","COMPTYPE":14}},{"type":"Feature","geometry":{"type":"Point","coordinates":[-76.07954694679346,36.80095991026104]},"properties":{"OBJECTID":195,"X":12191524.2918017,"Y":3460173.01274207,"UNITDESC":"Scarborough Square Neighborhood Park","FULL_ADDRE":"1225 WARWICK DR","COMPKEY":1852170,"UNITID":"GC1188","COMPTYPE":14}},{"type":"Feature","geometry":{"type":"Point","coordinates":[-76.07903205223556,36.801401303249335]},"properties":{"OBJECTID":196,"X":12191670.8774051,"Y":3460337.52945004,"UNITDESC":"PS-548; East Pump Station B Contract","FULL_ADDRE":"1229 WARWICK DR","COMPKEY":1839564,"UNITID":"GC0388","COMPTYPE":14}},{"type":"Feature","geometry":{"type":"Point","coordinates":[-76.00448556050382,36.76754581856668]},"properties":{"OBJECTID":197,"X":12213815.6237392,"Y":3448583.86059765,"UNITDESC":"PS-609; East Pump Station C Contract","FULL_ADDRE":"1232 FAULKNER RD","COMPKEY":1839417,"UNITID":"GC0267","COMPTYPE":14}},{"type":"Feature","geometry":{"type":"Point","coordinates":[-76.18481642041839,36.79812439647115]},"properties":{"OBJECTID":198,"X":12160737.4479107,"Y":3458367.96654801,"UNITDESC":"PS-447; West Pump Station A Contract","FULL_ADDRE":"1236 BELVOIR LA","COMPKEY":1839527,"UNITID":"GC0360","COMPTYPE":14}},{"type":"Feature","geometry":{"type":"Point","coordinates":[-76.14603163916189,36.7983595505294]},"properties":{"OBJECTID":199,"X":12172088.0635272,"Y":3458734.36406504,"UNITDESC":"Indian Lakes Elementary School","FULL_ADDRE":"1240 HOMESTEAD DR","COMPKEY":1816388,"UNITID":"GC0019","COMPTYPE":14}},{"type":"Feature","geometry":{"type":"Point","coordinates":[-76.0370215618293,36.865919445200305]},"properties":{"OBJECTID":200,"X":12203354.1609046,"Y":3484137.74130078,"UNITDESC":"EMS Station #08 - Great Neck","FULL_ADDRE":"1243 BAYNE DR","COMPKEY":1841691,"UNITID":"GC0497","COMPTYPE":14}},{"type":"Feature","geometry":{"type":"Point","coordinates":[-76.03495472790506,36.86618228392664]},"properties":{"OBJECTID":201,"X":12203956.087089,"Y":3484249.18362856,"UNITDESC":"Lynnhaven Park","FULL_ADDRE":"1246 BAYNE DR","COMPKEY":1850915,"UNITID":"GC0971","COMPTYPE":14}},{"type":"Feature","geometry":{"type":"Point","coordinates":[-76.1816631388367,36.8015926120277]},"properties":{"OBJECTID":202,"X":12161629.4473103,"Y":3459652.96592461,"UNITDESC":"PS-437; West Pump Station A Contract","FULL_ADDRE":"1247 THOMPKINS LA","COMPKEY":1839510,"UNITID":"GC0350","COMPTYPE":14}},{"type":"Feature","geometry":{"type":"Point","coordinates":[-76.03495472790506,36.86618228392664]},"properties":{"OBJECTID":203,"X":12203956.087089,"Y":3484249.18362856,"UNITDESC":"Lynnhaven Middle School","FULL_ADDRE":"1250 BAYNE DR","COMPKEY":1816412,"UNITID":"GC0031","COMPTYPE":14}},{"type":"Feature","geometry":{"type":"Point","coordinates":[-76.03495472790506,36.86618228392664]},"properties":{"OBJECTID":204,"X":12203956.087089,"Y":3484249.18362856,"UNITDESC":"Library - Great Neck - Storage Building","FULL_ADDRE":"1251 BAYNE DR","COMPKEY":1860281,"UNITID":"GC1695","COMPTYPE":14}},{"type":"Feature","geometry":{"type":"Point","coordinates":[-76.00357197924976,36.83339174074416]},"properties":{"OBJECTID":205,"X":12213449.2487914,"Y":3472556.04342577,"UNITDESC":"PS-119; East Pump Station C Contract","FULL_ADDRE":"1252 BEAUTIFUL ST","COMPKEY":1853632,"UNITID":"GC1119","COMPTYPE":14}},{"type":"Feature","geometry":{"type":"Point","coordinates":[-76.04493019933496,36.86952322226468]},"properties":{"OBJECTID":206,"X":12201007.2383094,"Y":3485389.12041853,"UNITDESC":"Colonial Oaks Park","FULL_ADDRE":"1254 PARKSIDE PL","COMPKEY":1849110,"UNITID":"GC1020","COMPTYPE":14}},{"type":"Feature","geometry":{"type":"Point","coordinates":[-76.03495472790506,36.86618228392664]},"properties":{"OBJECTID":207,"X":12203956.087089,"Y":3484249.18362856,"UNITDESC":"PS-224; North Pump Station C Contract","FULL_ADDRE":"1256 BAYNE DR","COMPKEY":1839184,"UNITID":"GC0108","COMPTYPE":14}},{"type":"Feature","geometry":{"type":"Point","coordinates":[-76.10048211172634,36.798139474999]},"properties":{"OBJECTID":208,"X":12185422.7788361,"Y":3458990.00415481,"UNITDESC":"Rosemont Elementary School","FULL_ADDRE":"1257 ROSEMONT RD","COMPKEY":1849869,"UNITID":"GC0810-001","COMPTYPE":14}},{"type":"Feature","geometry":{"type":"Point","coordinates":[-76.02358761428476,36.87402607221303]},"properties":{"OBJECTID":209,"X":12207205.3612279,"Y":3487191.02584504,"UNITDESC":"PS-220; North Pump Station C Contract","FULL_ADDRE":"1264 ALANTON DR","COMPKEY":1839176,"UNITID":"GC0105","COMPTYPE":14}},{"type":"Feature","geometry":{"type":"Point","coordinates":[-76.00203981000622,36.85285704428375]},"properties":{"OBJECTID":210,"X":12213710.0002085,"Y":3479652.44211049,"UNITDESC":"PS-110; North Pump Station C Contract","FULL_ADDRE":"1275 LASKIN RD","COMPKEY":1839134,"UNITID":"GC0064","COMPTYPE":14}},{"type":"Feature","geometry":{"type":"Point","coordinates":[-76.00170971058034,36.76677243695396]},"properties":{"OBJECTID":211,"X":12214635.8891642,"Y":3448323.8860752,"UNITDESC":"Ocean Lakes East Park","FULL_ADDRE":"1276 TENNYSON RD","COMPKEY":1851261,"UNITID":"GC1091","COMPTYPE":14}},{"type":"Feature","geometry":{"type":"Point","coordinates":[-75.98444579043209,36.730836110833046]},"properties":{"OBJECTID":212,"X":12220039.6892194,"Y":3435378.9332972,"UNITDESC":"Lotus Garden Park","FULL_ADDRE":"1289 SANDBRIDGE RD","COMPKEY":1850840,"UNITID":"GC1077","COMPTYPE":14}},{"type":"Feature","geometry":{"type":"Point","coordinates":[-76.16128068394194,36.80008732076248]},"properties":{"OBJECTID":213,"X":12167608.9385272,"Y":3459252.26406504,"UNITDESC":"PS-444; West Pump Station A Contract","FULL_ADDRE":"1300 INDIAN LAKES BL","COMPKEY":1839524,"UNITID":"GC0357","COMPTYPE":14}},{"type":"Feature","geometry":{"type":"Point","coordinates":[-76.00214143012612,36.796874685363655]},"properties":{"OBJECTID":214,"X":12214219.5184251,"Y":3459276.47149904,"UNITDESC":"PS-127; East Pump Station C Contract","FULL_ADDRE":"1301 BEACONS REACH DR","COMPKEY":1839145,"UNITID":"GC0077","COMPTYPE":14}},{"type":"Feature","geometry":{"type":"Point","coordinates":[-76.07789282136864,36.87903182652863]},"properties":{"OBJECTID":215,"X":12191279.2301575,"Y":3488600.86912077,"UNITDESC":"PS-269; East Pump Station B Contract","FULL_ADDRE":"1301 SARASAN CT","COMPKEY":1839226,"UNITID":"GC0147","COMPTYPE":14}},{"type":"Feature","geometry":{"type":"Point","coordinates":[-76.18016128054747,36.88626646624226]},"properties":{"OBJECTID":216,"X":12161311.5488325,"Y":3490482.91718345,"UNITDESC":"PS-326; North Pump Station A Contract","FULL_ADDRE":"1303 DIAMOND SPRINGS RD","COMPKEY":1839452,"UNITID":"GC0293","COMPTYPE":14}},{"type":"Feature","geometry":{"type":"Point","coordinates":[-76.08838880092868,36.79612496472672]},"properties":{"OBJECTID":217,"X":12188981.2967577,"Y":3458347.01037532,"UNITDESC":"PS-549; East Pump Station B Contract","FULL_ADDRE":"1306 LYNNHAVEN PW","COMPKEY":1839388,"UNITID":"GC0241","COMPTYPE":14}},{"type":"Feature","geometry":{"type":"Point","coordinates":[-76.14471698618462,36.88460802071128]},"properties":{"OBJECTID":218,"X":12171689.5099,"Y":3490135.94216369,"UNITDESC":"PS-331; North Pump Station A Contract","FULL_ADDRE":"1310 LAKESIDE RD","COMPKEY":1839319,"UNITID":"GC0181","COMPTYPE":14}},{"type":"Feature","geometry":{"type":"Point","coordinates":[-76.15266543343041,36.882642183264586]},"properties":{"OBJECTID":219,"X":12169383.3636162,"Y":3489362.53717093,"UNITDESC":"PS-367; North Pump Station A Contract","FULL_ADDRE":"1317 LAMBETH LA","COMPKEY":1841607,"UNITID":"GC0415","COMPTYPE":14}},{"type":"Feature","geometry":{"type":"Point","coordinates":[-76.04446096614292,36.87428285031057]},"properties":{"OBJECTID":220,"X":12201099.3847704,"Y":3487125.01227872,"UNITDESC":"Laurel Cove Park","FULL_ADDRE":"1321 PARKSIDE PL","COMPKEY":1851380,"UNITID":"GC1064","COMPTYPE":14}},{"type":"Feature","geometry":{"type":"Point","coordinates":[-75.9849932507157,36.79157917049697]},"properties":{"OBJECTID":221,"X":12219290.1937109,"Y":3457482.43520805,"UNITDESC":"PS-137; East Pump Station C Contract","FULL_ADDRE":"1324 BOARDWALK WY","COMPKEY":1839152,"UNITID":"GC0084","COMPTYPE":14}},{"type":"Feature","geometry":{"type":"Point","coordinates":[-76.07230595966483,36.79681132311795]},"properties":{"OBJECTID":222,"X":12193682.5202662,"Y":3458717.50851325,"UNITDESC":"Cardinal Estates Park","FULL_ADDRE":"1324 OLD CLUBHOUSE RD","COMPKEY":1848949,"UNITID":"GC1010","COMPTYPE":14}},{"type":"Feature","geometry":{"type":"Point","coordinates":[-75.99377957818658,36.86521648299658]},"properties":{"OBJECTID":223,"X":12216006.5632745,"Y":3484214.78927878,"UNITDESC":"PS-131; North Pump Station C Contract","FULL_ADDRE":"134 PINEWOOD RD","COMPKEY":1839148,"UNITID":"GC0080","COMPTYPE":14}},{"type":"Feature","geometry":{"type":"Point","coordinates":[-76.15048151399036,36.77909611912826]},"properties":{"OBJECTID":224,"X":12170960.0787848,"Y":3451690.56154887,"UNITDESC":"PS-459; West Pump Station A Contract","FULL_ADDRE":"1354 NORTHVALE DR","COMPKEY":1839540,"UNITID":"GC0372","COMPTYPE":14}},{"type":"Feature","geometry":{"type":"Point","coordinates":[-76.12501439875479,36.88107275315453]},"properties":{"OBJECTID":225,"X":12177482.4453028,"Y":3488993.56390487,"UNITDESC":"Independence Middle School","FULL_ADDRE":"1370 DUNSTAN LA","COMPKEY":1816387,"UNITID":"GC0018","COMPTYPE":14}},{"type":"Feature","geometry":{"type":"Point","coordinates":[-76.00721441506322,36.84705311244659]},"properties":{"OBJECTID":226,"X":12212252.283752,"Y":3477500.03977497,"UNITDESC":"PS-112; East Pump Station C Contract","FULL_ADDRE":"1377 OLD VIRGINIA BEACH RD","COMPKEY":1839136,"UNITID":"GC0066","COMPTYPE":14}},{"type":"Feature","geometry":{"type":"Point","coordinates":[-76.06064578595446,36.793078758157016]},"properties":{"OBJECTID":227,"X":12197130.6670054,"Y":3457446.99286,"UNITDESC":"PS-583; East Pump Station C Contract","FULL_ADDRE":"1377 TAYLOR FARM RD","COMPKEY":1839407,"UNITID":"GC0260","COMPTYPE":14}},{"type":"Feature","geometry":{"type":"Point","coordinates":[-76.17741799724799,36.79979365175191]},"properties":{"OBJECTID":228,"X":12162888.1092663,"Y":3459028.73874868,"UNITDESC":"PS-443; West Pump Station A Contract","FULL_ADDRE":"1389 FORDHAM DR","COMPKEY":1839523,"UNITID":"GC0356","COMPTYPE":14}},{"type":"Feature","geometry":{"type":"Point","coordinates":[-76.15344669643639,36.78941259694219]},"properties":{"OBJECTID":229,"X":12169998.5678722,"Y":3455423.8750796,"UNITDESC":"PS-452; West Pump Station A Contract","FULL_ADDRE":"1397 BRIDLE CREEK BL","COMPKEY":1839533,"UNITID":"GC0365","COMPTYPE":14}},{"type":"Feature","geometry":{"type":"Point","coordinates":[-75.98895172642251,36.790613138133196]},"properties":{"OBJECTID":230,"X":12218140.8132153,"Y":3457099.98906203,"UNITDESC":"Red Wing Park","FULL_ADDRE":"1398 GENERAL BOOTH BL","COMPKEY":1851785,"UNITID":"GC0987","COMPTYPE":14}},{"type":"Feature","geometry":{"type":"Point","coordinates":[-76.19048941977815,36.89443818444793]},"properties":{"OBJECTID":231,"X":12158219.0992624,"Y":3493383.17285,"UNITDESC":"PS-316; North Pump Station A Contract","FULL_ADDRE":"1399 AIR RAIL AV","COMPKEY":1839449,"UNITID":"GC0290","COMPTYPE":14}},{"type":"Feature","geometry":{"type":"Point","coordinates":[-76.02060194755533,36.764846479102175]},"properties":{"OBJECTID":232,"X":12209122.2765997,"Y":3447477.03637042,"UNITDESC":"Recreation - Princess Anne Center","FULL_ADDRE":"1400 NIMMO PW","COMPKEY":1873946,"UNITID":"GC6746","COMPTYPE":14}},{"type":"Feature","geometry":{"type":"Point","coordinates":[-75.98343035998775,36.84118554460319]},"properties":{"OBJECTID":233,"X":12219266.2829997,"Y":3475549.13233045,"UNITDESC":"Resort Area Landscaping Office","FULL_ADDRE":"1401 PARKS AV","COMPKEY":1868869,"UNITID":"GC6710","COMPTYPE":14}},{"type":"Feature","geometry":{"type":"Point","coordinates":[-75.99319239260447,36.83553075767252]},"properties":{"OBJECTID":234,"X":12216465.2462441,"Y":3473415.04068124,"UNITDESC":"Salt Marsh Point Park","FULL_ADDRE":"141 MARSHVIEW DR","COMPKEY":1852111,"UNITID":"GC1177","COMPTYPE":14}},{"type":"Feature","geometry":{"type":"Point","coordinates":[-76.00160341023782,36.836268220118534]},"properties":{"OBJECTID":235,"X":12213997.4652175,"Y":3473618.19850454,"UNITDESC":"Recreation - Seatack Center","FULL_ADDRE":"141 S BIRDNECK RD","COMPKEY":1870780,"UNITID":"GC6706","COMPTYPE":14}},{"type":"Feature","geometry":{"type":"Point","coordinates":[-76.01021978544011,36.85056826573909]},"properties":{"OBJECTID":236,"X":12211339.4320585,"Y":3478756.20376,"UNITDESC":"Laskin Road Annex","FULL_ADDRE":"1413 LASKIN RD","COMPKEY":1861171,"UNITID":"GC1262","COMPTYPE":14}},{"type":"Feature","geometry":{"type":"Point","coordinates":[-76.1333519395878,36.88919598950775]},"properties":{"OBJECTID":237,"X":12174970.5048615,"Y":3491888.94774989,"UNITDESC":"PS-322; North Pump Station A Contract","FULL_ADDRE":"1430 DUNSTAN LA","COMPKEY":1839314,"UNITID":"GC0176","COMPTYPE":14}},{"type":"Feature","geometry":{"type":"Point","coordinates":[-76.03147391248596,36.88305509752378]},"properties":{"OBJECTID":238,"X":12204813.3955049,"Y":3490416.82436864,"UNITDESC":"Alanton Elementary School","FULL_ADDRE":"1441 STEPHENS RD","COMPKEY":1816355,"UNITID":"GC0002","COMPTYPE":14}},{"type":"Feature","geometry":{"type":"Point","coordinates":[-76.13481407437516,36.88980239572184]},"properties":{"OBJECTID":239,"X":12174537.5072453,"Y":3492098.94646113,"UNITDESC":"Thoroughgood Elementary School","FULL_ADDRE":"1444 DUNSTAN LA","COMPKEY":1816450,"UNITID":"GC0052","COMPTYPE":14}},{"type":"Feature","geometry":{"type":"Point","coordinates":[-76.02191269735269,36.76436773184001]},"properties":{"OBJECTID":240,"X":12208743.0265997,"Y":3447292.71137041,"UNITDESC":"Princess Anne Library","FULL_ADDRE":"1444 NIMMO PW","COMPKEY":1853525,"UNITID":"GC1955-001","COMPTYPE":14}},{"type":"Feature","geometry":{"type":"Point","coordinates":[-76.11216751911304,36.83670989267182]},"properties":{"OBJECTID":241,"X":12181647.2188509,"Y":3472941.66351673,"UNITDESC":"Group Home - S. Kentucky (24 Hour Medical)","FULL_ADDRE":"145 S KENTUCKY AV","COMPKEY":1875544,"UNITID":"GC6057","COMPTYPE":14}},{"type":"Feature","geometry":{"type":"Point","coordinates":[-76.01856430258962,36.884676752275425]},"properties":{"OBJECTID":242,"X":12208572.2984479,"Y":3491106.01745365,"UNITDESC":"PS-284; North Pump Station C Contract","FULL_ADDRE":"1454 N WOODHOUSE RD","COMPKEY":1839242,"UNITID":"GC0161","COMPTYPE":14}},{"type":"Feature","geometry":{"type":"Point","coordinates":[-76.1518168174394,36.89118740609567]},"properties":{"OBJECTID":243,"X":12169554.1063823,"Y":3492478.9340088,"UNITDESC":"PS-318; North Pump Station A Contract","FULL_ADDRE":"1455 MAHARIS RD","COMPKEY":1839451,"UNITID":"GC0292","COMPTYPE":14}},{"type":"Feature","geometry":{"type":"Point","coordinates":[-76.02277765010548,36.76386160976371]},"properties":{"OBJECTID":244,"X":12208494.5771252,"Y":3447101.85457359,"UNITDESC":"PS-624; East Pump Station C Contract","FULL_ADDRE":"1456 NIMMO PW","COMPKEY":1853614,"UNITID":"GC1624","COMPTYPE":14}},{"type":"Feature","geometry":{"type":"Point","coordinates":[-76.02343670360524,36.763782012281325]},"properties":{"OBJECTID":245,"X":12208302.3451004,"Y":3447067.81946423,"UNITDESC":"Fire Station #21 - General Booth","FULL_ADDRE":"1468 NIMMO PW","COMPKEY":1853564,"UNITID":"GC1954-001","COMPTYPE":14}},{"type":"Feature","geometry":{"type":"Point","coordinates":[-76.01158932278629,36.849896204013106]},"properties":{"OBJECTID":246,"X":12210945.2954403,"Y":3478501.03687544,"UNITDESC":"PS-108; North Pump Station C Contract","FULL_ADDRE":"1486 REYNARD DR","COMPKEY":1839133,"UNITID":"GC0063","COMPTYPE":14}},{"type":"Feature","geometry":{"type":"Point","coordinates":[-75.9836883884767,36.783748663148245]},"properties":{"OBJECTID":247,"X":12219748.1391642,"Y":3454642.6610752,"UNITDESC":"Pine Meadows Place Park","FULL_ADDRE":"1497 GALVANI DR","COMPKEY":1851531,"UNITID":"GC1100","COMPTYPE":14}},{"type":"Feature","geometry":{"type":"Point","coordinates":[-76.09918438570398,36.7959652849387]},"properties":{"OBJECTID":248,"X":12185822.7605997,"Y":3458208.33044043,"UNITDESC":"Green Run Park","FULL_ADDRE":"1500 LYNNHAVEN PW","COMPKEY":1849383,"UNITID":"GC1039","COMPTYPE":14}},{"type":"Feature","geometry":{"type":"Point","coordinates":[-75.97993086500064,36.84237062193141]},"properties":{"OBJECTID":249,"X":12220278.4767216,"Y":3476007.76227133,"UNITDESC":"W.T. Cooke Elementary School","FULL_ADDRE":"1501 MEDITERRANEAN AV","COMPKEY":1816372,"UNITID":"GC0011","COMPTYPE":14}},{"type":"Feature","geometry":{"type":"Point","coordinates":[-76.0972613064797,36.790720362079355]},"properties":{"OBJECTID":250,"X":12186434.2713929,"Y":3456313.67748378,"UNITDESC":"South Rosemont Youth Library","FULL_ADDRE":"1503 COMPETITOR CT","COMPKEY":1850328,"UNITID":"GC1268","COMPTYPE":14}},{"type":"Feature","geometry":{"type":"Point","coordinates":[-76.09773771271927,36.79078867233142]},"properties":{"OBJECTID":251,"X":12186294.177895,"Y":3456334.99022764,"UNITDESC":"Boys and Girls Club (Rosemont)","FULL_ADDRE":"1505 COMPETITOR CT","COMPKEY":1863915,"UNITID":"GC1299","COMPTYPE":14}},{"type":"Feature","geometry":{"type":"Point","coordinates":[-76.09773771271927,36.79078867233142]},"properties":{"OBJECTID":252,"X":12186294.177895,"Y":3456334.99022764,"UNITDESC":"Boys and Girls Club Field","FULL_ADDRE":"1505 COMPETITOR CT","COMPKEY":1887603,"UNITID":"GC2154","COMPTYPE":14}},{"type":"Feature","geometry":{"type":"Point","coordinates":[-76.09582364449562,36.790308967684744]},"properties":{"OBJECTID":253,"X":12186858.9388849,"Y":3456174.66073409,"UNITDESC":"Buckner Farms Park","FULL_ADDRE":"1508 COMPETITOR CT","COMPKEY":1853916,"UNITID":"GC1243","COMPTYPE":14}},{"type":"Feature","geometry":{"type":"Point","coordinates":[-76.12417585647134,36.79386724364367]},"properties":{"OBJECTID":254,"X":12178526.5884868,"Y":3457259.59556333,"UNITDESC":"PS-580; West Pump Station A Contract","FULL_ADDRE":"1508 SALEM RD","COMPKEY":1853854,"UNITID":"GC1580","COMPTYPE":14}},{"type":"Feature","geometry":{"type":"Point","coordinates":[-76.11157095781432,36.794412016762685]},"properties":{"OBJECTID":255,"X":12182211.3297591,"Y":3457551.00083589,"UNITDESC":"PS-553; East Pump Station B Contract","FULL_ADDRE":"1525 AMBERLEY FOREST RD","COMPKEY":1839391,"UNITID":"GC0244","COMPTYPE":14}},{"type":"Feature","geometry":{"type":"Point","coordinates":[-76.1259054673295,36.792199295096644]},"properties":{"OBJECTID":256,"X":12178035.5589566,"Y":3456639.77335194,"UNITDESC":"Salem Woods Park","FULL_ADDRE":"1525 SALEM RD","COMPKEY":1852084,"UNITID":"GC0981","COMPTYPE":14}},{"type":"Feature","geometry":{"type":"Point","coordinates":[-76.18563152655436,36.900342274990365]},"properties":{"OBJECTID":257,"X":12159586.5712746,"Y":3495566.9050303,"UNITDESC":"PS-313; North Pump Station A Contract","FULL_ADDRE":"1536 AIR RAIL AV","COMPKEY":1839582,"UNITID":"GC0404","COMPTYPE":14}},{"type":"Feature","geometry":{"type":"Point","coordinates":[-76.10284998098375,36.837215477486986]},"properties":{"OBJECTID":258,"X":12184368.4674553,"Y":3473194.77844312,"UNITDESC":"PS-503; North Pump Station B Contract","FULL_ADDRE":"156 BUTTERNUT LA","COMPKEY":1839351,"UNITID":"GC0204","COMPTYPE":14}},{"type":"Feature","geometry":{"type":"Point","coordinates":[-76.07842311664379,36.83688707331179]},"properties":{"OBJECTID":259,"X":12191517.7336833,"Y":3473257.67551683,"UNITDESC":"Lynnhaven Woods Park","FULL_ADDRE":"156 GOLDEN MAPLE DR","COMPKEY":1850959,"UNITID":"GC1080","COMPTYPE":14}},{"type":"Feature","geometry":{"type":"Point","coordinates":[-76.00943738067542,36.78926419214589]},"properties":{"OBJECTID":260,"X":12212157.0598497,"Y":3456450.13598909,"UNITDESC":"School Plant/Supply","FULL_ADDRE":"1568 CORPORATE LANDING PW","COMPKEY":1873947,"UNITID":"GC6747","COMPTYPE":14}},{"type":"Feature","geometry":{"type":"Point","coordinates":[-75.98356440659445,36.781875307697355]},"properties":{"OBJECTID":261,"X":12219802.6141642,"Y":3453961.81107519,"UNITDESC":"Pine Meadows West Park","FULL_ADDRE":"1577 BUNSEN DR","COMPKEY":1851554,"UNITID":"GC1099","COMPTYPE":14}},{"type":"Feature","geometry":{"type":"Point","coordinates":[-76.01699833064025,36.839875062512945]},"properties":{"OBJECTID":262,"X":12209459.1141997,"Y":3474812.08609047,"UNITDESC":"PS-450; West Pump Station A Contract","FULL_ADDRE":"1577 INDIAN LAKES BL","COMPKEY":1839531,"UNITID":"GC0363","COMPTYPE":14}},{"type":"Feature","geometry":{"type":"Point","coordinates":[-75.98344421380607,36.781299479536]},"properties":{"OBJECTID":263,"X":12219843.3897619,"Y":3453753.17356971,"UNITDESC":"PS-622; East Pump Station C Contract","FULL_ADDRE":"1581 BUNSEN DR","COMPKEY":1839426,"UNITID":"GC0276","COMPTYPE":14}},{"type":"Feature","geometry":{"type":"Point","coordinates":[-76.00426769748786,36.60447859336568]},"properties":{"OBJECTID":264,"X":12215448.8028419,"Y":3389235.86449546,"UNITDESC":"Creeds Ath. Airfield Park","FULL_ADDRE":"1585 CAMPBELLS LANDING RD","COMPKEY":1849163,"UNITID":"GC1024","COMPTYPE":14}},{"type":"Feature","geometry":{"type":"Point","coordinates":[-76.00426769748786,36.60447859336568]},"properties":{"OBJECTID":265,"X":12215448.8028419,"Y":3389235.86449546,"UNITDESC":"Creeds Police Training Facility","FULL_ADDRE":"1585 CAMPBELLS LANDING RD","COMPKEY":1873989,"UNITID":"GC6764","COMPTYPE":14}},{"type":"Feature","geometry":{"type":"Point","coordinates":[-76.00715621680922,36.78787639875228]},"properties":{"OBJECTID":266,"X":12212838.1731767,"Y":3455962.66711953,"UNITDESC":"Corporate Landing Elementary School","FULL_ADDRE":"1590 CORPORATE LANDING PW","COMPKEY":1862162,"UNITID":"GC141-001","COMPTYPE":14}},{"type":"Feature","geometry":{"type":"Point","coordinates":[-76.01154213787767,36.78743526307979]},"properties":{"OBJECTID":267,"X":12211558.4778356,"Y":3455768.2304718,"UNITDESC":"Corporate Landing Middle School","FULL_ADDRE":"1597 CORPORATE LANDING PW","COMPKEY":1849861,"UNITID":"GC0098-002","COMPTYPE":14}},{"type":"Feature","geometry":{"type":"Point","coordinates":[-76.10626718130769,36.80149548853787]},"properties":{"OBJECTID":268,"X":12183698.4720367,"Y":3460168.48632982,"UNITDESC":"PS-546; East Pump Station B Contract","FULL_ADDRE":"1599 DAHLIA DR","COMPKEY":1839386,"UNITID":"GC0239","COMPTYPE":14}},{"type":"Feature","geometry":{"type":"Point","coordinates":[-76.14991787594681,36.84183822255887]},"properties":{"OBJECTID":269,"X":12170556.4967419,"Y":3474531.02937566,"UNITDESC":"PS-357; North Pump Station B Contract","FULL_ADDRE":"160 OPAL AV","COMPKEY":1839329,"UNITID":"GC0191","COMPTYPE":14}},{"type":"Feature","geometry":{"type":"Point","coordinates":[-76.1041439673196,36.79495850023427]},"properties":{"OBJECTID":270,"X":12184380.319134,"Y":3457805.00387151,"UNITDESC":"Fire Station #18 - Green Run","FULL_ADDRE":"1601 LYNNHAVEN PW","COMPKEY":1873943,"UNITID":"GC6743","COMPTYPE":14}},{"type":"Feature","geometry":{"type":"Point","coordinates":[-75.97993686215347,36.778513498049286]},"properties":{"OBJECTID":271,"X":12220897.2819053,"Y":3452766.59981226,"UNITDESC":"PS-604; East Pump Station C Contract","FULL_ADDRE":"1610 SWORD DANCER DR","COMPKEY":1853626,"UNITID":"GC1604","COMPTYPE":14}},{"type":"Feature","geometry":{"type":"Point","coordinates":[-76.01839983812908,36.83964902484116]},"properties":{"OBJECTID":272,"X":12209051.2819536,"Y":3474719.03448267,"UNITDESC":"Oceana Bus Garage","FULL_ADDRE":"1612 NEW YORK AV","COMPKEY":1873948,"UNITID":"GC6748","COMPTYPE":14}},{"type":"Feature","geometry":{"type":"Point","coordinates":[-75.99157094519474,36.78533519675752]},"properties":{"OBJECTID":273,"X":12217425.152424,"Y":3455158.66184765,"UNITDESC":"Ocean Lakes Elementary","FULL_ADDRE":"1616 UPTON DR","COMPKEY":1862167,"UNITID":"GC088-001","COMPTYPE":14}},{"type":"Feature","geometry":{"type":"Point","coordinates":[-76.12527094861674,36.89220355471203]},"properties":{"OBJECTID":274,"X":12177305.5012627,"Y":3493042.95200069,"UNITDESC":"PS-320; North Pump Station A Contract","FULL_ADDRE":"1619 WHITETHORNE RD","COMPKEY":1839312,"UNITID":"GC0174","COMPTYPE":14}},{"type":"Feature","geometry":{"type":"Point","coordinates":[-76.02399040538344,36.857053700756374]},"properties":{"OBJECTID":275,"X":12207249.6359043,"Y":3481010.67844535,"UNITDESC":"Southall Quarter Park","FULL_ADDRE":"1625 SOUTHALL DR","COMPKEY":1852220,"UNITID":"GC1196","COMPTYPE":14}},{"type":"Feature","geometry":{"type":"Point","coordinates":[-76.11311402811384,36.893893660106215]},"properties":{"OBJECTID":276,"X":12180843.9617025,"Y":3493747.746855,"UNITDESC":"Adam Thoroughgood House","FULL_ADDRE":"1636 PARISH RD","COMPKEY":1853518,"UNITID":"GC1966-001","COMPTYPE":14}},{"type":"Feature","geometry":{"type":"Point","coordinates":[-76.17811165744577,36.78367229007856]},"properties":{"OBJECTID":277,"X":12162829.4197383,"Y":3453155.97791322,"UNITDESC":"PS-456; West Pump Station A Contract","FULL_ADDRE":"1649 WAFF RD","COMPKEY":1839536,"UNITID":"GC0368","COMPTYPE":14}},{"type":"Feature","geometry":{"type":"Point","coordinates":[-76.1828332259353,36.7846420503873]},"properties":{"OBJECTID":278,"X":12161438.4285,"Y":3453474.97540296,"UNITDESC":"Tallwood High School","FULL_ADDRE":"1668 KEMPSVILLE RD","COMPKEY":1816443,"UNITID":"GC0049","COMPTYPE":14}},{"type":"Feature","geometry":{"type":"Point","coordinates":[-76.0654291208063,36.77488959535631]},"properties":{"OBJECTID":279,"X":12195901.2414583,"Y":3450790.64641313,"UNITDESC":"Holland Pines West Park","FULL_ADDRE":"1669 CHESTWOOD DR","COMPKEY":1873945,"UNITID":"GC6745","COMPTYPE":14}},{"type":"Feature","geometry":{"type":"Point","coordinates":[-76.12781686037023,36.784677052508705]},"properties":{"OBJECTID":280,"X":12177544.8463266,"Y":3453887.83622876,"UNITDESC":"Bellamy Plantation Park","FULL_ADDRE":"1680 GREY FRIARS CH","COMPKEY":1848548,"UNITID":"GC0994","COMPTYPE":14}},{"type":"Feature","geometry":{"type":"Point","coordinates":[-76.11111849167706,36.83613719016134]},"properties":{"OBJECTID":281,"X":12181959.3965474,"Y":3472740.98432242,"UNITDESC":"Thalia Trace Park","FULL_ADDRE":"169 THALIA TR","COMPKEY":1852428,"UNITID":"GC1228","COMPTYPE":14}},{"type":"Feature","geometry":{"type":"Point","coordinates":[-76.11059414504574,36.80563681783976]},"properties":{"OBJECTID":282,"X":12182393.8364395,"Y":3461643.70678294,"UNITDESC":"Green Run High School","FULL_ADDRE":"1700 DAHLIA DR","COMPKEY":1849795,"UNITID":"GC0001-001","COMPTYPE":14}},{"type":"Feature","geometry":{"type":"Point","coordinates":[-76.0537264406133,36.76687819096974]},"properties":{"OBJECTID":283,"X":12199403.2764129,"Y":3447963.39288595,"UNITDESC":"Holland Woods Park","FULL_ADDRE":"1700 HAMMERSTONE CT","COMPKEY":1849484,"UNITID":"GC1045","COMPTYPE":14}},{"type":"Feature","geometry":{"type":"Point","coordinates":[-76.19356302977727,36.7934858516697]},"properties":{"OBJECTID":284,"X":12158218.4559591,"Y":3456616.96549435,"UNITDESC":"Brandon Middle School","FULL_ADDRE":"1700 POPE ST","COMPKEY":1816365,"UNITID":"GC0007","COMPTYPE":14}},{"type":"Feature","geometry":{"type":"Point","coordinates":[-76.14744781703763,36.89861097167472]},"properties":{"OBJECTID":285,"X":12170764.0426,"Y":3495212.71110894,"UNITDESC":"Shelton Park Elementary School","FULL_ADDRE":"1700 SHELTON RD","COMPKEY":1816441,"UNITID":"GC0047","COMPTYPE":14}},{"type":"Feature","geometry":{"type":"Point","coordinates":[-75.9740245399239,36.845549810755124]},"properties":{"OBJECTID":286,"X":12221975.2617526,"Y":3477211.02895258,"UNITDESC":"17th Street Park","FULL_ADDRE":"1701 ATLANTIC AV","COMPKEY":1850363,"UNITID":"GC1264","COMPTYPE":14}},{"type":"Feature","geometry":{"type":"Point","coordinates":[-76.06118657445045,36.774512414699736]},"properties":{"OBJECTID":287,"X":12197146.9766179,"Y":3450685.43636435,"UNITDESC":"PS-576; East Pump Station C Contract","FULL_ADDRE":"1701 CHESTWOOD DR","COMPKEY":1839403,"UNITID":"GC0256","COMPTYPE":14}},{"type":"Feature","geometry":{"type":"Point","coordinates":[-76.14017542211171,36.897336579335445]},"properties":{"OBJECTID":288,"X":12172901.5236002,"Y":3494801.93915759,"UNITDESC":"Hermitage Elementary School","FULL_ADDRE":"1701 PLEASURE HOUSE RD","COMPKEY":1816384,"UNITID":"GC0017","COMPTYPE":14}},{"type":"Feature","geometry":{"type":"Point","coordinates":[-76.04952780929844,36.76416545842812]},"properties":{"OBJECTID":289,"X":12200658.3666723,"Y":3447007.95421859,"UNITDESC":"Rolling Woods Park","FULL_ADDRE":"1704 PRODAN LA","COMPKEY":1851803,"UNITID":"GC1232","COMPTYPE":14}},{"type":"Feature","geometry":{"type":"Point","coordinates":[-76.13290813500652,36.89701072445004]},"properties":{"OBJECTID":290,"X":12175028.9203028,"Y":3494736.53506368,"UNITDESC":"PS-319; North Pump Station A Contract","FULL_ADDRE":"1710 MAYCRAFT RD","COMPKEY":1839311,"UNITID":"GC0173","COMPTYPE":14}},{"type":"Feature","geometry":{"type":"Point","coordinates":[-76.11277232425111,36.782718417819744]},"properties":{"OBJECTID":291,"X":12181967.3128058,"Y":3453286.00504528,"UNITDESC":"Salem Village Park","FULL_ADDRE":"1712 MOONSTONE DR","COMPKEY":1852058,"UNITID":"GC1175","COMPTYPE":14}},{"type":"Feature","geometry":{"type":"Point","coordinates":[-76.03081481317211,36.77620246374858]},"properties":{"OBJECTID":292,"X":12206023.5266179,"Y":3451531.76136433,"UNITDESC":"PS-643; East Pump Station C Contract","FULL_ADDRE":"1712 MOUNT AIRY CT","COMPKEY":1841680,"UNITID":"GC0489","COMPTYPE":14}},{"type":"Feature","geometry":{"type":"Point","coordinates":[-76.1282754988318,36.7829754464244]},"properties":{"OBJECTID":293,"X":12177426.1382917,"Y":3453265.12863472,"UNITDESC":"Rosemont Forest Elementary School","FULL_ADDRE":"1716 GREY FRIARS CH","COMPKEY":1816436,"UNITID":"GC0044","COMPTYPE":14}},{"type":"Feature","geometry":{"type":"Point","coordinates":[-76.17772096395902,36.77948071616134]},"properties":{"OBJECTID":294,"X":12162981.3397804,"Y":3451633.16593108,"UNITDESC":"Brigadoon Woods Park","FULL_ADDRE":"1717 ASHTON DR","COMPKEY":1848869,"UNITID":"GC1005","COMPTYPE":14}},{"type":"Feature","geometry":{"type":"Point","coordinates":[-75.9864963774261,36.77667997148287]},"properties":{"OBJECTID":295,"X":12218994.6076129,"Y":3452048.06641328,"UNITDESC":"Box Elder Arch Park","FULL_ADDRE":"1765 BOX ELDER AR","COMPKEY":1848760,"UNITID":"GC1002","COMPTYPE":14}},{"type":"Feature","geometry":{"type":"Point","coordinates":[-76.15357972255693,36.7831403629515]},"properties":{"OBJECTID":296,"X":12170016.3794375,"Y":3453139.9882421,"UNITDESC":"PS-458; West Pump Station A Contract","FULL_ADDRE":"1771 GRAVENHURST DR","COMPKEY":1839542,"UNITID":"GC0371","COMPTYPE":14}},{"type":"Feature","geometry":{"type":"Point","coordinates":[-76.17503057615842,36.76868484308056]},"properties":{"OBJECTID":297,"X":12163865.8359284,"Y":3447723.13772133,"UNITDESC":"PS-473; West Pump Station A Contract","FULL_ADDRE":"1773 HEALD WY","COMPKEY":1853852,"UNITID":"GC1473","COMPTYPE":14}},{"type":"Feature","geometry":{"type":"Point","coordinates":[-76.08511165334743,36.78057387781597]},"properties":{"OBJECTID":298,"X":12190085.3793525,"Y":3452711.47761827,"UNITDESC":"Brigands Quay Park","FULL_ADDRE":"1777 BRIGANDS WY","COMPKEY":1853915,"UNITID":"GC1044","COMPTYPE":14}},{"type":"Feature","geometry":{"type":"Point","coordinates":[-75.99402570489632,36.775439075359635]},"properties":{"OBJECTID":299,"X":12216802.1611766,"Y":3451537.81494306,"UNITDESC":"PS-605; East Pump Station C Contract","FULL_ADDRE":"1793 WELLSFORD DRIVE","COMPKEY":1839415,"UNITID":"GC0265","COMPTYPE":14}},{"type":"Feature","geometry":{"type":"Point","coordinates":[-76.02090293707442,36.871385614622916]},"properties":{"OBJECTID":300,"X":12208015.6239774,"Y":3486250.6153402,"UNITDESC":"PS-221; North Pump Station C Contract","FULL_ADDRE":"1812 EDEN WY","COMPKEY":1839182,"UNITID":"GC0106","COMPTYPE":14}},{"type":"Feature","geometry":{"type":"Point","coordinates":[-76.0274788349229,36.84015708923489]},"properties":{"OBJECTID":301,"X":12206390.4670954,"Y":3474834.24339598,"UNITDESC":"Oceana Village Park","FULL_ADDRE":"1813 S STREAMLINE DR","COMPKEY":1853982,"UNITID":"GC1094","COMPTYPE":14}},{"type":"Feature","geometry":{"type":"Point","coordinates":[-76.02736715906171,36.83901408321141]},"properties":{"OBJECTID":302,"X":12206434.0351883,"Y":3474419.09091511,"UNITDESC":"PS-262; East Pump Station C Contract","FULL_ADDRE":"1817 S STREAMLINE DR","COMPKEY":1839219,"UNITID":"GC0140","COMPTYPE":14}},{"type":"Feature","geometry":{"type":"Point","coordinates":[-76.1782385004622,36.77033873971427]},"properties":{"OBJECTID":303,"X":12162911.6647804,"Y":3448301.99093109,"UNITDESC":"PS-471; West Pump Station A Contract","FULL_ADDRE":"1825 HEALD WY","COMPKEY":1840989,"UNITID":"GC0381","COMPTYPE":14}},{"type":"Feature","geometry":{"type":"Point","coordinates":[-76.13247462871163,36.78554085398505]},"properties":{"OBJECTID":304,"X":12176173.3489251,"Y":3454167.9957525,"UNITDESC":"PS-557; West Pump Station B Contract","FULL_ADDRE":"1827 GREY FRIARS CH","COMPKEY":1839567,"UNITID":"GC0390","COMPTYPE":14}},{"type":"Feature","geometry":{"type":"Point","coordinates":[-76.1355677114912,36.78382042151807]},"properties":{"OBJECTID":305,"X":12175283.5125688,"Y":3453519.1098173,"UNITDESC":"Bellamy Plantation East Park","FULL_ADDRE":"1833 BURWILLOW DR","COMPKEY":1848434,"UNITID":"GC0988","COMPTYPE":14}},{"type":"Feature","geometry":{"type":"Point","coordinates":[-76.07473308359502,36.77626475726411]},"properties":{"OBJECTID":306,"X":12193164.2394449,"Y":3451221.02242435,"UNITDESC":"PS-562; East Pump Station C Contract","FULL_ADDRE":"1834 BLOOMFIELD DR","COMPKEY":1839398,"UNITID":"GC0251","COMPTYPE":14}},{"type":"Feature","geometry":{"type":"Point","coordinates":[-76.15225106753931,36.78028005485651]},"properties":{"OBJECTID":307,"X":12170431.2635272,"Y":3452108.58906506,"UNITDESC":"Rosemont Forest West Park","FULL_ADDRE":"1845 GRAVENHURST DR","COMPKEY":1851862,"UNITID":"GC1170","COMPTYPE":14}},{"type":"Feature","geometry":{"type":"Point","coordinates":[-76.05455015440636,36.7740827984098]},"properties":{"OBJECTID":308,"X":12199094.1324751,"Y":3450579.34971689,"UNITDESC":"PS-601; East Pump Station C Contract","FULL_ADDRE":"1847 SLALOM DR","COMPKEY":1839412,"UNITID":"GC0262","COMPTYPE":14}},{"type":"Feature","geometry":{"type":"Point","coordinates":[-76.0100008857683,36.69092219821194]},"properties":{"OBJECTID":309,"X":12212936.3870114,"Y":3420653.39771072,"UNITDESC":"Pungo Highway Yard (Mosquito Control)","FULL_ADDRE":"1848 PLEASANT RIDGE RD","COMPKEY":1853534,"UNITID":"GC1953-001","COMPTYPE":14}},{"type":"Feature","geometry":{"type":"Point","coordinates":[-76.0100008857683,36.69092219821194]},"properties":{"OBJECTID":310,"X":12212936.3870114,"Y":3420653.39771072,"UNITDESC":"Pungo Highway Yard (Mosquito Control)","FULL_ADDRE":"1848 PLEASANT RIDGE RD","COMPKEY":1853536,"UNITID":"GC1953","COMPTYPE":14}},{"type":"Feature","geometry":{"type":"Point","coordinates":[-76.00034280170468,36.74785844544648]},"properties":{"OBJECTID":311,"X":12215218.4634451,"Y":3441450.60108715,"UNITDESC":"Red Mill Elementary School","FULL_ADDRE":"1860 SANDBRIDGE RD","COMPKEY":1849856,"UNITID":"GC0090-001","COMPTYPE":14}},{"type":"Feature","geometry":{"type":"Point","coordinates":[-76.02589005025688,36.87135573795129]},"properties":{"OBJECTID":312,"X":12206557.5881708,"Y":3486201.47481898,"UNITDESC":"Brighton on the Bay/Linkhorn Cove Park","FULL_ADDRE":"1868 EDEN WY","COMPKEY":1848895,"UNITID":"GC1006","COMPTYPE":14}},{"type":"Feature","geometry":{"type":"Point","coordinates":[-76.03094288328722,36.86376216427343]},"properties":{"OBJECTID":313,"X":12205152.3481185,"Y":3483399.02300618,"UNITDESC":"PS-230; North Pump Station C Contract","FULL_ADDRE":"1869 FIRST GENERAL PW","COMPKEY":1839192,"UNITID":"GC0114","COMPTYPE":14}},{"type":"Feature","geometry":{"type":"Point","coordinates":[-75.97665653004452,36.84669170548533]},"properties":{"OBJECTID":314,"X":12221194.2580078,"Y":3477606.03231896,"UNITDESC":"18th and 19th Street Parking Lot","FULL_ADDRE":"1880 PACIFIC AV and 1900 PACIFIC AV","COMPKEY":1868550,"UNITID":"GC6697","COMPTYPE":14}},{"type":"Feature","geometry":{"type":"Point","coordinates":[-76.03406129316787,36.77298455545171]},"properties":{"OBJECTID":315,"X":12205103.6045108,"Y":3450335.71897659,"UNITDESC":"Pine Ridge Park","FULL_ADDRE":"1900 PINEY WOODS LA","COMPKEY":1851576,"UNITID":"GC1101","COMPTYPE":14}},{"type":"Feature","geometry":{"type":"Point","coordinates":[-76.00371085160617,36.74859047788682]},"properties":{"OBJECTID":316,"X":12214224.9407998,"Y":3441690.92104423,"UNITDESC":"Red Mill Farms Park","FULL_ADDRE":"1900 SANDBRIDGE RD","COMPKEY":1853891,"UNITID":"GC0982","COMPTYPE":14}},{"type":"Feature","geometry":{"type":"Point","coordinates":[-76.12148331361237,36.7717025067562]},"properties":{"OBJECTID":317,"X":12179518.0619406,"Y":3449212.16687106,"UNITDESC":"Salem Lakes South Park","FULL_ADDRE":"1900 STILLWOOD LA","COMPKEY":1851945,"UNITID":"GC1173","COMPTYPE":14}},{"type":"Feature","geometry":{"type":"Point","coordinates":[-76.05954961762733,36.8998482116139]},"properties":{"OBJECTID":318,"X":12196446.7324222,"Y":3496315.4306562,"UNITDESC":"Great Neck Water Tank","FULL_ADDRE":"1904 THOMAS BISHOP LA","COMPKEY":1856898,"UNITID":"GC1588","COMPTYPE":14}},{"type":"Feature","geometry":{"type":"Point","coordinates":[-76.00463684667915,36.74291996836379]},"properties":{"OBJECTID":319,"X":12214008.2922843,"Y":3439619.92345144,"UNITDESC":"PS-644; East Pump Station C Contract","FULL_ADDRE":"1905 CHAMPION CI","COMPKEY":1841710,"UNITID":"GC0516","COMPTYPE":14}},{"type":"Feature","geometry":{"type":"Point","coordinates":[-76.12227472219115,36.771377418674504]},"properties":{"OBJECTID":320,"X":12179289.3105411,"Y":3449088.00606492,"UNITDESC":"Champion Oaks Park","FULL_ADDRE":"1909 STILLMEADOW CT","COMPKEY":1848988,"UNITID":"GC1013","COMPTYPE":14}},{"type":"Feature","geometry":{"type":"Point","coordinates":[-76.0345634630898,36.85662864020288]},"properties":{"OBJECTID":321,"X":12204161.3377136,"Y":3480775.0221657,"UNITDESC":"Gloucester Park","FULL_ADDRE":"1910 LONG BRIDGE LA","COMPKEY":1849299,"UNITID":"GC1035","COMPTYPE":14}},{"type":"Feature","geometry":{"type":"Point","coordinates":[-75.99697980392835,36.778605644325566]},"properties":{"OBJECTID":322,"X":12215906.679617,"Y":3452667.35787806,"UNITDESC":"Upton Estates Park","FULL_ADDRE":"1916 EASTBORNE DR","COMPKEY":1852500,"UNITID":"GC1230","COMPTYPE":14}},{"type":"Feature","geometry":{"type":"Point","coordinates":[-75.9980220059648,36.77172020973598]},"properties":{"OBJECTID":323,"X":12215667.9826129,"Y":3450153.2664133,"UNITDESC":"Ocean Lakes North Park","FULL_ADDRE":"1916 UPTON DR","COMPKEY":1851265,"UNITID":"GC1092","COMPTYPE":14}},{"type":"Feature","geometry":{"type":"Point","coordinates":[-76.07045248101048,36.772916951770384]},"properties":{"OBJECTID":324,"X":12194448.9161659,"Y":3450034.77506183,"UNITDESC":"Landstown Meadows Park","FULL_ADDRE":"1916 WINTER FOREST CT","COMPKEY":1850754,"UNITID":"GC1061","COMPTYPE":14}},{"type":"Feature","geometry":{"type":"Point","coordinates":[-75.97835071134787,36.84721684862423]},"properties":{"OBJECTID":325,"X":12220693.5876688,"Y":3477783.91586983,"UNITDESC":"Emergency Medical Services / Beach Rescue","FULL_ADDRE":"1917 ARCTIC AV","COMPKEY":1870782,"UNITID":"GC6707","COMPTYPE":14}},{"type":"Feature","geometry":{"type":"Point","coordinates":[-76.19188675010089,36.77583187906402]},"properties":{"OBJECTID":326,"X":12158866.2897804,"Y":3450203.34093109,"UNITDESC":"Kempsville Crossing Park","FULL_ADDRE":"1917 KEMPSVILLE CROSSING LA","COMPKEY":1863853,"UNITID":"GC1260","COMPTYPE":14}},{"type":"Feature","geometry":{"type":"Point","coordinates":[-76.01449857342777,36.77150045561284]},"properties":{"OBJECTID":327,"X":12210845.7393842,"Y":3449945.81640245,"UNITDESC":"Strawbridge East Park","FULL_ADDRE":"1921 LEWISHAM WY","COMPKEY":1852383,"UNITID":"GC1224","COMPTYPE":14}},{"type":"Feature","geometry":{"type":"Point","coordinates":[-76.0736427929448,36.89955185883204]},"properties":{"OBJECTID":328,"X":12192329.9074222,"Y":3496101.35565618,"UNITDESC":"PS-270; North Pump Station C Contract","FULL_ADDRE":"1921 WOODSIDE LA","COMPKEY":1839230,"UNITID":"GC0148","COMPTYPE":14}},{"type":"Feature","geometry":{"type":"Point","coordinates":[-76.12194136098248,36.77778957736964]},"properties":{"OBJECTID":329,"X":12179328.12,"Y":3451424.29343809,"UNITDESC":"PS-567; West Pump Station B Contract","FULL_ADDRE":"1925 SALEM RD","COMPKEY":1839571,"UNITID":"GC0394","COMPTYPE":14}},{"type":"Feature","geometry":{"type":"Point","coordinates":[-76.033600249018,36.874676425340375]},"properties":{"OBJECTID":330,"X":12204271.4008444,"Y":3487351.06467295,"UNITDESC":"PS-219; North Pump Station C Contract","FULL_ADDRE":"1938 SANDEE CR","COMPKEY":1839175,"UNITID":"GC0104","COMPTYPE":14}},{"type":"Feature","geometry":{"type":"Point","coordinates":[-76.04321282981918,36.7698469877299]},"properties":{"OBJECTID":331,"X":12202453.7743953,"Y":3449123.88603817,"UNITDESC":"PS-629; East Pump Station C Contract","FULL_ADDRE":"1940 KINGSLAND LA","COMPKEY":1839431,"UNITID":"GC0281","COMPTYPE":14}},{"type":"Feature","geometry":{"type":"Point","coordinates":[-76.1131213907059,36.78120360236752]},"properties":{"OBJECTID":332,"X":12181879.0609356,"Y":3452732.0755183,"UNITDESC":"PS-559; West Pump Station B Contract","FULL_ADDRE":"1942 ROCK LAKE LO","COMPKEY":1839396,"UNITID":"GC0249","COMPTYPE":14}},{"type":"Feature","geometry":{"type":"Point","coordinates":[-76.01323000312625,36.73652137055274]},"properties":{"OBJECTID":333,"X":12211552.6144,"Y":3437224.66531098,"UNITDESC":"PS-645; East Pump Station C Contract","FULL_ADDRE":"1949 EMELITA DR","COMPKEY":1841711,"UNITID":"GC0517","COMPTYPE":14}},{"type":"Feature","geometry":{"type":"Point","coordinates":[-76.11865129383082,36.79614101188718]},"properties":{"OBJECTID":334,"X":12180122.8829951,"Y":3458127.93124694,"UNITDESC":"PS-544; East Pump Station B Contract","FULL_ADDRE":"1952 DAHLIA DR","COMPKEY":1839384,"UNITID":"GC0237","COMPTYPE":14}},{"type":"Feature","geometry":{"type":"Point","coordinates":[-76.00463901072065,36.77181455456132]},